# 
# Header Description:
# 
# Version: v2.0.0.1 Platform: 8.0.0 Manufacturer: Sony Model: G8142
# 
# Raw,ElapsedRealtimeMillis,TimeNanos,LeapSecond,TimeUncertaintyNanos,FullBiasNanos,BiasNanos,BiasUncertaintyNanos,DriftNanosPerSecond,DriftUncertaintyNanosPerSecond,HardwareClockDiscontinuityCount,Svid,TimeOffsetNanos,State,ReceivedSvTimeNanos,ReceivedSvTimeUncertaintyNanos,Cn0DbHz,PseudorangeRateMetersPerSecond,PseudorangeRateUncertaintyMetersPerSecond,AccumulatedDeltaRangeState,AccumulatedDeltaRangeMeters,AccumulatedDeltaRangeUncertaintyMeters,CarrierFrequencyHz,CarrierCycles,CarrierPhase,CarrierPhaseUncertainty,MultipathIndicator,SnrInDb,ConstellationType,AgcDb,CarrierFrequencyHz
# 
# Fix,Provider,Latitude,Longitude,Altitude,Speed,Accuracy,(UTC)TimeInMs
# 
# Nav,Svid,Type,Status,MessageId,Sub-messageId,Data(Bytes)
# 
Fix,gps,22.925303,120.294559,50.259949,0.000000,5.360000,1594022380000
NMEA,$GPGSV,3,1,10,05,54,281,22,06,44,050,14,09,23,046,19,12,25,270,40*74,1594022379332
NMEA,$GPGSV,3,2,10,13,23,185,29,15,01,208,30,19,00,000,31,25,09,296,27*7D,1594022379333
Raw,1507392,1510724000000,,,-1278056086725185024,0.0,64.66024206019938,8.27332566765602,14.932765075363196,1,18,0.0,207,39579382040524,128,17.9,54.92624282836914,5.7795000076293945,0,0.0,0.0,,,,,0,,3,,
Raw,1507393,1510724000000,,,-1278056086725185024,0.0,64.66024206019938,8.27332566765602,14.932765075363196,1,5,0.0,207,39579378354483,53,19.1,-580.2464599609375,1.1434999704360962,0,0.0,0.0,,,,,0,,3,,
Raw,1507393,1510724000000,,,-1278056086725185024,0.0,64.66024206019938,8.27332566765602,14.932765075363196,1,4,0.0,207,39579385208238,14,30.8,88.78297424316406,0.23330000042915344,0,0.0,0.0,,,,,0,,3,,
Raw,1507393,1510724000000,,,-1278056086725185024,0.0,64.66024206019938,8.27332566765602,14.932765075363196,1,5,0.0,15,115197379276915,40,21.6,-105.55590057373047,0.8149999976158142,0,0.0,0.0,,,,,0,,1,,
Raw,1507394,1510724000000,,,-1278056086725185024,0.0,64.66024206019938,8.27332566765602,14.932765075363196,1,6,0.0,15,115197376319244,1404,13.9,82.7967758178711,7.050500392913818,0,0.0,0.0,,,,,0,,1,,
Raw,1507394,1510724000000,,,-1278056086725185024,0.0,64.66024206019938,8.27332566765602,14.932765075363196,1,9,0.0,15,115197370881477,53,19.1,483.2412414550781,1.0115000009536743,0,0.0,0.0,,,,,0,,1,,
Raw,1507394,1510724000000,,,-1278056086725185024,0.0,64.66024206019938,8.27332566765602,14.932765075363196,1,12,0.0,15,115197371864464,5,40.4,181.74314880371094,0.03590000048279762,0,0.0,0.0,,,,,0,,1,,
Raw,1507394,1510724000000,,,-1278056086725185024,0.0,64.66024206019938,8.27332566765602,14.932765075363196,1,13,0.0,15,115197371399892,16,29.3,-669.2540893554688,0.04320000112056732,0,0.0,0.0,,,,,0,,1,,
Raw,1507395,1510724000000,,,-1278056086725185024,0.0,64.66024206019938,8.27332566765602,14.932765075363196,1,15,0.0,15,115197363505081,14,30.4,-716.8238525390625,0.030300000682473183,0,0.0,0.0,,,,,0,,1,,
Raw,1507395,1510724000000,,,-1278056086725185024,0.0,64.66024206019938,8.27332566765602,14.932765075363196,1,19,0.0,15,115197377707545,14,30.5,471.62078857421875,0.05130000039935112,0,0.0,0.0,,,,,0,,1,,
Raw,1507395,1510724000000,,,-1278056086725185024,0.0,64.66024206019938,8.27332566765602,14.932765075363196,1,25,0.0,15,115197367085092,21,26.8,-42.374298095703125,0.12170000374317169,0,0.0,0.0,,,,,0,,1,,
Raw,1507396,1510724000000,,,-1278056086725185024,0.0,64.66024206019938,8.27332566765602,14.932765075363196,1,1,0.0,783,115183325488004,335,19.9,-1.469102144241333,11.660000801086426,0,0.0,0.0,,,,,0,,5,,
Raw,1507396,1510724000000,,,-1278056086725185024,0.0,64.66024206019938,8.27332566765602,14.932765075363196,1,2,0.0,783,115183323985588,82,23.3,-3.744770050048828,5.115000247955322,0,0.0,0.0,,,,,0,,5,,
Raw,1507396,1510724000000,,,-1278056086725185024,0.0,64.66024206019938,8.27332566765602,14.932765075363196,1,3,0.0,783,115183328654106,16,29.8,3.5911386013031006,0.3935000002384186,0,0.0,0.0,,,,,0,,5,,
Raw,1507396,1510724000000,,,-1278056086725185024,0.0,64.66024206019938,8.27332566765602,14.932765075363196,1,5,0.0,783,115183316045532,10,34.7,-2.0452206134796143,0.29350000619888306,0,0.0,0.0,,,,,0,,5,,
Raw,1507397,1510724000000,,,-1278056086725185024,0.0,64.66024206019938,8.27332566765602,14.932765075363196,1,6,0.0,15,115183324693799,78,17.7,-243.6597137451172,2.502500057220459,0,0.0,0.0,,,,,0,,5,,
Raw,1507397,1510724000000,,,-1278056086725185024,0.0,64.66024206019938,8.27332566765602,14.932765075363196,1,7,0.0,15,115183319724397,19,27.7,295.1543884277344,0.0398000031709671,0,0.0,0.0,,,,,0,,5,,
Raw,1507397,1510724000000,,,-1278056086725185024,0.0,64.66024206019938,8.27332566765602,14.932765075363196,1,9,0.0,15,115183318768884,46,20.3,-260.9720764160156,0.8134999871253967,0,0.0,0.0,,,,,0,,5,,
Raw,1507397,1510724000000,,,-1278056086725185024,0.0,64.66024206019938,8.27332566765602,14.932765075363196,1,10,0.0,15,115183321496812,14,30.4,308.4068298339844,0.027300000190734863,0,0.0,0.0,,,,,0,,5,,
Raw,1507398,1510724000000,,,-1278056086725185024,0.0,64.66024206019938,8.27332566765602,14.932765075363196,1,13,0.0,15,115183323533635,16,29.4,-49.62771987915039,0.031200001016259193,0,0.0,0.0,,,,,0,,5,,
Raw,1507398,1510724000000,,,-1278056086725185024,0.0,64.66024206019938,8.27332566765602,14.932765075363196,1,16,0.0,15,115183322494490,21,26.3,-275.0948486328125,0.11420000344514847,0,0.0,0.0,,,,,0,,5,,
Raw,1507398,1510724000000,,,-1278056086725185024,0.0,64.66024206019938,8.27332566765602,14.932765075363196,1,21,0.0,15,115183375936477,14,30.0,-76.99578094482422,0.04830000177025795,0,0.0,0.0,,,,,0,,5,,
Raw,1507399,1510724000000,,,-1278056086725185024,0.0,64.66024206019938,8.27332566765602,14.932765075363196,1,1,0.0,7183,115197355754337,17,28.3,375.97271728515625,0.4090000092983246,0,0.0,0.0,,,,,0,,6,,
NMEA,$GPGSV,3,3,10,07,02,097,,30,04,126,*71,1594022379345
NMEA,$GLGSV,2,1,06,82,52,080,18,69,34,215,19,68,82,312,31,83,44,357,*66,1594022379346
NMEA,$GLGSV,2,2,06,81,14,122,,67,32,023,*6F,1594022379347
NMEA,$GAGSV,1,1,01,01,10,210,28*50,1594022379347
NMEA,$PQGSV,1,1,03,194,11,163,15,195,72,129,23,193,70,064,,0,5*68,1594022379347
NMEA,$PQGSV,3,1,12,01,50,130,20,02,42,243,23,03,62,203,30,05,17,258,35,0,4*61,1594022379347
NMEA,$PQGSV,3,2,12,06,43,170,18,07,00,000,28,09,21,189,20,10,30,222,30,0,4*61,1594022379347
NMEA,$PQGSV,3,3,12,13,00,000,29,16,40,175,26,21,71,257,30,04,37,113,,0,4*60,1594022379348
NMEA,$GNGSA,A,3,05,12,13,25,,,,,,,,,2.0,1.8,0.9,1*30,1594022379348
NMEA,$GNGSA,A,2,68,69,,,,,,,,,,,2.0,1.8,0.9,2*30,1594022379350
NMEA,$GNGSA,A,2,01,,,,,,,,,,,,2.0,1.8,0.9,3*31,1594022379351
NMEA,$PQGSA,A,2,10,21,,,,,,,,,,,2.0,1.8,0.9,4*3D,1594022379351
NMEA,$GNVTG,,T,,M,0.0,N,0.0,K,A*3D,1594022379351
NMEA,$GNRMC,075940.00,A,2255.518207,N,12017.673527,E,0.0,,060720,2.8,W,A*1F,1594022379351
NMEA,$GNGGA,075940.00,2255.518207,N,12017.673527,E,1,09,1.8,32.8,M,17.5,M,,*49,1594022379351
Fix,gps,22.925303,120.294560,50.396057,0.000000,4.288000,1594022381000
Raw,1508372,1511724000000,,,-1278056086725185024,0.0,66.12236029468477,7.113547565290941,15.826335536588878,1,18,0.0,207,39580382040341,167,17.9,54.92624282836914,7.279500484466553,0,0.0,0.0,,,,,0,,3,,
Raw,1508372,1511724000000,,,-1278056086725185024,0.0,66.12236029468477,7.113547565290941,15.826335536588878,1,5,0.0,207,39580378356291,40,21.4,-580.826416015625,1.0134999752044678,0,0.0,0.0,,,,,0,,3,,
Raw,1508373,1511724000000,,,-1278056086725185024,0.0,66.12236029468477,7.113547565290941,15.826335536588878,1,4,0.0,207,39580385207978,11,33.3,88.62825775146484,0.23040001094341278,0,0.0,0.0,,,,,0,,3,,
Raw,1508373,1511724000000,,,-1278056086725185024,0.0,66.12236029468477,7.113547565290941,15.826335536588878,1,5,0.0,15,115198379277282,31,23.1,-106.14580535888672,0.7549999952316284,0,0.0,0.0,,,,,0,,1,,
Raw,1508373,1511724000000,,,-1278056086725185024,0.0,66.12236029468477,7.113547565290941,15.826335536588878,1,6,0.0,15,115198376318990,1629,13.3,82.80628967285156,7.9205002784729,0,0.0,0.0,,,,,0,,1,,
Raw,1508374,1511724000000,,,-1278056086725185024,0.0,66.12236029468477,7.113547565290941,15.826335536588878,1,9,0.0,15,115198370879852,53,19.1,482.1851501464844,1.0115000009536743,0,0.0,0.0,,,,,0,,1,,
Raw,1508374,1511724000000,,,-1278056086725185024,0.0,66.12236029468477,7.113547565290941,15.826335536588878,1,12,0.0,15,115198371863861,5,41.1,181.56312561035156,0.035600002855062485,0,0.0,0.0,,,,,0,,1,,
Raw,1508375,1511724000000,,,-1278056086725185024,0.0,66.12236029468477,7.113547565290941,15.826335536588878,1,13,0.0,15,115198371402108,14,30.6,-669.5183715820312,0.04230000078678131,0,0.0,0.0,,,,,0,,1,,
Raw,1508375,1511724000000,,,-1278056086725185024,0.0,66.12236029468477,7.113547565290941,15.826335536588878,1,15,0.0,15,115198363507512,13,31.5,-717.1299438476562,0.02970000170171261,0,0.0,0.0,,,,,0,,1,,
Raw,1508376,1511724000000,,,-1278056086725185024,0.0,66.12236029468477,7.113547565290941,15.826335536588878,1,19,0.0,15,115198377705999,19,27.7,471.4486083984375,0.06680000573396683,0,0.0,0.0,,,,,0,,1,,
Raw,1508376,1511724000000,,,-1278056086725185024,0.0,66.12236029468477,7.113547565290941,15.826335536588878,1,25,0.0,15,115198367085233,17,28.0,-42.54066467285156,0.043800000101327896,0,0.0,0.0,,,,,0,,1,,
Raw,1508377,1511724000000,,,-1278056086725185024,0.0,66.12236029468477,7.113547565290941,15.826335536588878,1,1,0.0,783,115184325487907,41,22.6,9.601974487304688,1.9850000143051147,0,0.0,0.0,,,,,0,,5,,
Raw,1508377,1511724000000,,,-1278056086725185024,0.0,66.12236029468477,7.113547565290941,15.826335536588878,1,2,0.0,783,115184323985581,34,24.2,-7.451131820678711,2.075000047683716,0,0.0,0.0,,,,,0,,5,,
Raw,1508377,1511724000000,,,-1278056086725185024,0.0,66.12236029468477,7.113547565290941,15.826335536588878,1,3,0.0,783,115184328654080,17,28.5,5.645960807800293,0.44350001215934753,0,0.0,0.0,,,,,0,,5,,
Raw,1508378,1511724000000,,,-1278056086725185024,0.0,66.12236029468477,7.113547565290941,15.826335536588878,1,5,0.0,783,115184316045532,10,34.1,-1.5843257904052734,0.29350000619888306,0,0.0,0.0,,,,,0,,5,,
Raw,1508378,1511724000000,,,-1278056086725185024,0.0,66.12236029468477,7.113547565290941,15.826335536588878,1,6,0.0,15,115184324694558,73,17.6,-245.98338317871094,1.752500057220459,0,0.0,0.0,,,,,0,,5,,
Raw,1508379,1511724000000,,,-1278056086725185024,0.0,66.12236029468477,7.113547565290941,15.826335536588878,1,7,0.0,15,115184319723424,19,27.2,294.8707275390625,0.0398000031709671,0,0.0,0.0,,,,,0,,5,,
Raw,1508379,1511724000000,,,-1278056086725185024,0.0,66.12236029468477,7.113547565290941,15.826335536588878,1,9,0.0,15,115184318769705,93,15.7,-260.7416076660156,1.1934999227523804,0,0.0,0.0,,,,,0,,5,,
Raw,1508379,1511724000000,,,-1278056086725185024,0.0,66.12236029468477,7.113547565290941,15.826335536588878,1,10,0.0,15,115184321495782,16,29.5,308.1156921386719,0.028200000524520874,0,0.0,0.0,,,,,0,,5,,
Raw,1508381,1511724000000,,,-1278056086725185024,0.0,66.12236029468477,7.113547565290941,15.826335536588878,1,13,0.0,15,115184323533790,13,31.8,-49.93617630004883,0.02970000170171261,0,0.0,0.0,,,,,0,,5,,
Raw,1508381,1511724000000,,,-1278056086725185024,0.0,66.12236029468477,7.113547565290941,15.826335536588878,1,16,0.0,15,115184322495371,40,21.9,-275.81671142578125,0.6694999933242798,0,0.0,0.0,,,,,0,,5,,
Raw,1508381,1511724000000,,,-1278056086725185024,0.0,66.12236029468477,7.113547565290941,15.826335536588878,1,21,0.0,15,115184375936772,24,25.7,-76.9794921875,0.4043000042438507,0,0.0,0.0,,,,,0,,5,,
Raw,1508381,1511724000000,,,-1278056086725185024,0.0,66.12236029468477,7.113547565290941,15.826335536588878,1,1,0.0,7183,115198355753091,16,29.1,375.8743896484375,0.04920000210404396,0,0.0,0.0,,,,,0,,6,,
NMEA,$GPGSV,3,1,10,05,54,281,23,06,44,050,13,09,23,046,19,12,25,270,41*73,1594022380332
NMEA,$GPGSV,3,2,10,13,23,185,31,15,01,208,32,19,00,000,28,25,09,296,28*71,1594022380332
NMEA,$GPGSV,3,3,10,07,02,097,,30,04,126,*71,1594022380332
NMEA,$GLGSV,2,1,06,82,52,080,18,69,34,215,21,68,82,312,33,83,44,357,*6F,1594022380332
NMEA,$GLGSV,2,2,06,81,14,122,,67,32,023,*6F,1594022380334
NMEA,$GAGSV,1,1,01,01,10,210,29*51,1594022380334
NMEA,$PQGSV,1,1,03,194,11,163,15,195,72,129,19,193,70,064,,0,5*61,1594022380335
NMEA,$PQGSV,3,1,12,01,50,130,23,02,42,243,24,03,62,203,29,05,17,258,34,0,4*6C,1594022380335
NMEA,$PQGSV,3,2,12,06,43,170,18,07,00,000,27,09,21,189,16,10,30,222,30,0,4*6B,1594022380335
NMEA,$PQGSV,3,3,12,13,00,000,32,16,40,175,22,21,71,257,26,04,37,113,,0,4*69,1594022380335
NMEA,$GNGSA,A,3,05,12,13,25,,,,,,,,,2.0,1.8,0.9,1*30,1594022380336
NMEA,$GNGSA,A,2,68,69,,,,,,,,,,,2.0,1.8,0.9,2*30,1594022380336
NMEA,$GNGSA,A,2,01,,,,,,,,,,,,2.0,1.8,0.9,3*31,1594022380336
NMEA,$PQGSA,A,2,10,21,,,,,,,,,,,2.0,1.8,0.9,4*3D,1594022380336
NMEA,$GNVTG,,T,,M,0.0,N,0.0,K,A*3D,1594022380337
NMEA,$GNRMC,075941.00,A,2255.518186,N,12017.673604,E,0.0,,060720,2.8,W,A*16,1594022380337
NMEA,$GNGGA,075941.00,2255.518186,N,12017.673604,E,1,09,1.8,32.9,M,17.5,M,,*41,1594022380337
Fix,gps,22.925303,120.294559,50.202820,0.000000,4.288000,1594022382000
NMEA,$GPGSV,3,1,10,05,54,281,30,06,44,050,13,09,23,046,19,12,25,270,40*70,1594022381331
Raw,1509369,1512724000000,,,-1278056086725185024,0.0,58.51635069120675,6.199494301545755,11.98291703881414,1,18,0.0,207,39581382040241,137,14.1,55.169776916503906,4.559500217437744,0,0.0,0.0,,,,,0,,3,,
Raw,1509369,1512724000000,,,-1278056086725185024,0.0,58.51635069120675,6.199494301545755,11.98291703881414,1,5,0.0,207,39581378358267,35,22.5,-580.3961791992188,0.953499972820282,0,0.0,0.0,,,,,0,,3,,
Raw,1509370,1512724000000,,,-1278056086725185024,0.0,58.51635069120675,6.199494301545755,11.98291703881414,1,4,0.0,207,39581385207659,10,34.7,88.40095520019531,0.22960001230239868,0,0.0,0.0,,,,,0,,3,,
Raw,1509370,1512724000000,,,-1278056086725185024,0.0,58.51635069120675,6.199494301545755,11.98291703881414,1,5,0.0,15,115199379277561,14,30.0,-106.3392562866211,0.05430000275373459,0,0.0,0.0,,,,,0,,1,,
Raw,1509370,1512724000000,,,-1278056086725185024,0.0,58.51635069120675,6.199494301545755,11.98291703881414,1,6,0.0,15,115199376318765,1654,12.7,82.8538589477539,8.670500755310059,0,0.0,0.0,,,,,0,,1,,
Raw,1509370,1512724000000,,,-1278056086725185024,0.0,58.51635069120675,6.199494301545755,11.98291703881414,1,9,0.0,15,115199370878244,61,19.1,482.1851501464844,2.511500120162964,0,0.0,0.0,,,,,0,,1,,
Raw,1509371,1512724000000,,,-1278056086725185024,0.0,58.51635069120675,6.199494301545755,11.98291703881414,1,12,0.0,15,115199371863260,5,40.3,181.23391723632812,0.03590000048279762,0,0.0,0.0,,,,,0,,1,,
Raw,1509371,1512724000000,,,-1278056086725185024,0.0,58.51635069120675,6.199494301545755,11.98291703881414,1,13,0.0,15,115199371404338,14,30.6,-669.9091186523438,0.04230000078678131,0,0.0,0.0,,,,,0,,1,,
Raw,1509371,1512724000000,,,-1278056086725185024,0.0,58.51635069120675,6.199494301545755,11.98291703881414,1,15,0.0,15,115199363509892,13,31.5,-717.546630859375,0.02970000170171261,0,0.0,0.0,,,,,0,,1,,
Raw,1509372,1512724000000,,,-1278056086725185024,0.0,58.51635069120675,6.199494301545755,11.98291703881414,1,19,0.0,15,115199377704447,19,27.1,471.1053466796875,0.06680000573396683,0,0.0,0.0,,,,,0,,1,,
Raw,1509372,1512724000000,,,-1278056086725185024,0.0,58.51635069120675,6.199494301545755,11.98291703881414,1,25,0.0,15,115199367085392,21,26.7,-42.84590530395508,0.12170000374317169,0,0.0,0.0,,,,,0,,1,,
Raw,1509372,1512724000000,,,-1278056086725185024,0.0,58.51635069120675,6.199494301545755,11.98291703881414,1,1,0.0,783,115185325487875,57,22.6,9.601974487304688,3.4850001335144043,0,0.0,0.0,,,,,0,,5,,
Raw,1509372,1512724000000,,,-1278056086725185024,0.0,58.51635069120675,6.199494301545755,11.98291703881414,1,2,0.0,783,115185323985606,51,24.2,-7.451131820678711,3.575000047683716,0,0.0,0.0,,,,,0,,5,,
Raw,1509373,1512724000000,,,-1278056086725185024,0.0,58.51635069120675,6.199494301545755,11.98291703881414,1,3,0.0,783,115185328654081,17,28.0,1.286664605140686,0.44350001215934753,0,0.0,0.0,,,,,0,,5,,
Raw,1509373,1512724000000,,,-1278056086725185024,0.0,58.51635069120675,6.199494301545755,11.98291703881414,1,5,0.0,783,115185316045533,11,33.8,-1.5171120166778564,0.29350000619888306,0,0.0,0.0,,,,,0,,5,,
Raw,1509373,1512724000000,,,-1278056086725185024,0.0,58.51635069120675,6.199494301545755,11.98291703881414,1,6,0.0,15,115185324695378,46,20.1,-244.75433349609375,0.7924999594688416,0,0.0,0.0,,,,,0,,5,,
Raw,1509373,1512724000000,,,-1278056086725185024,0.0,58.51635069120675,6.199494301545755,11.98291703881414,1,7,0.0,15,115185319722449,19,27.7,294.454345703125,0.0398000031709671,0,0.0,0.0,,,,,0,,5,,
Raw,1509374,1512724000000,,,-1278056086725185024,0.0,58.51635069120675,6.199494301545755,11.98291703881414,1,9,0.0,15,115185318770610,61,18.3,-261.3753662109375,0.9434999823570251,0,0.0,0.0,,,,,0,,5,,
Raw,1509375,1512724000000,,,-1278056086725185024,0.0,58.51635069120675,6.199494301545755,11.98291703881414,1,10,0.0,15,115185321494740,16,29.8,307.7544250488281,0.028200000524520874,0,0.0,0.0,,,,,0,,5,,
Raw,1509375,1512724000000,,,-1278056086725185024,0.0,58.51635069120675,6.199494301545755,11.98291703881414,1,13,0.0,15,115185323533963,13,31.9,-50.358463287353516,0.02970000170171261,0,0.0,0.0,,,,,0,,5,,
Raw,1509375,1512724000000,,,-1278056086725185024,0.0,58.51635069120675,6.199494301545755,11.98291703881414,1,16,0.0,15,115185322496344,35,22.1,-275.33660888671875,0.6694999933242798,0,0.0,0.0,,,,,0,,5,,
Raw,1509375,1512724000000,,,-1278056086725185024,0.0,58.51635069120675,6.199494301545755,11.98291703881414,1,21,0.0,15,115185375937065,31,23.6,-77.4687271118164,0.6389999985694885,0,0.0,0.0,,,,,0,,5,,
Raw,1509376,1512724000000,,,-1278056086725185024,0.0,58.51635069120675,6.199494301545755,11.98291703881414,1,1,0.0,7183,115199355751856,21,26.8,376.0475158691406,0.13369999825954437,0,0.0,0.0,,,,,0,,6,,
NMEA,$GPGSV,3,2,10,13,23,185,31,15,01,208,32,19,00,000,27,25,09,296,27*71,1594022381331
NMEA,$GPGSV,3,3,10,07,02,097,,30,04,126,*71,1594022381331
NMEA,$GLGSV,2,1,06,82,52,080,14,69,34,215,23,68,82,312,35,83,44,357,*67,1594022381332
NMEA,$GLGSV,2,2,06,81,14,122,,67,32,023,*6F,1594022381332
NMEA,$GAGSV,1,1,01,01,10,210,27*5F,1594022381332
NMEA,$PQGSV,1,1,03,193,70,064,15,194,11,163,13,195,72,129,22,0,5*6B,1594022381332
NMEA,$PQGSV,3,1,12,01,50,130,23,02,42,243,24,03,62,203,28,05,17,258,34,0,4*6D,1594022381332
NMEA,$PQGSV,3,2,12,06,43,170,20,07,00,000,28,09,21,189,18,10,30,222,30,0,4*61,1594022381333
NMEA,$PQGSV,3,3,12,13,00,000,32,16,40,175,22,21,71,257,24,04,37,113,,0,4*6B,1594022381333
NMEA,$GNGSA,A,3,05,12,13,25,,,,,,,,,2.0,1.8,0.9,1*30,1594022381334
NMEA,$GNGSA,A,2,68,69,,,,,,,,,,,2.0,1.8,0.9,2*30,1594022381334
NMEA,$GNGSA,A,2,01,,,,,,,,,,,,2.0,1.8,0.9,3*31,1594022381334
NMEA,$PQGSA,A,2,10,21,,,,,,,,,,,2.0,1.8,0.9,4*3D,1594022381334
NMEA,$GNVTG,,T,,M,0.0,N,0.0,K,A*3D,1594022381334
NMEA,$GNRMC,075942.00,A,2255.518151,N,12017.673557,E,0.0,,060720,2.8,W,A*1A,1594022381334
NMEA,$GNGGA,075942.00,2255.518151,N,12017.673557,E,1,09,1.8,32.7,M,17.5,M,,*43,1594022381335
Fix,gps,22.925303,120.294559,50.268555,0.000000,4.288000,1594022383000
NMEA,$GPGSV,3,1,10,05,54,281,30,06,44,050,12,09,23,046,18,12,25,270,40*70,1594022382343
NMEA,$GPGSV,3,2,10,13,23,185,31,15,02,208,30,19,00,000,26,25,09,296,26*70,1594022382344
Raw,1510390,1513724000000,,,-1278056086725185024,0.0,57.16142914025113,4.575397855029126,11.093520200605768,1,18,0.0,207,39582382040057,167,14.1,55.169776916503906,6.059500217437744,0,0.0,0.0,,,,,0,,3,,
Raw,1510390,1513724000000,,,-1278056086725185024,0.0,57.16142914025113,4.575397855029126,11.093520200605768,1,5,0.0,207,39582378360157,31,23.5,-580.55517578125,0.8934999704360962,0,0.0,0.0,,,,,0,,3,,
Raw,1510390,1513724000000,,,-1278056086725185024,0.0,57.16142914025113,4.575397855029126,11.093520200605768,1,4,0.0,207,39582385207393,10,34.2,88.6513900756836,0.22960001230239868,0,0.0,0.0,,,,,0,,3,,
Raw,1510391,1513724000000,,,-1278056086725185024,0.0,57.16142914025113,4.575397855029126,11.093520200605768,1,5,0.0,15,115200379277928,16,29.9,-106.15596771240234,0.0552000030875206,0,0.0,0.0,,,,,0,,1,,
Raw,1510391,1513724000000,,,-1278056086725185024,0.0,57.16142914025113,4.575397855029126,11.093520200605768,1,6,0.0,15,115200376318507,1915,12.4,82.88240814208984,9.550500869750977,0,0.0,0.0,,,,,0,,1,,
Raw,1510391,1513724000000,,,-1278056086725185024,0.0,57.16142914025113,4.575397855029126,11.093520200605768,1,9,0.0,15,115200370876650,73,17.9,482.622802734375,1.841499924659729,0,0.0,0.0,,,,,0,,1,,
Raw,1510391,1513724000000,,,-1278056086725185024,0.0,57.16142914025113,4.575397855029126,11.093520200605768,1,12,0.0,15,115200371862655,6,39.9,181.44325256347656,0.03610000014305115,0,0.0,0.0,,,,,0,,1,,
Raw,1510392,1513724000000,,,-1278056086725185024,0.0,57.16142914025113,4.575397855029126,11.093520200605768,1,13,0.0,15,115200371406566,14,30.5,-669.7679443359375,0.04230000078678131,0,0.0,0.0,,,,,0,,1,,
Raw,1510392,1513724000000,,,-1278056086725185024,0.0,57.16142914025113,4.575397855029126,11.093520200605768,1,15,0.0,15,115200363512272,14,30.1,-717.4606323242188,0.030300000682473183,0,0.0,0.0,,,,,0,,1,,
Raw,1510392,1513724000000,,,-1278056086725185024,0.0,57.16142914025113,4.575397855029126,11.093520200605768,1,19,0.0,15,115200377702889,21,26.3,471.32342529296875,0.13670000433921814,0,0.0,0.0,,,,,0,,1,,
Raw,1510393,1513724000000,,,-1278056086725185024,0.0,57.16142914025113,4.575397855029126,11.093520200605768,1,25,0.0,15,115200367085524,24,25.7,-42.61627960205078,0.392300009727478,0,0.0,0.0,,,,,0,,1,,
Raw,1510393,1513724000000,,,-1278056086725185024,0.0,57.16142914025113,4.575397855029126,11.093520200605768,1,1,0.0,783,115186325487843,83,22.6,9.601974487304688,4.985000133514404,0,0.0,0.0,,,,,0,,5,,
Raw,1510393,1513724000000,,,-1278056086725185024,0.0,57.16142914025113,4.575397855029126,11.093520200605768,1,2,0.0,783,115186323985631,78,24.2,-7.451131820678711,5.075000286102295,0,0.0,0.0,,,,,0,,5,,
Raw,1510394,1513724000000,,,-1278056086725185024,0.0,57.16142914025113,4.575397855029126,11.093520200605768,1,3,0.0,783,115186328654077,24,28.0,1.286664605140686,1.94350004196167,0,0.0,0.0,,,,,0,,5,,
Raw,1510394,1513724000000,,,-1278056086725185024,0.0,57.16142914025113,4.575397855029126,11.093520200605768,1,5,0.0,783,115186316045534,10,34.3,-0.8833816051483154,0.29350000619888306,0,0.0,0.0,,,,,0,,5,,
Raw,1510394,1513724000000,,,-1278056086725185024,0.0,57.16142914025113,4.575397855029126,11.093520200605768,1,6,0.0,15,115186324696234,31,23.1,-245.03280639648438,0.6225000023841858,0,0.0,0.0,,,,,0,,5,,
Raw,1510394,1513724000000,,,-1278056086725185024,0.0,57.16142914025113,4.575397855029126,11.093520200605768,1,7,0.0,15,115186319721444,19,27.0,294.5906066894531,0.0398000031709671,0,0.0,0.0,,,,,0,,5,,
Raw,1510395,1513724000000,,,-1278056086725185024,0.0,57.16142914025113,4.575397855029126,11.093520200605768,1,9,0.0,15,115186318771482,69,18.3,-261.3753662109375,2.44350004196167,0,0.0,0.0,,,,,0,,5,,
Raw,1510395,1513724000000,,,-1278056086725185024,0.0,57.16142914025113,4.575397855029126,11.093520200605768,1,10,0.0,15,115186321493721,16,29.7,307.8466491699219,0.028200000524520874,0,0.0,0.0,,,,,0,,5,,
Raw,1510395,1513724000000,,,-1278056086725185024,0.0,57.16142914025113,4.575397855029126,11.093520200605768,1,13,0.0,15,115186323534126,12,32.5,-50.262046813964844,0.0284000001847744,0,0.0,0.0,,,,,0,,5,,
Raw,1510395,1513724000000,,,-1278056086725185024,0.0,57.16142914025113,4.575397855029126,11.093520200605768,1,16,0.0,15,115186322497226,40,21.0,-276.0087585449219,0.7294999957084656,0,0.0,0.0,,,,,0,,5,,
Raw,1510396,1513724000000,,,-1278056086725185024,0.0,57.16142914025113,4.575397855029126,11.093520200605768,1,21,0.0,15,115186375937293,31,23.5,-76.83499908447266,0.6389999985694885,0,0.0,0.0,,,,,0,,5,,
Raw,1510396,1513724000000,,,-1278056086725185024,0.0,57.16142914025113,4.575397855029126,11.093520200605768,1,1,0.0,7183,115200355750597,21,26.1,375.6865234375,0.13369999825954437,0,0.0,0.0,,,,,0,,6,,
NMEA,$GPGSV,3,3,10,07,02,097,,30,04,126,*71,1594022382344
NMEA,$GLGSV,2,1,06,82,52,080,14,69,34,215,24,68,82,312,34,83,44,357,*61,1594022382345
NMEA,$GLGSV,2,2,06,81,14,122,,67,32,023,*6F,1594022382345
NMEA,$GAGSV,1,1,01,01,10,209,26*56,1594022382346
NMEA,$PQGSV,1,1,03,193,70,064,16,194,11,163,13,195,72,129,21,0,5*6B,1594022382347
NMEA,$PQGSV,3,1,12,01,50,130,23,02,42,243,24,03,62,203,28,05,17,258,34,0,4*6D,1594022382347
NMEA,$PQGSV,3,2,12,06,43,170,23,07,00,000,27,09,21,189,18,10,30,222,30,0,4*6D,1594022382348
NMEA,$PQGSV,3,3,12,13,00,000,33,16,40,175,21,21,71,257,24,04,37,113,,0,4*69,1594022382348
NMEA,$GNGSA,A,3,05,12,13,25,,,,,,,,,2.0,1.8,0.9,1*30,1594022382352
NMEA,$GNGSA,A,2,68,69,,,,,,,,,,,2.0,1.8,0.9,2*30,1594022382353
NMEA,$GNGSA,A,2,01,,,,,,,,,,,,2.0,1.8,0.9,3*31,1594022382353
NMEA,$PQGSA,A,2,10,21,,,,,,,,,,,2.0,1.8,0.9,4*3D,1594022382354
NMEA,$GNVTG,,T,,M,0.0,N,0.0,K,A*3D,1594022382354
NMEA,$GNRMC,075943.00,A,2255.518191,N,12017.673538,E,0.0,,060720,2.8,W,A*1E,1594022382354
NMEA,$GNGGA,075943.00,2255.518191,N,12017.673538,E,1,09,1.8,32.8,M,17.5,M,,*48,1594022382354
Fix,gps,22.925305,120.294559,50.232117,0.000000,4.288000,1594022384000
NMEA,$GPGSV,3,1,10,05,54,281,30,06,44,050,13,09,23,046,19,12,25,270,40*70,1594022383342
Raw,1511383,1514724000000,,,-1278056086725185024,0.0,57.43168367189355,5.319059857505369,12.07083431224034,1,18,0.0,207,39583382039787,73,17.9,54.50474166870117,2.0295000076293945,0,0.0,0.0,,,,,0,,3,,
Raw,1511383,1514724000000,,,-1278056086725185024,0.0,57.43168367189355,5.319059857505369,12.07083431224034,1,5,0.0,207,39583378362062,31,23.9,-580.6112670898438,0.8934999704360962,0,0.0,0.0,,,,,0,,3,,
Raw,1511383,1514724000000,,,-1278056086725185024,0.0,57.43168367189355,5.319059857505369,12.07083431224034,1,4,0.0,207,39583385207091,11,33.5,88.91654205322266,0.23040001094341278,0,0.0,0.0,,,,,0,,3,,
Raw,1511384,1514724000000,,,-1278056086725185024,0.0,57.43168367189355,5.319059857505369,12.07083431224034,1,5,0.0,15,115201379278280,14,30.0,-105.9758529663086,0.05430000275373459,0,0.0,0.0,,,,,0,,1,,
Raw,1511384,1514724000000,,,-1278056086725185024,0.0,57.43168367189355,5.319059857505369,12.07083431224034,1,6,0.0,15,115201376318222,1711,12.7,82.89192199707031,10.170500755310059,0,0.0,0.0,,,,,0,,1,,
Raw,1511384,1514724000000,,,-1278056086725185024,0.0,57.43168367189355,5.319059857505369,12.07083431224034,1,9,0.0,15,115201370875100,61,18.7,482.0519104003906,1.0115000009536743,0,0.0,0.0,,,,,0,,1,,
Raw,1511384,1514724000000,,,-1278056086725185024,0.0,57.43168367189355,5.319059857505369,12.07083431224034,1,12,0.0,15,115201371862052,6,39.9,181.65115356445312,0.03610000014305115,0,0.0,0.0,,,,,0,,1,,
Raw,1511384,1514724000000,,,-1278056086725185024,0.0,57.43168367189355,5.319059857505369,12.07083431224034,1,13,0.0,15,115201371408784,14,30.6,-669.6339721679688,0.04230000078678131,0,0.0,0.0,,,,,0,,1,,
Raw,1511385,1514724000000,,,-1278056086725185024,0.0,57.43168367189355,5.319059857505369,12.07083431224034,1,15,0.0,15,115201363514693,16,29.3,-717.3434448242188,0.031200001016259193,0,0.0,0.0,,,,,0,,1,,
Raw,1511385,1514724000000,,,-1278056086725185024,0.0,57.43168367189355,5.319059857505369,12.07083431224034,1,19,0.0,15,115201377701277,21,26.5,471.53643798828125,0.13670000433921814,0,0.0,0.0,,,,,0,,1,,
Raw,1511385,1514724000000,,,-1278056086725185024,0.0,57.43168367189355,5.319059857505369,12.07083431224034,1,25,0.0,15,115201367085696,21,26.0,-42.399600982666016,0.12170000374317169,0,0.0,0.0,,,,,0,,1,,
Raw,1511385,1514724000000,,,-1278056086725185024,0.0,57.43168367189355,5.319059857505369,12.07083431224034,1,1,0.0,783,115187325487889,48,21.4,-0.07681579887866974,2.255000114440918,0,0.0,0.0,,,,,0,,5,,
Raw,1511385,1514724000000,,,-1278056086725185024,0.0,57.43168367189355,5.319059857505369,12.07083431224034,1,2,0.0,783,115187323985629,54,20.7,-7.3263068199157715,2.2850000858306885,0,0.0,0.0,,,,,0,,5,,
Raw,1511386,1514724000000,,,-1278056086725185024,0.0,57.43168367189355,5.319059857505369,12.07083431224034,1,3,0.0,783,115187328654053,21,27.2,5.914816379547119,1.2335000038146973,0,0.0,0.0,,,,,0,,5,,
Raw,1511386,1514724000000,,,-1278056086725185024,0.0,57.43168367189355,5.319059857505369,12.07083431224034,1,5,0.0,783,115187316045543,10,34.3,-1.2386547327041626,0.29350000619888306,0,0.0,0.0,,,,,0,,5,,
Raw,1511386,1514724000000,,,-1278056086725185024,0.0,57.43168367189355,5.319059857505369,12.07083431224034,1,6,0.0,15,115187324697047,35,22.4,-245.22483825683594,0.67249995470047,0,0.0,0.0,,,,,0,,5,,
Raw,1511386,1514724000000,,,-1278056086725185024,0.0,57.43168367189355,5.319059857505369,12.07083431224034,1,7,0.0,15,115187319720476,19,27.5,294.6882629394531,0.0398000031709671,0,0.0,0.0,,,,,0,,5,,
Raw,1511387,1514724000000,,,-1278056086725185024,0.0,57.43168367189355,5.319059857505369,12.07083431224034,1,9,0.0,15,115187318772354,87,18.3,-261.3753662109375,3.94350004196167,0,0.0,0.0,,,,,0,,5,,
Raw,1511387,1514724000000,,,-1278056086725185024,0.0,57.43168367189355,5.319059857505369,12.07083431224034,1,10,0.0,15,115187321492687,16,29.9,307.97576904296875,0.028200000524520874,0,0.0,0.0,,,,,0,,5,,
Raw,1511387,1514724000000,,,-1278056086725185024,0.0,57.43168367189355,5.319059857505369,12.07083431224034,1,13,0.0,15,115187323534296,12,32.5,-50.144596099853516,0.0284000001847744,0,0.0,0.0,,,,,0,,5,,
Raw,1511387,1514724000000,,,-1278056086725185024,0.0,57.43168367189355,5.319059857505369,12.07083431224034,1,16,0.0,15,115187322498157,46,20.2,-275.7783203125,0.7894999980926514,0,0.0,0.0,,,,,0,,5,,
Raw,1511388,1514724000000,,,-1278056086725185024,0.0,57.43168367189355,5.319059857505369,12.07083431224034,1,21,0.0,15,115187375937581,31,23.1,-77.72798156738281,0.6389999985694885,0,0.0,0.0,,,,,0,,5,,
Raw,1511388,1514724000000,,,-1278056086725185024,0.0,57.43168367189355,5.319059857505369,12.07083431224034,1,1,0.0,7183,115201355749335,21,26.9,375.5722351074219,0.13369999825954437,0,0.0,0.0,,,,,0,,6,,
NMEA,$GPGSV,3,2,10,13,23,185,31,15,02,208,29,19,00,000,27,25,09,296,26*79,1594022383343
NMEA,$GPGSV,3,3,10,07,02,097,,30,04,126,*71,1594022383344
NMEA,$GLGSV,2,1,06,82,52,080,18,69,34,215,24,68,82,312,34,83,44,357,*6D,1594022383344
NMEA,$GLGSV,2,2,06,81,14,122,,67,32,023,*6F,1594022383345
NMEA,$GAGSV,1,1,01,01,10,209,27*57,1594022383345
NMEA,$PQGSV,1,1,03,193,70,064,15,194,11,163,13,195,72,129,22,0,5*6B,1594022383346
NMEA,$PQGSV,3,1,12,01,50,130,21,02,42,243,21,03,62,203,27,05,17,258,34,0,4*65,1594022383347
NMEA,$PQGSV,3,2,12,06,43,170,22,07,00,000,28,09,21,189,18,10,30,222,30,0,4*63,1594022383347
NMEA,$PQGSV,3,3,12,13,00,000,33,16,40,175,20,21,71,257,23,04,37,113,,0,4*6F,1594022383347
NMEA,$GNGSA,A,3,05,12,13,25,,,,,,,,,2.0,1.8,0.9,1*30,1594022383348
NMEA,$GNGSA,A,2,68,69,,,,,,,,,,,2.0,1.8,0.9,2*30,1594022383349
NMEA,$GNGSA,A,2,01,,,,,,,,,,,,2.0,1.8,0.9,3*31,1594022383349
NMEA,$PQGSA,A,2,10,21,,,,,,,,,,,2.0,1.8,0.9,4*3D,1594022383349
NMEA,$GNVTG,,T,,M,0.0,N,0.0,K,A*3D,1594022383349
NMEA,$GNRMC,075944.00,A,2255.518275,N,12017.673510,E,0.0,,060720,2.8,W,A*1A,1594022383350
NMEA,$GNGGA,075944.00,2255.518275,N,12017.673510,E,1,09,1.8,32.8,M,17.5,M,,*4C,1594022383350
NMEA,$GPGSV,3,1,10,05,54,281,29,06,44,050,12,09,23,046,19,12,25,270,40*79,1594022384348
Fix,gps,22.925307,120.294558,50.145203,0.000000,5.360000,1594022385000
Raw,1512412,1515724000000,,,-1278056086725185024,0.0,58.72630572412163,5.710599855013784,12.066613767775236,1,18,0.0,207,39584382039748,70,17.6,55.26344299316406,1.2795000076293945,0,0.0,0.0,,,,,0,,3,,
Raw,1512413,1515724000000,,,-1278056086725185024,0.0,58.72630572412163,5.710599855013784,12.066613767775236,1,5,0.0,207,39584378364124,27,24.6,-580.1436157226562,0.843500018119812,0,0.0,0.0,,,,,0,,3,,
Raw,1512413,1515724000000,,,-1278056086725185024,0.0,58.72630572412163,5.710599855013784,12.066613767775236,1,4,0.0,207,39584385206783,10,34.2,89.2679672241211,0.22960001230239868,0,0.0,0.0,,,,,0,,3,,
Raw,1512414,1515724000000,,,-1278056086725185024,0.0,58.72630572412163,5.710599855013784,12.066613767775236,1,5,0.0,15,115202379278649,16,29.1,-105.7031021118164,0.0552000030875206,0,0.0,0.0,,,,,0,,1,,
Raw,1512415,1515724000000,,,-1278056086725185024,0.0,58.72630572412163,5.710599855013784,12.066613767775236,1,6,0.0,15,115202376317957,386,12.4,82.92046356201172,11.425500869750977,0,0.0,0.0,,,,,0,,1,,
Raw,1512415,1515724000000,,,-1278056086725185024,0.0,58.72630572412163,5.710599855013784,12.066613767775236,1,9,0.0,15,115202370873492,69,18.7,482.0519104003906,2.511500120162964,0,0.0,0.0,,,,,0,,1,,
Raw,1512415,1515724000000,,,-1278056086725185024,0.0,58.72630572412163,5.710599855013784,12.066613767775236,1,12,0.0,15,115202371861445,5,40.0,181.94374084472656,0.03590000048279762,0,0.0,0.0,,,,,0,,1,,
Raw,1512416,1515724000000,,,-1278056086725185024,0.0,58.72630572412163,5.710599855013784,12.066613767775236,1,13,0.0,15,115202371411002,13,31.1,-669.4251098632812,0.04170000180602074,0,0.0,0.0,,,,,0,,1,,
Raw,1512416,1515724000000,,,-1278056086725185024,0.0,58.72630572412163,5.710599855013784,12.066613767775236,1,15,0.0,15,115202363517081,14,30.1,-717.1669311523438,0.030300000682473183,0,0.0,0.0,,,,,0,,1,,
Raw,1512417,1515724000000,,,-1278056086725185024,0.0,58.72630572412163,5.710599855013784,12.066613767775236,1,19,0.0,15,115202377699748,21,26.1,471.8288269042969,0.13670000433921814,0,0.0,0.0,,,,,0,,1,,
Raw,1512417,1515724000000,,,-1278056086725185024,0.0,58.72630572412163,5.710599855013784,12.066613767775236,1,25,0.0,15,115202367085804,24,25.9,-42.094886779785156,0.392300009727478,0,0.0,0.0,,,,,0,,1,,
Raw,1512418,1515724000000,,,-1278056086725185024,0.0,58.72630572412163,5.710599855013784,12.066613767775236,1,1,0.0,783,115188325487889,65,21.4,-0.07681579887866974,3.755000114440918,0,0.0,0.0,,,,,0,,5,,
Raw,1512418,1515724000000,,,-1278056086725185024,0.0,58.72630572412163,5.710599855013784,12.066613767775236,1,2,0.0,783,115188323985653,71,20.7,-7.3263068199157715,3.7850000858306885,0,0.0,0.0,,,,,0,,5,,
Raw,1512419,1515724000000,,,-1278056086725185024,0.0,58.72630572412163,5.710599855013784,12.066613767775236,1,3,0.0,783,115188328654040,19,27.9,3.312681198120117,0.44350001215934753,0,0.0,0.0,,,,,0,,5,,
Raw,1512419,1515724000000,,,-1278056086725185024,0.0,58.72630572412163,5.710599855013784,12.066613767775236,1,5,0.0,783,115188316045549,11,33.9,-3.0726318359375,0.29350000619888306,0,0.0,0.0,,,,,0,,5,,
Raw,1512419,1515724000000,,,-1278056086725185024,0.0,58.72630572412163,5.710599855013784,12.066613767775236,1,6,0.0,15,115188324697860,35,22.8,-245.7145233154297,0.6225000023841858,0,0.0,0.0,,,,,0,,5,,
Raw,1512420,1515724000000,,,-1278056086725185024,0.0,58.72630572412163,5.710599855013784,12.066613767775236,1,7,0.0,15,115188319719472,19,27.1,294.8753662109375,0.0398000031709671,0,0.0,0.0,,,,,0,,5,,
Raw,1512420,1515724000000,,,-1278056086725185024,0.0,58.72630572412163,5.710599855013784,12.066613767775236,1,9,0.0,15,115188318773225,116,18.3,-261.3753662109375,5.44350004196167,0,0.0,0.0,,,,,0,,5,,
Raw,1512421,1515724000000,,,-1278056086725185024,0.0,58.72630572412163,5.710599855013784,12.066613767775236,1,10,0.0,15,115188321491652,14,30.5,308.188720703125,0.027300000190734863,0,0.0,0.0,,,,,0,,5,,
Raw,1512421,1515724000000,,,-1278056086725185024,0.0,58.72630572412163,5.710599855013784,12.066613767775236,1,13,0.0,15,115188323534469,12,32.8,-49.96817398071289,0.0284000001847744,0,0.0,0.0,,,,,0,,5,,
Raw,1512422,1515724000000,,,-1278056086725185024,0.0,58.72630572412163,5.710599855013784,12.066613767775236,1,16,0.0,15,115188322499031,40,21.2,-275.4902648925781,0.7294999957084656,0,0.0,0.0,,,,,0,,5,,
Raw,1512422,1515724000000,,,-1278056086725185024,0.0,58.72630572412163,5.710599855013784,12.066613767775236,1,21,0.0,15,115188375937796,31,23.0,-76.53734588623047,0.6389999985694885,0,0.0,0.0,,,,,0,,5,,
Raw,1512423,1515724000000,,,-1278056086725185024,0.0,58.72630572412163,5.710599855013784,12.066613767775236,1,1,0.0,7183,115202355748074,21,26.5,375.4801025390625,0.13369999825954437,0,0.0,0.0,,,,,0,,6,,
NMEA,$GPGSV,3,2,10,13,23,185,31,15,02,208,30,19,00,000,26,25,09,296,26*70,1594022384349
NMEA,$GPGSV,3,3,10,07,02,097,,30,04,126,*71,1594022384353
NMEA,$GLGSV,2,1,06,82,52,080,18,69,34,215,25,68,82,312,34,83,44,357,*6C,1594022384358
NMEA,$GLGSV,2,2,06,81,14,122,,67,32,023,*6F,1594022384360
NMEA,$GAGSV,1,1,01,01,10,209,27*57,1594022384360
NMEA,$PQGSV,1,1,03,193,70,064,15,194,11,163,13,195,72,129,21,0,5*68,1594022384361
NMEA,$PQGSV,3,1,12,01,50,130,21,02,42,243,21,03,62,203,28,05,17,258,34,0,4*6A,1594022384361
NMEA,$PQGSV,3,2,12,06,43,170,23,07,00,000,27,09,21,189,18,10,30,222,31,0,4*6C,1594022384362
NMEA,$PQGSV,3,3,12,13,00,000,33,16,40,175,21,21,71,257,23,04,37,113,,0,4*6E,1594022384362
NMEA,$GNGSA,A,3,05,12,13,25,,,,,,,,,2.0,1.8,0.9,1*30,1594022384365
NMEA,$GNGSA,A,2,68,69,,,,,,,,,,,2.0,1.8,0.9,2*30,1594022384368
NMEA,$GNGSA,A,2,01,,,,,,,,,,,,2.0,1.8,0.9,3*31,1594022384371
NMEA,$PQGSA,A,2,10,21,,,,,,,,,,,2.0,1.8,0.9,4*3D,1594022384372
NMEA,$GNVTG,,T,,M,0.0,N,0.0,K,A*3D,1594022384372
NMEA,$GNRMC,075945.00,A,2255.518392,N,12017.673478,E,0.0,,060720,2.8,W,A*1C,1594022384372
NMEA,$GNGGA,075945.00,2255.518392,N,12017.673478,E,1,09,1.8,32.7,M,17.5,M,,*45,1594022384372
NMEA,$GPGSV,3,1,10,05,54,281,30,06,44,050,12,09,23,046,19,12,25,270,40*71,1594022385333
NMEA,$GPGSV,3,2,10,13,23,185,31,15,02,208,29,19,00,000,24,25,09,296,26*7A,1594022385333
NMEA,$GPGSV,3,3,10,07,02,097,,30,04,126,*71,1594022385334
NMEA,$GLGSV,2,1,06,82,52,080,19,69,34,215,24,68,82,312,34,83,44,357,*6C,1594022385334
NMEA,$GLGSV,2,2,06,81,14,122,,67,32,023,*6F,1594022385335
NMEA,$GAGSV,1,1,01,01,10,209,26*56,1594022385335
Raw,1513403,1516724000000,,,-1278056086725185024,0.0,61.901198932901025,6.263318206808666,11.088319077409652,1,18,0.0,207,39585382039356,61,18.7,55.68494415283203,1.1995000839233398,0,0.0,0.0,,,,,0,,3,,
Raw,1513404,1516724000000,,,-1278056086725185024,0.0,61.901198932901025,6.263318206808666,11.088319077409652,1,5,0.0,207,39585378365976,31,23.9,-579.3672485351562,0.8934999704360962,0,0.0,0.0,,,,,0,,3,,
Raw,1513405,1516724000000,,,-1278056086725185024,0.0,61.901198932901025,6.263318206808666,11.088319077409652,1,4,0.0,207,39585385206498,10,34.0,90.09185791015625,0.22960001230239868,0,0.0,0.0,,,,,0,,3,,
Raw,1513406,1516724000000,,,-1278056086725185024,0.0,61.901198932901025,6.263318206808666,11.088319077409652,1,5,0.0,15,115203379279001,14,30.1,-104.94880676269531,0.05430000275373459,0,0.0,0.0,,,,,0,,1,,
Raw,1513406,1516724000000,,,-1278056086725185024,0.0,61.901198932901025,6.263318206808666,11.088319077409652,1,6,0.0,15,115203376317681,462,12.4,82.92046356201172,12.925500869750977,0,0.0,0.0,,,,,0,,1,,
Raw,1513407,1516724000000,,,-1278056086725185024,0.0,61.901198932901025,6.263318206808666,11.088319077409652,1,9,0.0,15,115203370871884,88,18.7,482.0519104003906,4.011500358581543,0,0.0,0.0,,,,,0,,1,,
Raw,1513408,1516724000000,,,-1278056086725185024,0.0,61.901198932901025,6.263318206808666,11.088319077409652,1,12,0.0,15,115203371860841,5,40.0,182.6981658935547,0.03590000048279762,0,0.0,0.0,,,,,0,,1,,
Raw,1513408,1516724000000,,,-1278056086725185024,0.0,61.901198932901025,6.263318206808666,11.088319077409652,1,13,0.0,15,115203371413253,13,31.4,-668.726806640625,0.04170000180602074,0,0.0,0.0,,,,,0,,1,,
Raw,1513409,1516724000000,,,-1278056086725185024,0.0,61.901198932901025,6.263318206808666,11.088319077409652,1,15,0.0,15,115203363519465,17,28.5,-716.503173828125,0.03779999911785126,0,0.0,0.0,,,,,0,,1,,
Raw,1513410,1516724000000,,,-1278056086725185024,0.0,61.901198932901025,6.263318206808666,11.088319077409652,1,19,0.0,15,115203377698188,27,24.4,472.2898864746094,0.6919999718666077,0,0.0,0.0,,,,,0,,1,,
Raw,1513411,1516724000000,,,-1278056086725185024,0.0,61.901198932901025,6.263318206808666,11.088319077409652,1,25,0.0,15,115203367085962,21,26.3,-41.33347702026367,0.12170000374317169,0,0.0,0.0,,,,,0,,1,,
Raw,1513412,1516724000000,,,-1278056086725185024,0.0,61.901198932901025,6.263318206808666,11.088319077409652,1,1,0.0,783,115189325487890,93,21.4,-0.07681579887866974,5.255000114440918,0,0.0,0.0,,,,,0,,5,,
Raw,1513412,1516724000000,,,-1278056086725185024,0.0,61.901198932901025,6.263318206808666,11.088319077409652,1,2,0.0,783,115189323985678,99,20.7,-7.3263068199157715,5.285000324249268,0,0.0,0.0,,,,,0,,5,,
Raw,1513413,1516724000000,,,-1278056086725185024,0.0,61.901198932901025,6.263318206808666,11.088319077409652,1,3,0.0,783,115189328654019,19,27.9,5.4923295974731445,0.44350001215934753,0,0.0,0.0,,,,,0,,5,,
Raw,1513414,1516724000000,,,-1278056086725185024,0.0,61.901198932901025,6.263318206808666,11.088319077409652,1,5,0.0,783,115189316045545,10,34.0,-0.19203948974609375,0.29350000619888306,0,0.0,0.0,,,,,0,,5,,
Raw,1513414,1516724000000,,,-1278056086725185024,0.0,61.901198932901025,6.263318206808666,11.088319077409652,1,6,0.0,15,115189324698686,35,22.8,-244.37986755371094,0.6225000023841858,0,0.0,0.0,,,,,0,,5,,
Raw,1513415,1516724000000,,,-1278056086725185024,0.0,61.901198932901025,6.263318206808666,11.088319077409652,1,7,0.0,15,115189319718495,19,27.2,295.55908203125,0.0398000031709671,0,0.0,0.0,,,,,0,,5,,
Raw,1513416,1516724000000,,,-1278056086725185024,0.0,61.901198932901025,6.263318206808666,11.088319077409652,1,9,0.0,15,115189318774097,154,18.3,-261.3753662109375,6.94350004196167,0,0.0,0.0,,,,,0,,5,,
Raw,1513416,1516724000000,,,-1278056086725185024,0.0,61.901198932901025,6.263318206808666,11.088319077409652,1,10,0.0,15,115189321490633,14,30.0,308.8705139160156,0.027300000190734863,0,0.0,0.0,,,,,0,,5,,
Raw,1513418,1516724000000,,,-1278056086725185024,0.0,61.901198932901025,6.263318206808666,11.088319077409652,1,13,0.0,15,115189323534634,12,32.2,-49.30649185180664,0.0284000001847744,0,0.0,0.0,,,,,0,,5,,
Raw,1513419,1516724000000,,,-1278056086725185024,0.0,61.901198932901025,6.263318206808666,11.088319077409652,1,16,0.0,15,115189322499968,46,20.2,-275.2790222167969,0.7894999980926514,0,0.0,0.0,,,,,0,,5,,
Raw,1513419,1516724000000,,,-1278056086725185024,0.0,61.901198932901025,6.263318206808666,11.088319077409652,1,21,0.0,15,115189375938016,31,23.1,-76.50852966308594,0.6389999985694885,0,0.0,0.0,,,,,0,,5,,
Raw,1513420,1516724000000,,,-1278056086725185024,0.0,61.901198932901025,6.263318206808666,11.088319077409652,1,1,0.0,7183,115203355746824,21,26.4,375.52685546875,0.13369999825954437,0,0.0,0.0,,,,,0,,6,,
NMEA,$PQGSV,1,1,03,193,70,064,15,194,11,163,13,195,72,129,20,0,5*69,1594022385335
NMEA,$PQGSV,3,1,12,01,50,130,21,02,42,243,21,03,62,203,28,05,17,258,34,0,4*6A,1594022385335
NMEA,$PQGSV,3,2,12,06,43,170,23,07,00,000,27,09,21,189,18,10,30,222,30,0,4*6D,1594022385336
NMEA,$PQGSV,3,3,12,13,00,000,32,16,40,175,20,21,71,257,23,04,37,113,,0,4*6E,1594022385336
NMEA,$GNGSA,A,3,05,12,13,25,,,,,,,,,2.0,1.8,0.9,1*30,1594022385337
NMEA,$GNGSA,A,2,68,69,,,,,,,,,,,2.0,1.8,0.9,2*30,1594022385337
NMEA,$GNGSA,A,2,01,,,,,,,,,,,,2.0,1.8,0.9,3*31,1594022385338
NMEA,$PQGSA,A,2,10,21,,,,,,,,,,,2.0,1.8,0.9,4*3D,1594022385338
NMEA,$GNVTG,,T,,M,0.0,N,0.0,K,A*3D,1594022385338
NMEA,$GNRMC,075946.00,A,2255.518528,N,12017.673433,E,0.0,,060720,2.8,W,A*17,1594022385338
NMEA,$GNGGA,075946.00,2255.518528,N,12017.673433,E,1,09,1.8,32.8,M,17.5,M,,*41,1594022385338
Fix,gps,22.925309,120.294557,50.230591,0.000000,5.360000,1594022386000
Fix,gps,22.925311,120.294557,50.249207,0.000000,5.360000,1594022387000
NMEA,$GPGSV,3,1,10,05,54,281,30,06,44,050,12,09,23,046,19,12,25,270,40*71,1594022386332
Raw,1514376,1517724000000,,,-1278056086725185024,0.0,61.78471085149795,8.447256317118281,11.08515545843807,1,18,0.0,207,39586382039170,70,18.7,55.68494415283203,2.69950008392334,0,0.0,0.0,,,,,0,,3,,
Raw,1514376,1517724000000,,,-1278056086725185024,0.0,61.78471085149795,8.447256317118281,11.08515545843807,1,5,0.0,207,39586378367986,27,24.6,-579.4140625,0.843500018119812,0,0.0,0.0,,,,,0,,3,,
Raw,1514377,1517724000000,,,-1278056086725185024,0.0,61.78471085149795,8.447256317118281,11.08515545843807,1,4,0.0,207,39586385206202,10,34.1,90.150634765625,0.22960001230239868,0,0.0,0.0,,,,,0,,3,,
Raw,1514377,1517724000000,,,-1278056086725185024,0.0,61.78471085149795,8.447256317118281,11.08515545843807,1,5,0.0,15,115204379279303,16,29.5,-104.95654296875,0.0552000030875206,0,0.0,0.0,,,,,0,,1,,
Raw,1514377,1517724000000,,,-1278056086725185024,0.0,61.78471085149795,8.447256317118281,11.08515545843807,1,6,0.0,15,115204376317404,547,12.4,82.92046356201172,14.425500869750977,0,0.0,0.0,,,,,0,,1,,
Raw,1514378,1517724000000,,,-1278056086725185024,0.0,61.78471085149795,8.447256317118281,11.08515545843807,1,9,0.0,15,115204370870276,116,18.7,482.0519104003906,5.511500358581543,0,0.0,0.0,,,,,0,,1,,
Raw,1514378,1517724000000,,,-1278056086725185024,0.0,61.78471085149795,8.447256317118281,11.08515545843807,1,12,0.0,15,115204371860224,5,40.0,182.71266174316406,0.03590000048279762,0,0.0,0.0,,,,,0,,1,,
Raw,1514378,1517724000000,,,-1278056086725185024,0.0,61.78471085149795,8.447256317118281,11.08515545843807,1,13,0.0,15,115204371415485,13,31.4,-668.796875,0.04170000180602074,0,0.0,0.0,,,,,0,,1,,
Raw,1514378,1517724000000,,,-1278056086725185024,0.0,61.78471085149795,8.447256317118281,11.08515545843807,1,15,0.0,15,115204363521878,16,29.2,-716.59814453125,0.031200001016259193,0,0.0,0.0,,,,,0,,1,,
Raw,1514379,1517724000000,,,-1278056086725185024,0.0,61.78471085149795,8.447256317118281,11.08515545843807,1,19,0.0,15,115204377696643,27,24.7,472.5372314453125,0.6420000195503235,0,0.0,0.0,,,,,0,,1,,
Raw,1514379,1517724000000,,,-1278056086725185024,0.0,61.78471085149795,8.447256317118281,11.08515545843807,1,25,0.0,15,115204367086101,21,26.2,-41.32500457763672,0.12170000374317169,0,0.0,0.0,,,,,0,,1,,
Raw,1514379,1517724000000,,,-1278056086725185024,0.0,61.78471085149795,8.447256317118281,11.08515545843807,1,1,0.0,783,115190325487827,48,21.2,5.88601016998291,2.255000114440918,0,0.0,0.0,,,,,0,,5,,
Raw,1514380,1517724000000,,,-1278056086725185024,0.0,61.78471085149795,8.447256317118281,11.08515545843807,1,2,0.0,783,115190323985621,47,21.1,-5.4923295974731445,2.2250001430511475,0,0.0,0.0,,,,,0,,5,,
Raw,1514380,1517724000000,,,-1278056086725185024,0.0,61.78471085149795,8.447256317118281,11.08515545843807,1,3,0.0,783,115190328653995,19,27.7,2.7941746711730957,0.48350000381469727,0,0.0,0.0,,,,,0,,5,,
Raw,1514380,1517724000000,,,-1278056086725185024,0.0,61.78471085149795,8.447256317118281,11.08515545843807,1,5,0.0,783,115190316045553,11,33.8,-1.7955693006515503,0.29350000619888306,0,0.0,0.0,,,,,0,,5,,
Raw,1514381,1517724000000,,,-1278056086725185024,0.0,61.78471085149795,8.447256317118281,11.08515545843807,1,6,0.0,15,115190324699514,35,22.8,-244.12062072753906,0.6225000023841858,0,0.0,0.0,,,,,0,,5,,
Raw,1514381,1517724000000,,,-1278056086725185024,0.0,61.78471085149795,8.447256317118281,11.08515545843807,1,7,0.0,15,115190319717523,19,27.1,295.4410095214844,0.0398000031709671,0,0.0,0.0,,,,,0,,5,,
Raw,1514381,1517724000000,,,-1278056086725185024,0.0,61.78471085149795,8.447256317118281,11.08515545843807,1,9,0.0,15,115190318774969,202,18.3,-261.3753662109375,8.443500518798828,0,0.0,0.0,,,,,0,,5,,
Raw,1514382,1517724000000,,,-1278056086725185024,0.0,61.78471085149795,8.447256317118281,11.08515545843807,1,10,0.0,15,115190321489601,16,29.3,308.78759765625,0.028200000524520874,0,0.0,0.0,,,,,0,,5,,
Raw,1514382,1517724000000,,,-1278056086725185024,0.0,61.78471085149795,8.447256317118281,11.08515545843807,1,13,0.0,15,115190323534792,12,32.6,-49.42152786254883,0.0284000001847744,0,0.0,0.0,,,,,0,,5,,
Raw,1514382,1517724000000,,,-1278056086725185024,0.0,61.78471085149795,8.447256317118281,11.08515545843807,1,16,0.0,15,115190322500873,46,20.8,-274.789306640625,0.7294999957084656,0,0.0,0.0,,,,,0,,5,,
Raw,1514382,1517724000000,,,-1278056086725185024,0.0,61.78471085149795,8.447256317118281,11.08515545843807,1,21,0.0,15,115190375938288,35,22.1,-76.1340560913086,0.6889999508857727,0,0.0,0.0,,,,,0,,5,,
Raw,1514382,1517724000000,,,-1278056086725185024,0.0,61.78471085149795,8.447256317118281,11.08515545843807,1,1,0.0,7183,115204355745578,21,26.1,377.4718322753906,0.13369999825954437,0,0.0,0.0,,,,,0,,6,,
NMEA,$GPGSV,3,2,10,13,23,185,31,15,02,208,29,19,00,000,25,25,09,296,26*7B,1594022386332
NMEA,$GPGSV,3,3,10,07,02,097,,30,04,126,*71,1594022386332
NMEA,$GLGSV,2,1,06,82,52,080,19,69,34,215,25,68,82,312,34,83,44,357,*6D,1594022386332
NMEA,$GLGSV,2,2,06,81,14,122,,67,32,023,*6F,1594022386332
NMEA,$GAGSV,1,1,01,01,10,209,26*56,1594022386334
NMEA,$PQGSV,1,1,03,193,70,064,15,194,11,163,13,195,72,129,21,0,5*68,1594022386334
NMEA,$PQGSV,3,1,12,01,50,130,21,02,42,243,21,03,62,203,28,05,17,258,34,0,4*6A,1594022386335
NMEA,$PQGSV,3,2,12,06,43,170,23,07,00,000,27,09,21,189,18,10,30,222,29,0,4*65,1594022386335
NMEA,$PQGSV,3,3,12,13,00,000,33,16,40,175,21,21,71,257,22,04,37,113,,0,4*6F,1594022386335
NMEA,$GNGSA,A,3,05,12,13,25,,,,,,,,,2.0,1.8,0.9,1*30,1594022386337
NMEA,$GNGSA,A,2,68,69,,,,,,,,,,,2.0,1.8,0.9,2*30,1594022386337
NMEA,$GNGSA,A,2,01,,,,,,,,,,,,2.0,1.8,0.9,3*31,1594022386338
NMEA,$PQGSA,A,2,10,21,,,,,,,,,,,2.0,1.8,0.9,4*3D,1594022386338
NMEA,$GNVTG,,T,,M,0.0,N,0.0,K,A*3D,1594022386338
NMEA,$GNRMC,075947.00,A,2255.518664,N,12017.673421,E,0.0,,060720,2.8,W,A*1E,1594022386339
NMEA,$GNGGA,075947.00,2255.518664,N,12017.673421,E,1,09,1.8,32.8,M,17.5,M,,*48,1594022386339
Fix,gps,22.925313,120.294557,50.107300,0.000000,5.360000,1594022388000
NMEA,$GPGSV,3,1,10,05,54,281,29,09,23,046,19,12,25,270,40,13,23,185,32*77,1594022387331
NMEA,$GPGSV,3,2,10,15,02,208,29,19,00,000,26,25,09,296,26,06,44,050,*76,1594022387332
Raw,1515375,1518724000000,,,-1278056086725185024,0.0,64.34377428377047,8.29629093287532,11.083319955022683,1,18,0.0,207,39587382038993,84,16.6,55.92848205566406,2.119500160217285,0,0.0,0.0,,,,,0,,3,,
Raw,1515376,1518724000000,,,-1278056086725185024,0.0,64.34377428377047,8.29629093287532,11.083319955022683,1,5,0.0,207,39587378369750,27,24.1,-579.35791015625,0.843500018119812,0,0.0,0.0,,,,,0,,3,,
Raw,1515376,1518724000000,,,-1278056086725185024,0.0,64.34377428377047,8.29629093287532,11.083319955022683,1,4,0.0,207,39587385205895,10,34.0,90.38516998291016,0.22960001230239868,0,0.0,0.0,,,,,0,,3,,
Raw,1515376,1518724000000,,,-1278056086725185024,0.0,64.34377428377047,8.29629093287532,11.083319955022683,1,5,0.0,15,115205379279668,16,29.0,-104.81343841552734,0.0552000030875206,0,0.0,0.0,,,,,0,,1,,
Raw,1515376,1518724000000,,,-1278056086725185024,0.0,64.34377428377047,8.29629093287532,11.083319955022683,1,9,0.0,15,115205370868669,155,18.7,482.0519104003906,7.011500358581543,0,0.0,0.0,,,,,0,,1,,
Raw,1515377,1518724000000,,,-1278056086725185024,0.0,64.34377428377047,8.29629093287532,11.083319955022683,1,12,0.0,15,115205371859614,5,40.3,182.87457275390625,0.03590000048279762,0,0.0,0.0,,,,,0,,1,,
Raw,1515377,1518724000000,,,-1278056086725185024,0.0,64.34377428377047,8.29629093287532,11.083319955022683,1,13,0.0,15,115205371417704,13,31.7,-668.6982421875,0.04170000180602074,0,0.0,0.0,,,,,0,,1,,
Raw,1515377,1518724000000,,,-1278056086725185024,0.0,64.34377428377047,8.29629093287532,11.083319955022683,1,15,0.0,15,115205363524239,16,29.2,-716.5222778320312,0.031200001016259193,0,0.0,0.0,,,,,0,,1,,
Raw,1515378,1518724000000,,,-1278056086725185024,0.0,64.34377428377047,8.29629093287532,11.083319955022683,1,19,0.0,15,115205377695020,21,26.0,472.7607421875,0.13670000433921814,0,0.0,0.0,,,,,0,,1,,
Raw,1515378,1518724000000,,,-1278056086725185024,0.0,64.34377428377047,8.29629093287532,11.083319955022683,1,25,0.0,15,115205367086254,24,25.6,-41.132572174072266,0.392300009727478,0,0.0,0.0,,,,,0,,1,,
Raw,1515378,1518724000000,,,-1278056086725185024,0.0,64.34377428377047,8.29629093287532,11.083319955022683,1,1,0.0,783,115191325487807,65,21.2,5.88601016998291,3.755000114440918,0,0.0,0.0,,,,,0,,5,,
Raw,1515378,1518724000000,,,-1278056086725185024,0.0,64.34377428377047,8.29629093287532,11.083319955022683,1,2,0.0,783,115191323985639,65,21.1,-5.4923295974731445,3.7250001430511475,0,0.0,0.0,,,,,0,,5,,
Raw,1515379,1518724000000,,,-1278056086725185024,0.0,64.34377428377047,8.29629093287532,11.083319955022683,1,3,0.0,783,115191328653966,17,28.0,6.692576885223389,0.44350001215934753,0,0.0,0.0,,,,,0,,5,,
Raw,1515379,1518724000000,,,-1278056086725185024,0.0,64.34377428377047,8.29629093287532,11.083319955022683,1,5,0.0,783,115191316045564,11,33.8,-0.2400493621826172,0.29350000619888306,0,0.0,0.0,,,,,0,,5,,
Raw,1515379,1518724000000,,,-1278056086725185024,0.0,64.34377428377047,8.29629093287532,11.083319955022683,1,6,0.0,15,115191324700322,35,22.8,-244.53347778320312,0.6225000023841858,0,0.0,0.0,,,,,0,,5,,
Raw,1515380,1518724000000,,,-1278056086725185024,0.0,64.34377428377047,8.29629093287532,11.083319955022683,1,7,0.0,15,115191319716521,19,27.6,295.513427734375,0.0398000031709671,0,0.0,0.0,,,,,0,,5,,
Raw,1515380,1518724000000,,,-1278056086725185024,0.0,64.34377428377047,8.29629093287532,11.083319955022683,1,9,0.0,15,115191318775841,261,18.3,-261.3753662109375,9.943500518798828,0,0.0,0.0,,,,,0,,5,,
Raw,1515380,1518724000000,,,-1278056086725185024,0.0,64.34377428377047,8.29629093287532,11.083319955022683,1,10,0.0,15,115191321488563,16,29.6,308.87005615234375,0.028200000524520874,0,0.0,0.0,,,,,0,,5,,
Raw,1515380,1518724000000,,,-1278056086725185024,0.0,64.34377428377047,8.29629093287532,11.083319955022683,1,13,0.0,15,115191323534971,12,32.2,-49.35338592529297,0.0284000001847744,0,0.0,0.0,,,,,0,,5,,
Raw,1515381,1518724000000,,,-1278056086725185024,0.0,64.34377428377047,8.29629093287532,11.083319955022683,1,16,0.0,15,115191322501817,46,20.7,-274.5972595214844,0.7894999980926514,0,0.0,0.0,,,,,0,,5,,
Raw,1515381,1518724000000,,,-1278056086725185024,0.0,64.34377428377047,8.29629093287532,11.083319955022683,1,21,0.0,15,115191375938483,35,22.6,-76.1724624633789,0.6889999508857727,0,0.0,0.0,,,,,0,,5,,
Raw,1515381,1518724000000,,,-1278056086725185024,0.0,64.34377428377047,8.29629093287532,11.083319955022683,1,1,0.0,7183,115205355744312,21,26.4,375.05352783203125,0.13369999825954437,0,0.0,0.0,,,,,0,,6,,
NMEA,$GPGSV,3,3,10,07,02,097,,30,04,126,*71,1594022387332
NMEA,$GLGSV,2,1,06,82,52,080,17,69,34,215,24,68,82,312,34,83,44,357,*62,1594022387332
NMEA,$GLGSV,2,2,06,81,14,122,,67,32,023,*6F,1594022387332
NMEA,$GAGSV,1,1,01,01,10,209,26*56,1594022387332
NMEA,$PQGSV,1,1,03,193,70,064,15,194,11,163,14,195,72,129,22,0,5*6C,1594022387332
NMEA,$PQGSV,3,1,12,01,50,130,21,02,42,243,21,03,62,203,28,05,17,258,34,0,4*6A,1594022387332
NMEA,$PQGSV,3,2,12,06,43,170,23,07,00,000,28,09,21,189,18,10,30,222,30,0,4*62,1594022387333
NMEA,$PQGSV,3,3,12,13,00,000,32,16,40,175,21,21,71,257,23,04,37,113,,0,4*6F,1594022387333
NMEA,$GNGSA,A,3,05,12,13,25,,,,,,,,,2.0,1.8,0.9,1*30,1594022387333
NMEA,$GNGSA,A,2,68,69,,,,,,,,,,,2.0,1.8,0.9,2*30,1594022387334
NMEA,$GNGSA,A,2,01,,,,,,,,,,,,2.0,1.8,0.9,3*31,1594022387334
NMEA,$PQGSA,A,2,10,21,,,,,,,,,,,2.0,1.8,0.9,4*3D,1594022387334
NMEA,$GNVTG,,T,,M,0.0,N,0.0,K,A*3D,1594022387334
NMEA,$GNRMC,075948.00,A,2255.518803,N,12017.673440,E,0.0,,060720,2.8,W,A*19,1594022387334
NMEA,$GNGGA,075948.00,2255.518803,N,12017.673440,E,1,09,1.8,32.6,M,17.5,M,,*41,1594022387335
NMEA,$GPGSV,3,1,10,05,54,281,29,09,23,046,14,12,25,270,40,13,23,185,32*7A,1594022388343
Fix,gps,22.925315,120.294558,50.081787,0.000000,5.360000,1594022389000
Raw,1516400,1519724000000,,,-1278056086725185024,0.0,66.74251199001446,8.575166569640238,12.059635991793169,1,18,0.0,207,39588382039075,61,18.3,55.90974426269531,1.1995000839233398,0,0.0,0.0,,,,,0,,3,,
Raw,1516401,1519724000000,,,-1278056086725185024,0.0,66.74251199001446,8.575166569640238,12.059635991793169,1,5,0.0,207,39588378371768,27,24.5,-579.35791015625,0.843500018119812,0,0.0,0.0,,,,,0,,3,,
Raw,1516401,1519724000000,,,-1278056086725185024,0.0,66.74251199001446,8.575166569640238,12.059635991793169,1,4,0.0,207,39588385205591,10,34.3,90.66412353515625,0.22960001230239868,0,0.0,0.0,,,,,0,,3,,
Raw,1516401,1519724000000,,,-1278056086725185024,0.0,66.74251199001446,8.575166569640238,12.059635991793169,1,5,0.0,15,115206379280050,17,28.9,-104.58381652832031,0.06180000305175781,0,0.0,0.0,,,,,0,,1,,
Raw,1516402,1519724000000,,,-1278056086725185024,0.0,66.74251199001446,8.575166569640238,12.059635991793169,1,9,0.0,15,115206370867020,152,13.9,483.7835998535156,4.491500377655029,0,0.0,0.0,,,,,0,,1,,
Raw,1516402,1519724000000,,,-1278056086725185024,0.0,66.74251199001446,8.575166569640238,12.059635991793169,1,12,0.0,15,115206371859007,5,40.2,183.10409545898438,0.03590000048279762,0,0.0,0.0,,,,,0,,1,,
Raw,1516402,1519724000000,,,-1278056086725185024,0.0,66.74251199001446,8.575166569640238,12.059635991793169,1,13,0.0,15,115206371419961,13,31.8,-668.5457763671875,0.04170000180602074,0,0.0,0.0,,,,,0,,1,,
Raw,1516403,1519724000000,,,-1278056086725185024,0.0,66.74251199001446,8.575166569640238,12.059635991793169,1,15,0.0,15,115206363526643,16,29.2,-716.4053344726562,0.031200001016259193,0,0.0,0.0,,,,,0,,1,,
Raw,1516403,1519724000000,,,-1278056086725185024,0.0,66.74251199001446,8.575166569640238,12.059635991793169,1,19,0.0,15,115206377693503,27,24.9,473.1271667480469,0.6420000195503235,0,0.0,0.0,,,,,0,,1,,
Raw,1516403,1519724000000,,,-1278056086725185024,0.0,66.74251199001446,8.575166569640238,12.059635991793169,1,25,0.0,15,115206367086388,24,25.2,-41.05064010620117,0.392300009727478,0,0.0,0.0,,,,,0,,1,,
Raw,1516403,1519724000000,,,-1278056086725185024,0.0,66.74251199001446,8.575166569640238,12.059635991793169,1,30,0.0,15,115206364783704,1172,14.9,-273.68988037109375,4.422500133514404,0,0.0,0.0,,,,,0,,1,,
Raw,1516404,1519724000000,,,-1278056086725185024,0.0,66.74251199001446,8.575166569640238,12.059635991793169,1,1,0.0,783,115192325487787,93,21.2,5.88601016998291,5.255000114440918,0,0.0,0.0,,,,,0,,5,,
Raw,1516404,1519724000000,,,-1278056086725185024,0.0,66.74251199001446,8.575166569640238,12.059635991793169,1,2,0.0,783,115192323985658,92,21.1,-5.4923295974731445,5.225000381469727,0,0.0,0.0,,,,,0,,5,,
Raw,1516404,1519724000000,,,-1278056086725185024,0.0,66.74251199001446,8.575166569640238,12.059635991793169,1,3,0.0,783,115192328653974,19,27.6,7.3263068199157715,0.48350000381469727,0,0.0,0.0,,,,,0,,5,,
Raw,1516405,1519724000000,,,-1278056086725185024,0.0,66.74251199001446,8.575166569640238,12.059635991793169,1,5,0.0,783,115192316045553,11,33.8,-0.5569145679473877,0.29350000619888306,0,0.0,0.0,,,,,0,,5,,
Raw,1516405,1519724000000,,,-1278056086725185024,0.0,66.74251199001446,8.575166569640238,12.059635991793169,1,6,0.0,15,115192324701137,35,22.3,-243.9381561279297,0.67249995470047,0,0.0,0.0,,,,,0,,5,,
Raw,1516405,1519724000000,,,-1278056086725185024,0.0,66.74251199001446,8.575166569640238,12.059635991793169,1,7,0.0,15,115192319715545,19,27.5,295.670654296875,0.0398000031709671,0,0.0,0.0,,,,,0,,5,,
Raw,1516406,1519724000000,,,-1278056086725185024,0.0,66.74251199001446,8.575166569640238,12.059635991793169,1,9,0.0,15,115192318776713,329,18.3,-261.3753662109375,11.443500518798828,0,0.0,0.0,,,,,0,,5,,
Raw,1516406,1519724000000,,,-1278056086725185024,0.0,66.74251199001446,8.575166569640238,12.059635991793169,1,10,0.0,15,115192321487537,16,29.9,309.01953125,0.028200000524520874,0,0.0,0.0,,,,,0,,5,,
Raw,1516406,1519724000000,,,-1278056086725185024,0.0,66.74251199001446,8.575166569640238,12.059635991793169,1,13,0.0,15,115192323535120,12,32.5,-49.25436782836914,0.0284000001847744,0,0.0,0.0,,,,,0,,5,,
Raw,1516406,1519724000000,,,-1278056086725185024,0.0,66.74251199001446,8.575166569640238,12.059635991793169,1,16,0.0,15,115192322502685,46,20.9,-274.3188171386719,0.7294999957084656,0,0.0,0.0,,,,,0,,5,,
Raw,1516407,1519724000000,,,-1278056086725185024,0.0,66.74251199001446,8.575166569640238,12.059635991793169,1,21,0.0,15,115192375938751,27,24.3,-75.87480163574219,0.5989999771118164,0,0.0,0.0,,,,,0,,5,,
Raw,1516407,1519724000000,,,-1278056086725185024,0.0,66.74251199001446,8.575166569640238,12.059635991793169,1,1,0.0,7183,115206355743054,19,27.2,376.1031799316406,0.06379999965429306,0,0.0,0.0,,,,,0,,6,,
NMEA,$GPGSV,3,2,10,15,02,208,29,19,00,000,25,25,09,296,25,30,04,126,15*73,1594022388344
NMEA,$GPGSV,3,3,10,06,44,050,,07,02,097,*70,1594022388344
NMEA,$GLGSV,2,1,06,82,52,080,18,69,34,215,25,68,82,312,34,83,44,357,*6C,1594022388346
NMEA,$GLGSV,2,2,06,81,14,122,,67,32,023,*6F,1594022388347
NMEA,$GAGSV,1,1,01,01,10,209,27*57,1594022388348
NMEA,$PQGSV,1,1,03,193,70,064,14,194,11,163,14,195,72,129,23,0,5*6C,1594022388351
NMEA,$PQGSV,3,1,12,01,50,130,21,02,42,243,21,03,62,203,28,05,17,258,34,0,4*6A,1594022388352
NMEA,$PQGSV,3,2,12,06,43,170,22,07,00,000,28,09,21,189,18,10,30,222,30,0,4*63,1594022388353
