# 
# Header Description:
# 
# Version: v2.0.0.1 Platform: 8.0.0 Manufacturer: Sony Model: G8142
# 
# Raw,ElapsedRealtimeMillis,TimeNanos,LeapSecond,TimeUncertaintyNanos,FullBiasNanos,BiasNanos,BiasUncertaintyNanos,DriftNanosPerSecond,DriftUncertaintyNanosPerSecond,HardwareClockDiscontinuityCount,Svid,TimeOffsetNanos,State,ReceivedSvTimeNanos,ReceivedSvTimeUncertaintyNanos,Cn0DbHz,PseudorangeRateMetersPerSecond,PseudorangeRateUncertaintyMetersPerSecond,AccumulatedDeltaRangeState,AccumulatedDeltaRangeMeters,AccumulatedDeltaRangeUncertaintyMeters,CarrierFrequencyHz,CarrierCycles,CarrierPhase,CarrierPhaseUncertainty,MultipathIndicator,SnrInDb,ConstellationType,AgcDb,CarrierFrequencyHz
# 
# Fix,Provider,Latitude,Longitude,Altitude,Speed,Accuracy,(UTC)TimeInMs
# 
# Nav,Svid,Type,Status,MessageId,Sub-messageId,Data(Bytes)
# 
Fix,gps,22.925353,120.294632,42.251038,0.000000,3.216000,1594022641000
Raw,1768388,1771724000000,,,-1278056086725182976,0.0,44.02143167681061,3.829257366246968,11.193557522580713,1,5,0.0,207,39840378847925,24,25.1,-555.1380615234375,0.6087999939918518,0,0.0,0.0,,,,,0,,3,,
Raw,1768389,1771724000000,,,-1278056086725182976,0.0,44.02143167681061,3.829257366246968,11.193557522580713,1,4,0.0,207,39840385114138,12,32.2,125.06094360351562,0.2314000129699707,0,0.0,0.0,,,,,0,,3,,
Raw,1768389,1771724000000,,,-1278056086725182976,0.0,44.02143167681061,3.829257366246968,11.193557522580713,1,2,0.0,3,15870475,27,24.9,-223.24302673339844,0.6389999985694885,0,0.0,0.0,,,,,0,,1,,
Raw,1768389,1771724000000,,,-1278056086725182976,0.0,44.02143167681061,3.829257366246968,11.193557522580713,1,5,0.0,15,115458379360765,9,35.3,-89.26984405517578,0.05010000243782997,0,0.0,0.0,,,,,0,,1,,
Raw,1768389,1771724000000,,,-1278056086725182976,0.0,44.02143167681061,3.829257366246968,11.193557522580713,1,6,0.0,15,115458376244800,150,14.2,88.24868774414062,5.250500202178955,0,0.0,0.0,,,,,0,,1,,
Raw,1768390,1771724000000,,,-1278056086725182976,0.0,44.02143167681061,3.829257366246968,11.193557522580713,1,7,0.0,15,115458363150763,84,16.8,-196.9158935546875,1.9210000038146973,0,0.0,0.0,,,,,0,,1,,
Raw,1768390,1771724000000,,,-1278056086725182976,0.0,44.02143167681061,3.829257366246968,11.193557522580713,1,9,0.0,15,115458370452569,488,11.2,500.4247741699219,13.131500244140625,0,0.0,0.0,,,,,0,,1,,
Raw,1768390,1771724000000,,,-1278056086725182976,0.0,44.02143167681061,3.829257366246968,11.193557522580713,1,12,0.0,15,115458371696216,6,39.8,202.33692932128906,0.03610000014305115,0,0.0,0.0,,,,,0,,1,,
Raw,1768390,1771724000000,,,-1278056086725182976,0.0,44.02143167681061,3.829257366246968,11.193557522580713,1,13,0.0,15,115458371980510,16,29.1,-666.60400390625,0.04320000112056732,0,0.0,0.0,,,,,0,,1,,
Raw,1768391,1771724000000,,,-1278056086725182976,0.0,44.02143167681061,3.829257366246968,11.193557522580713,1,15,0.0,15,115458364130783,21,26.0,-722.5276489257812,0.11720000207424164,0,0.0,0.0,,,,,0,,1,,
Raw,1768391,1771724000000,,,-1278056086725182976,0.0,44.02143167681061,3.829257366246968,11.193557522580713,1,19,0.0,15,115458377286757,24,25.9,492.7148742675781,0.4072999954223633,0,0.0,0.0,,,,,0,,1,,
Raw,1768391,1771724000000,,,-1278056086725182976,0.0,44.02143167681061,3.829257366246968,11.193557522580713,1,25,0.0,15,115458367110918,21,26.5,-19.287538528442383,0.12170000374317169,0,0.0,0.0,,,,,0,,1,,
Raw,1768391,1771724000000,,,-1278056086725182976,0.0,44.02143167681061,3.829257366246968,11.193557522580713,1,1,0.0,783,115444325485146,83,23.2,0.33606910705566406,5.145000457763672,0,0.0,0.0,,,,,0,,5,,
Raw,1768392,1771724000000,,,-1278056086725182976,0.0,44.02143167681061,3.829257366246968,11.193557522580713,1,2,0.0,783,115444323987352,16,29.4,-3.005418062210083,0.3850000202655792,0,0.0,0.0,,,,,0,,5,,
Raw,1768392,1771724000000,,,-1278056086725182976,0.0,44.02143167681061,3.829257366246968,11.193557522580713,1,3,0.0,783,115444328649734,14,30.4,3.9848194122314453,0.3935000002384186,0,0.0,0.0,,,,,0,,5,,
Raw,1768392,1771724000000,,,-1278056086725182976,0.0,44.02143167681061,3.829257366246968,11.193557522580713,1,5,0.0,783,115444316046130,10,34.9,-2.995816230773926,0.273499995470047,0,0.0,0.0,,,,,0,,5,,
Raw,1768392,1771724000000,,,-1278056086725182976,0.0,44.02143167681061,3.829257366246968,11.193557522580713,1,6,0.0,15,115444324904931,96,17.8,-240.44305419921875,3.9225001335144043,0,0.0,0.0,,,,,0,,5,,
Raw,1768392,1771724000000,,,-1278056086725182976,0.0,44.02143167681061,3.829257366246968,11.193557522580713,1,7,0.0,15,115444319468268,125,17.7,292.466552734375,5.49500036239624,0,0.0,0.0,,,,,0,,5,,
Raw,1768393,1771724000000,,,-1278056086725182976,0.0,44.02143167681061,3.829257366246968,11.193557522580713,1,9,0.0,15,115444318995554,46,20.3,-263.3341369628906,0.8134999871253967,0,0.0,0.0,,,,,0,,5,,
Raw,1768393,1771724000000,,,-1278056086725182976,0.0,44.02143167681061,3.829257366246968,11.193557522580713,1,10,0.0,15,115444321227703,16,29.2,307.48175048828125,0.028200000524520874,0,0.0,0.0,,,,,0,,5,,
Raw,1768393,1771724000000,,,-1278056086725182976,0.0,44.02143167681061,3.829257366246968,11.193557522580713,1,12,0.0,15,115444375566015,12,32.5,-318.8031921386719,0.046400003135204315,0,0.0,0.0,,,,,0,,5,,
Raw,1768393,1771724000000,,,-1278056086725182976,0.0,44.02143167681061,3.829257366246968,11.193557522580713,1,13,0.0,15,115444323579045,13,31.9,-56.962615966796875,0.02970000170171261,0,0.0,0.0,,,,,0,,5,,
Raw,1768394,1771724000000,,,-1278056086725182976,0.0,44.02143167681061,3.829257366246968,11.193557522580713,1,16,0.0,15,115444322732158,31,23.4,-273.2433776855469,0.6195000410079956,0,0.0,0.0,,,,,0,,5,,
Raw,1768394,1771724000000,,,-1278056086725182976,0.0,44.02143167681061,3.829257366246968,11.193557522580713,1,21,0.0,15,115444375993849,17,28.3,-57.10722351074219,0.055800002068281174,0,0.0,0.0,,,,,0,,5,,
Raw,1768394,1771724000000,,,-1278056086725182976,0.0,44.02143167681061,3.829257366246968,11.193557522580713,1,1,0.0,7183,115458355430468,19,27.6,365.59222412109375,0.4390000104904175,0,0.0,0.0,,,,,0,,6,,
Raw,1768394,1771724000000,,,-1278056086725182976,0.0,44.02143167681061,3.829257366246968,11.193557522580713,1,19,0.0,7183,115458367715732,24,25.6,-392.4806823730469,0.5189999938011169,0,0.0,0.0,,,,,0,,6,,
NMEA,$GPGSV,4,1,13,02,00,000,25,05,54,286,35,06,43,054,14,07,02,094,17*7E,1594022640331
NMEA,$GPGSV,4,2,13,09,21,045,11,12,24,267,40,13,24,184,29,15,02,208,26*7E,1594022640331
NMEA,$GPGSV,4,3,13,19,47,142,26,25,10,293,27,17,27,144,,29,00,000,*76,1594022640331
NMEA,$GPGSV,4,4,13,30,06,123,*4E,1594022640332
NMEA,$GLGSV,2,1,07,69,37,217,25,68,80,324,32,82,52,084,,84,00,000,*66,1594022640332
NMEA,$GLGSV,2,2,07,83,45,358,,81,13,123,,67,30,023,*5E,1594022640332
NMEA,$GAGSV,1,1,02,01,09,209,28,19,49,198,26*62,1594022640332
NMEA,$PQGSV,1,1,03,193,70,061,13,195,71,133,27,194,11,161,,0,5*65,1594022640332
NMEA,$PQGSV,4,1,14,01,50,130,23,02,42,243,29,03,62,203,30,05,17,258,35,0,4*69,1594022640332
NMEA,$PQGSV,4,2,14,06,45,170,18,07,00,000,18,09,22,189,20,10,30,222,29,0,4*6E,1594022640332
NMEA,$PQGSV,4,3,14,12,59,340,33,13,40,327,32,16,40,175,23,21,71,265,28,0,4*6F,1594022640333
NMEA,$PQGSV,4,4,14,04,37,113,,22,45,030,,0,4*6F,1594022640333
NMEA,$GNGSA,A,3,05,12,13,19,25,,,,,,,,1.4,1.1,0.9,1*36,1594022640333
NMEA,$GNGSA,A,2,68,69,,,,,,,,,,,1.4,1.1,0.9,2*3E,1594022640334
NMEA,$GNGSA,A,2,01,,,,,,,,,,,,1.4,1.1,0.9,3*3F,1594022640334
NMEA,$PQGSA,A,3,05,10,13,21,,,,,,,,,1.4,1.1,0.9,4*35,1594022640334
NMEA,$GNVTG,,T,,M,0.0,N,0.0,K,A*3D,1594022640334
NMEA,$GNRMC,080401.00,A,2255.521166,N,12017.677948,E,0.0,,060720,2.8,W,A*12,1594022640334
NMEA,$GNGGA,080401.00,2255.521166,N,12017.677948,E,1,12,1.1,24.8,M,17.5,M,,*40,1594022640334
Fix,gps,22.925353,120.294633,42.808899,0.000000,3.216000,1594022642000
NMEA,$GPGSV,4,1,13,02,00,000,24,05,54,286,35,06,43,054,16,07,02,094,19*73,1594022641333
Raw,1769388,1772724000000,,,-1278056086725182976,0.0,49.75500996806659,0.5270910896920659,16.77454483085216,1,5,0.0,207,39841378849789,19,27.0,-555.4573364257812,0.26829999685287476,0,0.0,0.0,,,,,0,,3,,
Raw,1769388,1772724000000,,,-1278056086725182976,0.0,49.75500996806659,0.5270910896920659,16.77454483085216,1,4,0.0,207,39841385113698,12,32.1,124.80623626708984,0.2314000129699707,0,0.0,0.0,,,,,0,,3,,
Raw,1769389,1772724000000,,,-1278056086725182976,0.0,49.75500996806659,0.5270910896920659,16.77454483085216,1,2,0.0,3,15871226,31,23.6,-223.88050842285156,0.6889999508857727,0,0.0,0.0,,,,,0,,1,,
Raw,1769389,1772724000000,,,-1278056086725182976,0.0,49.75500996806659,0.5270910896920659,16.77454483085216,1,5,0.0,15,115459379361083,9,35.4,-89.60120391845703,0.05010000243782997,0,0.0,0.0,,,,,0,,1,,
Raw,1769389,1772724000000,,,-1278056086725182976,0.0,49.75500996806659,0.5270910896920659,16.77454483085216,1,6,0.0,15,115459376244529,96,15.7,86.2125473022461,2.0304999351501465,0,0.0,0.0,,,,,0,,1,,
Raw,1769390,1772724000000,,,-1278056086725182976,0.0,49.75500996806659,0.5270910896920659,16.77454483085216,1,7,0.0,15,115459363151285,61,18.7,-197.73414611816406,1.0010000467300415,0,0.0,0.0,,,,,0,,1,,
Raw,1769390,1772724000000,,,-1278056086725182976,0.0,49.75500996806659,0.5270910896920659,16.77454483085216,1,9,0.0,15,115459370450899,575,11.2,500.4247741699219,14.631500244140625,0,0.0,0.0,,,,,0,,1,,
Raw,1769390,1772724000000,,,-1278056086725182976,0.0,49.75500996806659,0.5270910896920659,16.77454483085216,1,12,0.0,15,115459371695545,6,39.5,202.01332092285156,0.03610000014305115,0,0.0,0.0,,,,,0,,1,,
Raw,1769390,1772724000000,,,-1278056086725182976,0.0,49.75500996806659,0.5270910896920659,16.77454483085216,1,13,0.0,15,115459371982711,17,28.4,-666.850830078125,0.049800001084804535,0,0.0,0.0,,,,,0,,1,,
Raw,1769391,1772724000000,,,-1278056086725182976,0.0,49.75500996806659,0.5270910896920659,16.77454483085216,1,15,0.0,15,115459364133113,21,26.6,-722.9464721679688,0.11720000207424164,0,0.0,0.0,,,,,0,,1,,
Raw,1769391,1772724000000,,,-1278056086725182976,0.0,49.75500996806659,0.5270910896920659,16.77454483085216,1,19,0.0,15,115459377285070,24,25.9,492.6719055175781,0.4072999954223633,0,0.0,0.0,,,,,0,,1,,
Raw,1769391,1772724000000,,,-1278056086725182976,0.0,49.75500996806659,0.5270910896920659,16.77454483085216,1,25,0.0,15,115459367110986,19,27.6,-19.57323455810547,0.05180000141263008,0,0.0,0.0,,,,,0,,1,,
Raw,1769393,1772724000000,,,-1278056086725182976,0.0,49.75500996806659,0.5270910896920659,16.77454483085216,1,1,0.0,783,115445325485094,34,24.1,-1.4402961730957031,2.1050000190734863,0,0.0,0.0,,,,,0,,5,,
Raw,1769393,1772724000000,,,-1278056086725182976,0.0,49.75500996806659,0.5270910896920659,16.77454483085216,1,2,0.0,783,115445323987388,17,28.0,-9.093070030212402,0.4150000214576721,0,0.0,0.0,,,,,0,,5,,
Raw,1769394,1772724000000,,,-1278056086725182976,0.0,49.75500996806659,0.5270910896920659,16.77454483085216,1,3,0.0,783,115445328649716,16,29.4,3.8311879634857178,0.41350001096725464,0,0.0,0.0,,,,,0,,5,,
Raw,1769394,1772724000000,,,-1278056086725182976,0.0,49.75500996806659,0.5270910896920659,16.77454483085216,1,5,0.0,783,115445316046145,10,34.4,-3.0822341442108154,0.29350000619888306,0,0.0,0.0,,,,,0,,5,,
Raw,1769394,1772724000000,,,-1278056086725182976,0.0,49.75500996806659,0.5270910896920659,16.77454483085216,1,6,0.0,15,115445324905866,131,13.9,-240.44305419921875,2.762500047683716,0,0.0,0.0,,,,,0,,5,,
Raw,1769395,1772724000000,,,-1278056086725182976,0.0,49.75500996806659,0.5270910896920659,16.77454483085216,1,7,0.0,15,115445319467293,163,17.7,292.466552734375,6.99500036239624,0,0.0,0.0,,,,,0,,5,,
Raw,1769395,1772724000000,,,-1278056086725182976,0.0,49.75500996806659,0.5270910896920659,16.77454483085216,1,9,0.0,15,115445318996388,40,21.2,-262.34515380859375,0.7534999847412109,0,0.0,0.0,,,,,0,,5,,
Raw,1769395,1772724000000,,,-1278056086725182976,0.0,49.75500996806659,0.5270910896920659,16.77454483085216,1,10,0.0,15,115445321226671,16,29.0,307.1116638183594,0.028200000524520874,0,0.0,0.0,,,,,0,,5,,
Raw,1769395,1772724000000,,,-1278056086725182976,0.0,49.75500996806659,0.5270910896920659,16.77454483085216,1,12,0.0,15,115445375567074,11,33.4,-319.1135559082031,0.04540000110864639,0,0.0,0.0,,,,,0,,5,,
Raw,1769396,1772724000000,,,-1278056086725182976,0.0,49.75500996806659,0.5270910896920659,16.77454483085216,1,13,0.0,15,115445323579239,14,30.7,-57.39292907714844,0.030300000682473183,0,0.0,0.0,,,,,0,,5,,
Raw,1769396,1772724000000,,,-1278056086725182976,0.0,49.75500996806659,0.5270910896920659,16.77454483085216,1,16,0.0,15,115445322733107,31,23.6,-273.53143310546875,0.6195000410079956,0,0.0,0.0,,,,,0,,5,,
Raw,1769396,1772724000000,,,-1278056086725182976,0.0,49.75500996806659,0.5270910896920659,16.77454483085216,1,21,0.0,15,115445375994027,16,29.9,-57.49155807495117,0.04920000210404396,0,0.0,0.0,,,,,0,,5,,
Raw,1769396,1772724000000,,,-1278056086725182976,0.0,49.75500996806659,0.5270910896920659,16.77454483085216,1,1,0.0,7183,115459355429263,21,26.3,366.01544189453125,0.13369999825954437,0,0.0,0.0,,,,,0,,6,,
Raw,1769397,1772724000000,,,-1278056086725182976,0.0,49.75500996806659,0.5270910896920659,16.77454483085216,1,19,0.0,7183,115459367717059,19,27.5,-392.577880859375,0.06379999965429306,0,0.0,0.0,,,,,0,,6,,
NMEA,$GPGSV,4,2,13,09,21,045,11,12,24,267,40,13,24,184,28,15,02,208,27*7E,1594022641333
NMEA,$GPGSV,4,3,13,19,47,142,26,25,10,293,28,17,27,144,,29,00,000,*79,1594022641333
NMEA,$GPGSV,4,4,13,30,06,123,*4E,1594022641334
NMEA,$GLGSV,2,1,07,69,37,217,27,68,80,324,32,82,52,084,,84,00,000,*64,1594022641334
NMEA,$GLGSV,2,2,07,83,45,358,,81,13,123,,67,30,023,*5E,1594022641334
NMEA,$GAGSV,1,1,02,01,09,209,26,19,49,198,28*62,1594022641334
NMEA,$PQGSV,1,1,03,193,70,061,13,194,11,161,,195,71,133,,0,5*60,1594022641334
NMEA,$PQGSV,4,1,14,01,50,130,24,02,42,243,28,03,62,203,29,05,17,258,34,0,4*66,1594022641334
NMEA,$PQGSV,4,2,14,06,45,170,14,07,00,000,18,09,22,189,21,10,30,222,29,0,4*63,1594022641335
NMEA,$PQGSV,4,3,14,12,59,340,33,13,40,327,31,16,40,175,24,21,71,265,30,0,4*62,1594022641335
NMEA,$PQGSV,4,4,14,04,37,113,,22,45,030,,0,4*6F,1594022641335
NMEA,$GNGSA,A,3,05,12,13,19,25,,,,,,,,1.4,1.1,0.9,1*36,1594022641336
NMEA,$GNGSA,A,2,68,69,,,,,,,,,,,1.4,1.1,0.9,2*3E,1594022641336
NMEA,$GNGSA,A,2,01,,,,,,,,,,,,1.4,1.1,0.9,3*3F,1594022641339
NMEA,$PQGSA,A,3,05,10,13,21,,,,,,,,,1.4,1.1,0.9,4*35,1594022641339
NMEA,$GNVTG,,T,,M,0.0,N,0.0,K,A*3D,1594022641339
NMEA,$GNRMC,080402.00,A,2255.521183,N,12017.677996,E,0.0,,060720,2.8,W,A*19,1594022641340
NMEA,$GNGGA,080402.00,2255.521183,N,12017.677996,E,1,12,1.1,25.3,M,17.5,M,,*41,1594022641340
Raw,1770423,1773724000000,,,-1278056086725182976,0.0,51.3975610374473,-0.6772391261728258,16.92840582511914,1,5,0.0,207,39842378851618,17,28.8,-554.4384765625,0.26030001044273376,0,0.0,0.0,,,,,0,,3,,
Raw,1770423,1773724000000,,,-1278056086725182976,0.0,51.3975610374473,-0.6772391261728258,16.92840582511914,1,4,0.0,207,39842385113278,11,33.8,125.96512603759766,0.23040001094341278,0,0.0,0.0,,,,,0,,3,,
Raw,1770423,1773724000000,,,-1278056086725182976,0.0,51.3975610374473,-0.6772391261728258,16.92840582511914,1,2,0.0,3,15871947,35,22.7,-223.6331329345703,0.7489999532699585,0,0.0,0.0,,,,,0,,1,,
Raw,1770423,1773724000000,,,-1278056086725182976,0.0,51.3975610374473,-0.6772391261728258,16.92840582511914,1,5,0.0,15,115460379361371,6,38.5,-88.51232147216797,0.048600003123283386,0,0.0,0.0,,,,,0,,1,,
Raw,1770424,1773724000000,,,-1278056086725182976,0.0,51.3975610374473,-0.6772391261728258,16.92840582511914,1,6,0.0,15,115460376244241,110,15.7,86.2125473022461,3.5305001735687256,0,0.0,0.0,,,,,0,,1,,
Raw,1770424,1773724000000,,,-1278056086725182976,0.0,51.3975610374473,-0.6772391261728258,16.92840582511914,1,7,0.0,15,115460363151892,46,20.9,-196.71607971191406,0.8510000109672546,0,0.0,0.0,,,,,0,,1,,
Raw,1770424,1773724000000,,,-1278056086725182976,0.0,51.3975610374473,-0.6772391261728258,16.92840582511914,1,9,0.0,15,115460370449177,141,13.6,501.00518798828125,3.74150013923645,0,0.0,0.0,,,,,0,,1,,
Raw,1770424,1773724000000,,,-1278056086725182976,0.0,51.3975610374473,-0.6772391261728258,16.92840582511914,1,12,0.0,15,115460371694868,6,39.9,203.1211395263672,0.03610000014305115,0,0.0,0.0,,,,,0,,1,,
Raw,1770425,1773724000000,,,-1278056086725182976,0.0,51.3975610374473,-0.6772391261728258,16.92840582511914,1,13,0.0,15,115460371984961,24,25.4,-665.742431640625,0.6330000162124634,0,0.0,0.0,,,,,0,,1,,
Raw,1770425,1773724000000,,,-1278056086725182976,0.0,51.3975610374473,-0.6772391261728258,16.92840582511914,1,15,0.0,15,115460364135572,16,29.0,-721.9229125976562,0.03270000219345093,0,0.0,0.0,,,,,0,,1,,
Raw,1770425,1773724000000,,,-1278056086725182976,0.0,51.3975610374473,-0.6772391261728258,16.92840582511914,1,19,0.0,15,115460377283489,21,26.7,493.5096435546875,0.13670000433921814,0,0.0,0.0,,,,,0,,1,,
Raw,1770425,1773724000000,,,-1278056086725182976,0.0,51.3975610374473,-0.6772391261728258,16.92840582511914,1,25,0.0,15,115460367111018,17,28.8,-18.44865608215332,0.043800000101327896,0,0.0,0.0,,,,,0,,1,,
Raw,1770426,1773724000000,,,-1278056086725182976,0.0,51.3975610374473,-0.6772391261728258,16.92840582511914,1,1,0.0,783,115446325485099,51,24.1,-1.4402961730957031,3.6050002574920654,0,0.0,0.0,,,,,0,,5,,
Raw,1770426,1773724000000,,,-1278056086725182976,0.0,51.3975610374473,-0.6772391261728258,16.92840582511914,1,2,0.0,783,115446323987409,14,30.8,-2.0452206134796143,0.33500000834465027,0,0.0,0.0,,,,,0,,5,,
Raw,1770426,1773724000000,,,-1278056086725182976,0.0,51.3975610374473,-0.6772391261728258,16.92840582511914,1,3,0.0,783,115446328649701,16,29.8,1.4498982429504395,0.3935000002384186,0,0.0,0.0,,,,,0,,5,,
Raw,1770426,1773724000000,,,-1278056086725182976,0.0,51.3975610374473,-0.6772391261728258,16.92840582511914,1,5,0.0,783,115446316046155,10,34.6,-1.1138291358947754,0.29350000619888306,0,0.0,0.0,,,,,0,,5,,
Raw,1770427,1773724000000,,,-1278056086725182976,0.0,51.3975610374473,-0.6772391261728258,16.92840582511914,1,6,0.0,15,115446324906576,70,17.3,-241.07676696777344,1.002500057220459,0,0.0,0.0,,,,,0,,5,,
Raw,1770427,1773724000000,,,-1278056086725182976,0.0,51.3975610374473,-0.6772391261728258,16.92840582511914,1,7,0.0,15,115446319466339,151,13.3,292.3993225097656,4.355000019073486,0,0.0,0.0,,,,,0,,5,,
Raw,1770427,1773724000000,,,-1278056086725182976,0.0,51.3975610374473,-0.6772391261728258,16.92840582511914,1,9,0.0,15,115446318997263,70,17.9,-260.1559143066406,0.9434999823570251,0,0.0,0.0,,,,,0,,5,,
Raw,1770427,1773724000000,,,-1278056086725182976,0.0,51.3975610374473,-0.6772391261728258,16.92840582511914,1,10,0.0,15,115446321225641,14,30.8,308.050537109375,0.33799999952316284,0,0.0,0.0,,,,,0,,5,,
Raw,1770427,1773724000000,,,-1278056086725182976,0.0,51.3975610374473,-0.6772391261728258,16.92840582511914,1,12,0.0,15,115446375568137,11,33.5,-318.0717468261719,0.04540000110864639,0,0.0,0.0,,,,,0,,5,,
Raw,1770428,1773724000000,,,-1278056086725182976,0.0,51.3975610374473,-0.6772391261728258,16.92840582511914,1,13,0.0,15,115446323579431,13,31.6,-56.35536193847656,0.02970000170171261,0,0.0,0.0,,,,,0,,5,,
Raw,1770428,1773724000000,,,-1278056086725182976,0.0,51.3975610374473,-0.6772391261728258,16.92840582511914,1,16,0.0,15,115446322734012,35,22.2,-272.43682861328125,0.6694999933242798,0,0.0,0.0,,,,,0,,5,,
Raw,1770428,1773724000000,,,-1278056086725182976,0.0,51.3975610374473,-0.6772391261728258,16.92840582511914,1,21,0.0,15,115446375994217,14,30.9,-56.3997802734375,0.04830000177025795,0,0.0,0.0,,,,,0,,5,,
Raw,1770428,1773724000000,,,-1278056086725182976,0.0,51.3975610374473,-0.6772391261728258,16.92840582511914,1,1,0.0,7183,115460355428024,31,23.9,365.72540283203125,0.5989999771118164,0,0.0,0.0,,,,,0,,6,,
Raw,1770429,1773724000000,,,-1278056086725182976,0.0,51.3975610374473,-0.6772391261728258,16.92840582511914,1,19,0.0,7183,115460367718388,21,26.0,-393.0978088378906,0.13369999825954437,0,0.0,0.0,,,,,0,,6,,
Fix,gps,22.925354,120.294632,43.296082,0.000000,3.216000,1594022643000
NMEA,$GPGSV,4,1,13,02,00,000,23,05,54,286,39,06,43,054,16,07,02,094,21*73,1594022642333
NMEA,$GPGSV,4,2,13,09,21,045,14,12,24,267,40,13,24,184,25,15,02,208,29*78,1594022642333
NMEA,$GPGSV,4,3,13,19,47,142,27,25,10,293,29,17,27,144,,29,00,000,*79,1594022642333
NMEA,$GPGSV,4,4,13,30,06,123,*4E,1594022642334
NMEA,$GLGSV,2,1,07,69,37,217,29,68,80,324,34,82,52,084,,84,00,000,*6C,1594022642334
NMEA,$GLGSV,2,2,07,83,45,358,,81,13,123,,67,30,023,*5E,1594022642334
NMEA,$GAGSV,1,1,02,01,09,209,24,19,49,198,26*6E,1594022642334
NMEA,$PQGSV,1,1,03,193,70,061,13,195,71,133,25,194,11,161,,0,5*67,1594022642334
NMEA,$PQGSV,4,1,14,01,50,130,24,02,42,243,31,03,62,203,30,05,17,258,35,0,4*67,1594022642335
NMEA,$PQGSV,4,2,14,06,45,170,17,07,00,000,13,09,22,189,18,10,30,222,31,0,4*68,1594022642335
NMEA,$PQGSV,4,3,14,12,59,340,34,13,40,327,32,16,40,175,22,21,71,265,31,0,4*61,1594022642335
NMEA,$PQGSV,4,4,14,04,37,113,,22,45,030,,0,4*6F,1594022642337
NMEA,$GNGSA,A,3,05,12,13,19,25,,,,,,,,1.4,1.1,0.9,1*36,1594022642340
NMEA,$GNGSA,A,2,68,69,,,,,,,,,,,1.4,1.1,0.9,2*3E,1594022642340
NMEA,$GNGSA,A,2,01,,,,,,,,,,,,1.4,1.1,0.9,3*3F,1594022642340
NMEA,$PQGSA,A,3,05,10,13,21,,,,,,,,,1.4,1.1,0.9,4*35,1594022642341
NMEA,$GNVTG,,T,,M,0.0,N,0.0,K,A*3D,1594022642341
NMEA,$GNRMC,080403.00,A,2255.521261,N,12017.677902,E,0.0,,060720,2.8,W,A*1A,1594022642341
NMEA,$GNGGA,080403.00,2255.521261,N,12017.677902,E,1,12,1.1,25.8,M,17.5,M,,*49,1594022642341
Fix,gps,22.925356,120.294628,44.195374,0.000000,3.216000,1594022644000
NMEA,$GPGSV,4,1,13,02,00,000,22,05,54,286,38,06,43,054,16,07,02,094,21*73,1594022643339
Raw,1771405,1774724000000,,,-1278056086725182976,0.0,48.45805233344436,2.522660860817236,15.445583098039746,1,5,0.0,207,39843378853486,17,28.7,-553.7311401367188,0.26030001044273376,0,0.0,0.0,,,,,0,,3,,
Raw,1771405,1774724000000,,,-1278056086725182976,0.0,48.45805233344436,2.522660860817236,15.445583098039746,1,4,0.0,207,39843385112850,10,34.0,126.74861907958984,0.22960001230239868,0,0.0,0.0,,,,,0,,3,,
Raw,1771405,1774724000000,,,-1278056086725182976,0.0,48.45805233344436,2.522660860817236,15.445583098039746,1,2,0.0,3,15872715,40,21.9,-221.44476318359375,0.8089999556541443,0,0.0,0.0,,,,,0,,1,,
Raw,1771405,1774724000000,,,-1278056086725182976,0.0,48.45805233344436,2.522660860817236,15.445583098039746,1,5,0.0,15,115461379361678,6,38.1,-87.85411834716797,0.048600003123283386,0,0.0,0.0,,,,,0,,1,,
Raw,1771406,1774724000000,,,-1278056086725182976,0.0,48.45805233344436,2.522660860817236,15.445583098039746,1,6,0.0,15,115461376243954,135,15.7,86.2125473022461,5.030500411987305,0,0.0,0.0,,,,,0,,1,,
Raw,1771406,1774724000000,,,-1278056086725182976,0.0,48.45805233344436,2.522660860817236,15.445583098039746,1,7,0.0,15,115461363152538,46,20.9,-196.24034118652344,0.8510000109672546,0,0.0,0.0,,,,,0,,1,,
Raw,1771406,1774724000000,,,-1278056086725182976,0.0,48.45805233344436,2.522660860817236,15.445583098039746,1,9,0.0,15,115461370447506,166,13.6,501.00518798828125,5.241500377655029,0,0.0,0.0,,,,,0,,1,,
Raw,1771406,1774724000000,,,-1278056086725182976,0.0,48.45805233344436,2.522660860817236,15.445583098039746,1,12,0.0,15,115461371694176,5,40.1,203.82327270507812,0.03590000048279762,0,0.0,0.0,,,,,0,,1,,
Raw,1771406,1774724000000,,,-1278056086725182976,0.0,48.45805233344436,2.522660860817236,15.445583098039746,1,13,0.0,15,115461371987208,24,25.0,-665.3329467773438,0.3982999920845032,0,0.0,0.0,,,,,0,,1,,
Raw,1771407,1774724000000,,,-1278056086725182976,0.0,48.45805233344436,2.522660860817236,15.445583098039746,1,15,0.0,15,115461364138018,16,29.5,-721.3245849609375,0.03270000219345093,0,0.0,0.0,,,,,0,,1,,
Raw,1771407,1774724000000,,,-1278056086725182976,0.0,48.45805233344436,2.522660860817236,15.445583098039746,1,19,0.0,15,115461377281819,19,27.2,494.16864013671875,0.06680000573396683,0,0.0,0.0,,,,,0,,1,,
Raw,1771407,1774724000000,,,-1278056086725182976,0.0,48.45805233344436,2.522660860817236,15.445583098039746,1,25,0.0,15,115461367111103,17,28.5,-17.73019027709961,0.043800000101327896,0,0.0,0.0,,,,,0,,1,,
Raw,1771407,1774724000000,,,-1278056086725182976,0.0,48.45805233344436,2.522660860817236,15.445583098039746,1,1,0.0,783,115447325485104,79,24.1,-1.4402961730957031,5.105000019073486,0,0.0,0.0,,,,,0,,5,,
Raw,1771408,1774724000000,,,-1278056086725182976,0.0,48.45805233344436,2.522660860817236,15.445583098039746,1,2,0.0,783,115447323987418,12,32.6,-3.735168218612671,0.3050000071525574,0,0.0,0.0,,,,,0,,5,,
Raw,1771408,1774724000000,,,-1278056086725182976,0.0,48.45805233344436,2.522660860817236,15.445583098039746,1,3,0.0,783,115447328649696,16,29.0,7.431928634643555,0.41350001096725464,0,0.0,0.0,,,,,0,,5,,
Raw,1771408,1774724000000,,,-1278056086725182976,0.0,48.45805233344436,2.522660860817236,15.445583098039746,1,5,0.0,783,115447316046156,10,34.8,0.7777599692344666,0.273499995470047,0,0.0,0.0,,,,,0,,5,,
Raw,1771408,1774724000000,,,-1278056086725182976,0.0,48.45805233344436,2.522660860817236,15.445583098039746,1,6,0.0,15,115447324907402,46,20.2,-240.81752014160156,0.7924999594688416,0,0.0,0.0,,,,,0,,5,,
Raw,1771409,1774724000000,,,-1278056086725182976,0.0,48.45805233344436,2.522660860817236,15.445583098039746,1,7,0.0,15,115447319465363,80,16.3,290.4117126464844,1.0749999284744263,0,0.0,0.0,,,,,0,,5,,
Raw,1771409,1774724000000,,,-1278056086725182976,0.0,48.45805233344436,2.522660860817236,15.445583098039746,1,9,0.0,15,115447318998140,70,17.0,-262.2779235839844,1.0234999656677246,0,0.0,0.0,,,,,0,,5,,
Raw,1771409,1774724000000,,,-1278056086725182976,0.0,48.45805233344436,2.522660860817236,15.445583098039746,1,10,0.0,15,115447321224614,13,31.1,308.77044677734375,0.02670000120997429,0,0.0,0.0,,,,,0,,5,,
Raw,1771409,1774724000000,,,-1278056086725182976,0.0,48.45805233344436,2.522660860817236,15.445583098039746,1,12,0.0,15,115447375569202,11,33.4,-317.4006652832031,0.04540000110864639,0,0.0,0.0,,,,,0,,5,,
Raw,1771410,1774724000000,,,-1278056086725182976,0.0,48.45805233344436,2.522660860817236,15.445583098039746,1,13,0.0,15,115447323579611,13,31.1,-55.76049041748047,0.02970000170171261,0,0.0,0.0,,,,,0,,5,,
Raw,1771410,1774724000000,,,-1278056086725182976,0.0,48.45805233344436,2.522660860817236,15.445583098039746,1,16,0.0,15,115447322734919,35,22.1,-271.53424072265625,0.6694999933242798,0,0.0,0.0,,,,,0,,5,,
Raw,1771410,1774724000000,,,-1278056086725182976,0.0,48.45805233344436,2.522660860817236,15.445583098039746,1,21,0.0,15,115447375994407,14,30.9,-55.70172119140625,0.04830000177025795,0,0.0,0.0,,,,,0,,5,,
Raw,1771411,1774724000000,,,-1278056086725182976,0.0,48.45805233344436,2.522660860817236,15.445583098039746,1,1,0.0,7183,115461355426830,31,23.1,366.5341491699219,0.5989999771118164,0,0.0,0.0,,,,,0,,6,,
Raw,1771412,1774724000000,,,-1278056086725182976,0.0,48.45805233344436,2.522660860817236,15.445583098039746,1,19,0.0,7183,115461367719671,24,25.9,-392.4493408203125,0.4043000042438507,0,0.0,0.0,,,,,0,,6,,
NMEA,$GPGSV,4,2,13,09,21,045,14,12,24,267,40,13,24,184,25,15,02,208,30*70,1594022643340
NMEA,$GPGSV,4,3,13,19,47,142,27,25,10,293,29,17,27,144,,29,00,000,*79,1594022643340
NMEA,$GPGSV,4,4,13,30,06,123,*4E,1594022643341
NMEA,$GLGSV,2,1,07,69,37,217,29,68,80,324,34,82,52,085,,84,00,000,*6D,1594022643343
NMEA,$GLGSV,2,2,07,83,00,000,,81,12,125,,67,29,025,*58,1594022643343
NMEA,$GAGSV,1,1,02,01,09,209,23,19,49,198,26*69,1594022643346
NMEA,$PQGSV,1,1,03,193,70,061,16,195,71,133,25,194,11,161,,0,5*62,1594022643347
NMEA,$PQGSV,4,1,14,01,50,130,24,02,42,243,33,03,62,203,29,05,17,258,35,0,4*6D,1594022643347
NMEA,$PQGSV,4,2,14,06,45,170,20,07,00,000,16,09,22,189,17,10,30,222,31,0,4*66,1594022643348
NMEA,$PQGSV,4,3,14,12,59,340,33,13,40,327,31,16,40,175,22,21,71,265,31,0,4*65,1594022643348
NMEA,$PQGSV,4,4,14,04,37,113,,22,45,030,,0,4*6F,1594022643348
NMEA,$GNGSA,A,3,05,12,13,19,25,,,,,,,,1.4,1.1,0.9,1*36,1594022643349
NMEA,$GNGSA,A,2,68,69,,,,,,,,,,,1.4,1.1,0.9,2*3E,1594022643351
NMEA,$GNGSA,A,2,01,,,,,,,,,,,,1.4,1.1,0.9,3*3F,1594022643351
NMEA,$PQGSA,A,3,05,10,13,21,,,,,,,,,1.4,1.1,0.9,4*35,1594022643351
NMEA,$GNVTG,,T,,M,0.0,N,0.0,K,A*3D,1594022643352
NMEA,$GNRMC,080404.00,A,2255.521349,N,12017.677704,E,0.0,,060720,2.8,W,A*1E,1594022643352
NMEA,$GNGGA,080404.00,2255.521349,N,12017.677704,E,1,12,1.1,26.7,M,17.5,M,,*41,1594022643352
Fix,gps,22.925355,120.294628,44.636475,0.000000,3.216000,1594022645000
Raw,1772405,1775724000000,,,-1278056086725182976,0.0,44.88401100388728,4.9551931755711465,11.707245580238387,1,5,0.0,207,39844378855331,14,30.5,-552.5364379882812,0.25279998779296875,0,0.0,0.0,,,,,0,,3,,
Raw,1772405,1775724000000,,,-1278056086725182976,0.0,44.88401100388728,4.9551931755711465,11.707245580238387,1,4,0.0,207,39844385112448,11,33.6,127.92292022705078,0.23040001094341278,0,0.0,0.0,,,,,0,,3,,
Raw,1772405,1775724000000,,,-1278056086725182976,0.0,44.88401100388728,4.9551931755711465,11.707245580238387,1,2,0.0,3,15873498,40,21.6,-220.59793090820312,0.8089999556541443,0,0.0,0.0,,,,,0,,1,,
Raw,1772406,1775724000000,,,-1278056086725182976,0.0,44.88401100388728,4.9551931755711465,11.707245580238387,1,5,0.0,15,115462379361968,7,37.4,-86.7018814086914,0.04910000041127205,0,0.0,0.0,,,,,0,,1,,
Raw,1772406,1775724000000,,,-1278056086725182976,0.0,44.88401100388728,4.9551931755711465,11.707245580238387,1,6,0.0,15,115462376243666,169,15.7,86.2125473022461,6.530500411987305,0,0.0,0.0,,,,,0,,1,,
Raw,1772406,1775724000000,,,-1278056086725182976,0.0,44.88401100388728,4.9551931755711465,11.707245580238387,1,7,0.0,15,115462363153136,61,18.4,-194.8607177734375,1.0809999704360962,0,0.0,0.0,,,,,0,,1,,
Raw,1772406,1775724000000,,,-1278056086725182976,0.0,44.88401100388728,4.9551931755711465,11.707245580238387,1,9,0.0,15,115462370445740,84,16.6,502.413330078125,1.93149995803833,0,0.0,0.0,,,,,0,,1,,
Raw,1772406,1775724000000,,,-1278056086725182976,0.0,44.88401100388728,4.9551931755711465,11.707245580238387,1,12,0.0,15,115462371693501,5,40.1,204.96644592285156,0.03590000048279762,0,0.0,0.0,,,,,0,,1,,
Raw,1772407,1775724000000,,,-1278056086725182976,0.0,44.88401100388728,4.9551931755711465,11.707245580238387,1,13,0.0,15,115462371989399,27,24.3,-664.2676391601562,0.6829999685287476,0,0.0,0.0,,,,,0,,1,,
Raw,1772407,1775724000000,,,-1278056086725182976,0.0,44.88401100388728,4.9551931755711465,11.707245580238387,1,15,0.0,15,115462364140406,17,28.6,-720.2947387695312,0.03930000215768814,0,0.0,0.0,,,,,0,,1,,
Raw,1772407,1775724000000,,,-1278056086725182976,0.0,44.88401100388728,4.9551931755711465,11.707245580238387,1,19,0.0,15,115462377280164,19,27.7,495.35333251953125,0.06680000573396683,0,0.0,0.0,,,,,0,,1,,
Raw,1772407,1775724000000,,,-1278056086725182976,0.0,44.88401100388728,4.9551931755711465,11.707245580238387,1,25,0.0,15,115462367111142,19,27.8,-16.581247329711914,0.05180000141263008,0,0.0,0.0,,,,,0,,1,,
Raw,1772408,1775724000000,,,-1278056086725182976,0.0,44.88401100388728,4.9551931755711465,11.707245580238387,1,1,0.0,783,115448325485112,47,21.9,-0.7105461359024048,2.194999933242798,0,0.0,0.0,,,,,0,,5,,
Raw,1772408,1775724000000,,,-1278056086725182976,0.0,44.88401100388728,4.9551931755711465,11.707245580238387,1,2,0.0,783,115448323987418,12,32.1,-1.6323356628417969,0.3050000071525574,0,0.0,0.0,,,,,0,,5,,
Raw,1772408,1775724000000,,,-1278056086725182976,0.0,44.88401100388728,4.9551931755711465,11.707245580238387,1,3,0.0,783,115448328649679,16,29.2,-0.3264671564102173,0.41350001096725464,0,0.0,0.0,,,,,0,,5,,
Raw,1772408,1775724000000,,,-1278056086725182976,0.0,44.88401100388728,4.9551931755711465,11.707245580238387,1,5,0.0,783,115448316046153,9,35.1,-1.6227335929870605,0.273499995470047,0,0.0,0.0,,,,,0,,5,,
Raw,1772409,1775724000000,,,-1278056086725182976,0.0,44.88401100388728,4.9551931755711465,11.707245580238387,1,6,0.0,15,115448324908250,61,18.4,-240.9615478515625,0.92249995470047,0,0.0,0.0,,,,,0,,5,,
Raw,1772409,1775724000000,,,-1278056086725182976,0.0,44.88401100388728,4.9551931755711465,11.707245580238387,1,7,0.0,15,115448319464394,89,16.3,290.4117126464844,2.575000047683716,0,0.0,0.0,,,,,0,,5,,
Raw,1772409,1775724000000,,,-1278056086725182976,0.0,44.88401100388728,4.9551931755711465,11.707245580238387,1,9,0.0,15,115448318999015,79,17.0,-262.2779235839844,2.5235002040863037,0,0.0,0.0,,,,,0,,5,,
Raw,1772409,1775724000000,,,-1278056086725182976,0.0,44.88401100388728,4.9551931755711465,11.707245580238387,1,10,0.0,15,115448321223583,14,30.1,309.8009948730469,0.027300000190734863,0,0.0,0.0,,,,,0,,5,,
Raw,1772409,1775724000000,,,-1278056086725182976,0.0,44.88401100388728,4.9551931755711465,11.707245580238387,1,12,0.0,15,115448375570252,11,33.5,-316.2715759277344,0.04540000110864639,0,0.0,0.0,,,,,0,,5,,
Raw,1772410,1775724000000,,,-1278056086725182976,0.0,44.88401100388728,4.9551931755711465,11.707245580238387,1,13,0.0,15,115448323579794,13,31.1,-54.74990463256836,0.02970000170171261,0,0.0,0.0,,,,,0,,5,,
Raw,1772410,1775724000000,,,-1278056086725182976,0.0,44.88401100388728,4.9551931755711465,11.707245580238387,1,16,0.0,15,115448322735806,35,22.6,-271.2461853027344,0.6694999933242798,0,0.0,0.0,,,,,0,,5,,
Raw,1772410,1775724000000,,,-1278056086725182976,0.0,44.88401100388728,4.9551931755711465,11.707245580238387,1,21,0.0,15,115448375994583,14,30.8,-54.54463195800781,0.04830000177025795,0,0.0,0.0,,,,,0,,5,,
Raw,1772411,1775724000000,,,-1278056086725182976,0.0,44.88401100388728,4.9551931755711465,11.707245580238387,1,1,0.0,7183,115462355425579,35,22.7,368.0565185546875,0.6389999985694885,0,0.0,0.0,,,,,0,,6,,
Raw,1772411,1775724000000,,,-1278056086725182976,0.0,44.88401100388728,4.9551931755711465,11.707245580238387,1,19,0.0,7183,115462367720973,24,25.3,-390.3779296875,0.5189999938011169,0,0.0,0.0,,,,,0,,6,,
NMEA,$GPGSV,4,1,13,02,00,000,22,05,54,286,37,06,43,054,16,07,02,094,18*76,1594022644343
NMEA,$GPGSV,4,2,13,09,21,045,17,12,24,267,40,13,24,184,24,15,02,208,29*7A,1594022644343
NMEA,$GPGSV,4,3,13,19,47,142,28,25,10,293,28,17,27,144,,29,00,000,*77,1594022644344
NMEA,$GPGSV,4,4,13,30,06,123,*4E,1594022644344
NMEA,$GLGSV,2,1,07,69,37,217,31,68,80,324,34,82,52,085,,84,00,000,*64,1594022644346
NMEA,$GLGSV,2,2,07,83,00,000,,81,12,125,,67,29,025,*58,1594022644347
NMEA,$GAGSV,1,1,02,01,09,209,23,19,49,198,25*6A,1594022644348
NMEA,$PQGSV,1,1,03,193,70,061,18,195,71,133,26,194,11,161,,0,5*6F,1594022644349
NMEA,$PQGSV,4,1,14,01,50,130,22,02,42,243,32,03,62,203,29,05,17,258,35,0,4*6A,1594022644350
NMEA,$PQGSV,4,2,14,06,45,170,18,07,00,000,16,09,22,189,17,10,30,222,30,0,4*6C,1594022644351
NMEA,$PQGSV,4,3,14,12,59,340,34,13,40,327,31,16,40,175,23,21,71,265,31,0,4*63,1594022644352
NMEA,$PQGSV,4,4,14,04,37,113,,22,45,030,,0,4*6F,1594022644353
NMEA,$GNGSA,A,3,05,12,13,19,25,,,,,,,,1.4,1.1,0.9,1*36,1594022644356
NMEA,$GNGSA,A,2,68,69,,,,,,,,,,,1.4,1.1,0.9,2*3E,1594022644359
NMEA,$GNGSA,A,2,01,,,,,,,,,,,,1.4,1.1,0.9,3*3F,1594022644368
NMEA,$PQGSA,A,3,05,10,13,21,,,,,,,,,1.4,1.1,0.9,4*35,1594022644368
NMEA,$GNVTG,,T,,M,0.0,N,0.0,K,A*3D,1594022644368
NMEA,$GNRMC,080405.00,A,2255.521287,N,12017.677693,E,0.0,,060720,2.8,W,A*13,1594022644369
NMEA,$GNGGA,080405.00,2255.521287,N,12017.677693,E,1,12,1.1,27.2,M,17.5,M,,*48,1594022644369
Raw,1773432,1776724000000,,,-1278056086725182976,0.0,46.66953827836551,7.826458523329233,10.690655035685383,1,5,0.0,207,39845378857184,16,29.6,-551.7625732421875,0.25369998812675476,0,0.0,0.0,,,,,0,,3,,
Raw,1773432,1776724000000,,,-1278056086725182976,0.0,46.66953827836551,7.826458523329233,10.690655035685383,1,4,0.0,207,39845385112013,10,34.5,128.75680541992188,0.22960001230239868,0,0.0,0.0,,,,,0,,3,,
Raw,1773432,1776724000000,,,-1278056086725182976,0.0,46.66953827836551,7.826458523329233,10.690655035685383,1,2,0.0,3,15874245,35,22.6,-220.84532165527344,0.7489999532699585,0,0.0,0.0,,,,,0,,1,,
Raw,1773433,1776724000000,,,-1278056086725182976,0.0,46.66953827836551,7.826458523329233,10.690655035685383,1,5,0.0,15,115463379362252,7,37.7,-85.95625305175781,0.04910000041127205,0,0.0,0.0,,,,,0,,1,,
Raw,1773433,1776724000000,,,-1278056086725182976,0.0,46.66953827836551,7.826458523329233,10.690655035685383,1,6,0.0,15,115463376243379,214,15.7,86.2125473022461,8.030500411987305,0,0.0,0.0,,,,,0,,1,,
Raw,1773433,1776724000000,,,-1278056086725182976,0.0,46.66953827836551,7.826458523329233,10.690655035685383,1,7,0.0,15,115463363153788,35,22.2,-194.8036346435547,0.7910000085830688,0,0.0,0.0,,,,,0,,1,,
Raw,1773433,1776724000000,,,-1278056086725182976,0.0,46.66953827836551,7.826458523329233,10.690655035685383,1,9,0.0,15,115463370444064,98,16.6,502.413330078125,3.431500196456909,0,0.0,0.0,,,,,0,,1,,
Raw,1773434,1776724000000,,,-1278056086725182976,0.0,46.66953827836551,7.826458523329233,10.690655035685383,1,12,0.0,15,115463371692816,5,40.3,205.72854614257812,0.03590000048279762,0,0.0,0.0,,,,,0,,1,,
Raw,1773434,1776724000000,,,-1278056086725182976,0.0,46.66953827836551,7.826458523329233,10.690655035685383,1,13,0.0,15,115463371991596,35,22.8,-663.3732299804688,0.7429999709129333,0,0.0,0.0,,,,,0,,1,,
Raw,1773434,1776724000000,,,-1278056086725182976,0.0,46.66953827836551,7.826458523329233,10.690655035685383,1,15,0.0,15,115463364142814,16,29.2,-719.6082153320312,0.03270000219345093,0,0.0,0.0,,,,,0,,1,,
Raw,1773434,1776724000000,,,-1278056086725182976,0.0,46.66953827836551,7.826458523329233,10.690655035685383,1,19,0.0,15,115463377278479,19,27.7,496.0874328613281,0.06680000573396683,0,0.0,0.0,,,,,0,,1,,
Raw,1773434,1776724000000,,,-1278056086725182976,0.0,46.66953827836551,7.826458523329233,10.690655035685383,1,25,0.0,15,115463367111204,17,28.5,-15.819891929626465,0.043800000101327896,0,0.0,0.0,,,,,0,,1,,
Raw,1773435,1776724000000,,,-1278056086725182976,0.0,46.66953827836551,7.826458523329233,10.690655035685383,1,1,0.0,783,115449325485115,65,21.9,-0.7105461359024048,3.695000171661377,0,0.0,0.0,,,,,0,,5,,
Raw,1773435,1776724000000,,,-1278056086725182976,0.0,46.66953827836551,7.826458523329233,10.690655035685383,1,2,0.0,783,115449323987424,12,32.9,0.24965135753154755,0.2850000262260437,0,0.0,0.0,,,,,0,,5,,
Raw,1773435,1776724000000,,,-1278056086725182976,0.0,46.66953827836551,7.826458523329233,10.690655035685383,1,3,0.0,783,115449328649669,16,29.0,4.196063041687012,0.41350001096725464,0,0.0,0.0,,,,,0,,5,,
Raw,1773435,1776724000000,,,-1278056086725182976,0.0,46.66953827836551,7.826458523329233,10.690655035685383,1,5,0.0,783,115449316046163,9,35.3,0.9697994589805603,0.273499995470047,0,0.0,0.0,,,,,0,,5,,
Raw,1773435,1776724000000,,,-1278056086725182976,0.0,46.66953827836551,7.826458523329233,10.690655035685383,1,6,0.0,15,115449324909064,61,18.8,-239.13717651367188,0.8524999618530273,0,0.0,0.0,,,,,0,,5,,
Raw,1773436,1776724000000,,,-1278056086725182976,0.0,46.66953827836551,7.826458523329233,10.690655035685383,1,7,0.0,15,115449319463425,110,14.7,293.07147216796875,2.005000114440918,0,0.0,0.0,,,,,0,,5,,
Raw,1773436,1776724000000,,,-1278056086725182976,0.0,46.66953827836551,7.826458523329233,10.690655035685383,1,9,0.0,15,115449318999885,110,14.0,-261.85546875,2.0334999561309814,0,0.0,0.0,,,,,0,,5,,
Raw,1773436,1776724000000,,,-1278056086725182976,0.0,46.66953827836551,7.826458523329233,10.690655035685383,1,10,0.0,15,115449321222559,14,30.6,310.48541259765625,0.027300000190734863,0,0.0,0.0,,,,,0,,5,,
Raw,1773436,1776724000000,,,-1278056086725182976,0.0,46.66953827836551,7.826458523329233,10.690655035685383,1,12,0.0,15,115449375571310,11,33.7,-315.5400695800781,0.04540000110864639,0,0.0,0.0,,,,,0,,5,,
Raw,1773437,1776724000000,,,-1278056086725182976,0.0,46.66953827836551,7.826458523329233,10.690655035685383,1,13,0.0,15,115449323579984,14,30.6,-54.08319854736328,0.030300000682473183,0,0.0,0.0,,,,,0,,5,,
Raw,1773437,1776724000000,,,-1278056086725182976,0.0,46.66953827836551,7.826458523329233,10.690655035685383,1,16,0.0,15,115449322736762,35,22.1,-269.7962951660156,0.6694999933242798,0,0.0,0.0,,,,,0,,5,,
Raw,1773437,1776724000000,,,-1278056086725182976,0.0,46.66953827836551,7.826458523329233,10.690655035685383,1,21,0.0,15,115449375994759,14,30.3,-53.7723388671875,0.04830000177025795,0,0.0,0.0,,,,,0,,5,,
Raw,1773437,1776724000000,,,-1278056086725182976,0.0,46.66953827836551,7.826458523329233,10.690655035685383,1,1,0.0,7183,115463355424338,35,22.0,367.9994201660156,0.6389999985694885,0,0.0,0.0,,,,,0,,6,,
Raw,1773437,1776724000000,,,-1278056086725182976,0.0,46.66953827836551,7.826458523329233,10.690655035685383,1,19,0.0,7183,115463367722269,21,26.4,-389.13153076171875,0.4790000021457672,0,0.0,0.0,,,,,0,,6,,
Fix,gps,22.925355,120.294628,44.971802,0.000000,3.216000,1594022646000
NMEA,$GPGSV,4,1,13,02,00,000,23,05,54,286,38,06,43,054,16,07,02,094,22*71,1594022645344
NMEA,$GPGSV,4,2,13,09,21,045,17,12,24,267,40,13,24,184,23,15,02,208,29*7D,1594022645345
NMEA,$GPGSV,4,3,13,19,47,142,28,25,10,293,29,17,27,144,,29,00,000,*76,1594022645346
NMEA,$GPGSV,4,4,13,30,06,123,*4E,1594022645347
NMEA,$GLGSV,2,1,07,69,37,217,30,68,80,324,35,82,52,085,,84,00,000,*64,1594022645347
NMEA,$GLGSV,2,2,07,83,00,000,,81,12,125,,67,29,025,*58,1594022645348
NMEA,$GAGSV,1,1,02,01,09,209,22,19,49,198,26*68,1594022645349
NMEA,$PQGSV,1,1,03,193,70,061,19,195,71,133,27,194,11,161,,0,5*6F,1594022645350
NMEA,$PQGSV,4,1,14,01,50,130,22,02,42,243,33,03,62,203,29,05,17,258,35,0,4*6B,1594022645351
NMEA,$PQGSV,4,2,14,06,45,170,19,07,00,000,15,09,22,189,14,10,30,222,31,0,4*6C,1594022645352
NMEA,$PQGSV,4,3,14,12,59,340,34,13,40,327,31,16,40,175,22,21,71,265,30,0,4*63,1594022645352
NMEA,$PQGSV,4,4,14,04,37,113,,22,45,030,,0,4*6F,1594022645353
NMEA,$GNGSA,A,3,05,12,13,19,25,,,,,,,,1.4,1.1,0.9,1*36,1594022645356
NMEA,$GNGSA,A,2,68,69,,,,,,,,,,,1.4,1.1,0.9,2*3E,1594022645363
NMEA,$GNGSA,A,2,01,,,,,,,,,,,,1.4,1.1,0.9,3*3F,1594022645364
NMEA,$PQGSA,A,3,05,10,13,21,,,,,,,,,1.4,1.1,0.9,4*35,1594022645364
NMEA,$GNVTG,,T,,M,0.0,N,0.0,K,A*3D,1594022645365
NMEA,$GNRMC,080406.00,A,2255.521280,N,12017.677650,E,0.0,,060720,2.8,W,A*18,1594022645366
NMEA,$GNGGA,080406.00,2255.521280,N,12017.677650,E,1,12,1.1,27.5,M,17.5,M,,*44,1594022645367
NMEA,$GPGSV,4,1,13,02,00,000,23,05,54,286,38,06,43,054,16,07,02,094,21*72,1594022646331
Raw,1774382,1777724000000,,,-1278056086725182976,0.0,46.104072680464014,10.19037378763629,10.693955442606464,1,5,0.0,207,39846378859069,24,25.4,-551.7855224609375,0.6087999939918518,0,0.0,0.0,,,,,0,,3,,
Raw,1774383,1777724000000,,,-1278056086725182976,0.0,46.104072680464014,10.19037378763629,10.693955442606464,1,4,0.0,207,39846385111573,11,33.2,128.80026245117188,0.23040001094341278,0,0.0,0.0,,,,,0,,3,,
Raw,1774384,1777724000000,,,-1278056086725182976,0.0,46.104072680464014,10.19037378763629,10.693955442606464,1,2,0.0,3,15874946,35,22.8,-220.4076385498047,0.7489999532699585,0,0.0,0.0,,,,,0,,1,,
Raw,1774384,1777724000000,,,-1278056086725182976,0.0,46.104072680464014,10.19037378763629,10.693955442606464,1,5,0.0,15,115464379362541,7,37.5,-86.0136947631836,0.04910000041127205,0,0.0,0.0,,,,,0,,1,,
Raw,1774384,1777724000000,,,-1278056086725182976,0.0,46.104072680464014,10.19037378763629,10.693955442606464,1,6,0.0,15,115464376243091,268,15.7,86.2125473022461,9.530500411987305,0,0.0,0.0,,,,,0,,1,,
Raw,1774385,1777724000000,,,-1278056086725182976,0.0,46.104072680464014,10.19037378763629,10.693955442606464,1,7,0.0,15,115464363154410,40,21.2,-195.05101013183594,0.8510000109672546,0,0.0,0.0,,,,,0,,1,,
Raw,1774385,1777724000000,,,-1278056086725182976,0.0,46.104072680464014,10.19037378763629,10.693955442606464,1,9,0.0,15,115464370442495,96,15.8,504.0879211425781,2.0215001106262207,0,0.0,0.0,,,,,0,,1,,
Raw,1774386,1777724000000,,,-1278056086725182976,0.0,46.104072680464014,10.19037378763629,10.693955442606464,1,12,0.0,15,115464371692132,6,39.9,205.6933135986328,0.03610000014305115,0,0.0,0.0,,,,,0,,1,,
Raw,1774386,1777724000000,,,-1278056086725182976,0.0,46.104072680464014,10.19037378763629,10.693955442606464,1,13,0.0,15,115464371993784,21,26.0,-663.7728881835938,0.5929999947547913,0,0.0,0.0,,,,,0,,1,,
Raw,1774387,1777724000000,,,-1278056086725182976,0.0,46.104072680464014,10.19037378763629,10.693955442606464,1,15,0.0,15,115464364145198,16,29.5,-719.7329711914062,0.03270000219345093,0,0.0,0.0,,,,,0,,1,,
Raw,1774387,1777724000000,,,-1278056086725182976,0.0,46.104072680464014,10.19037378763629,10.693955442606464,1,19,0.0,15,115464377276864,19,27.1,496.0472717285156,0.06680000573396683,0,0.0,0.0,,,,,0,,1,,
Raw,1774387,1777724000000,,,-1278056086725182976,0.0,46.104072680464014,10.19037378763629,10.693955442606464,1,25,0.0,15,115464367111240,19,27.8,-15.835664749145508,0.05180000141263008,0,0.0,0.0,,,,,0,,1,,
Raw,1774388,1777724000000,,,-1278056086725182976,0.0,46.104072680464014,10.19037378763629,10.693955442606464,1,1,0.0,783,115450325485117,92,21.9,-0.7105461359024048,5.195000171661377,0,0.0,0.0,,,,,0,,5,,
Raw,1774388,1777724000000,,,-1278056086725182976,0.0,46.104072680464014,10.19037378763629,10.693955442606464,1,2,0.0,783,115450323987430,13,31.0,-1.949200987815857,0.33500000834465027,0,0.0,0.0,,,,,0,,5,,
Raw,1774389,1777724000000,,,-1278056086725182976,0.0,46.104072680464014,10.19037378763629,10.693955442606464,1,3,0.0,783,115450328649641,16,29.1,4.368898391723633,0.41350001096725464,0,0.0,0.0,,,,,0,,5,,
Raw,1774389,1777724000000,,,-1278056086725182976,0.0,46.104072680464014,10.19037378763629,10.693955442606464,1,5,0.0,783,115450316046159,10,34.8,1.4402961730957031,0.273499995470047,0,0.0,0.0,,,,,0,,5,,
Raw,1774390,1777724000000,,,-1278056086725182976,0.0,46.104072680464014,10.19037378763629,10.693955442606464,1,6,0.0,15,115450324909865,53,19.3,-239.5404510498047,0.8524999618530273,0,0.0,0.0,,,,,0,,5,,
Raw,1774390,1777724000000,,,-1278056086725182976,0.0,46.104072680464014,10.19037378763629,10.693955442606464,1,7,0.0,15,115450319462447,124,14.7,293.07147216796875,3.505000114440918,0,0.0,0.0,,,,,0,,5,,
Raw,1774391,1777724000000,,,-1278056086725182976,0.0,46.104072680464014,10.19037378763629,10.693955442606464,1,9,0.0,15,115450319000733,53,19.3,-259.147705078125,0.875,0,0.0,0.0,,,,,0,,5,,
Raw,1774391,1777724000000,,,-1278056086725182976,0.0,46.104072680464014,10.19037378763629,10.693955442606464,1,10,0.0,15,115450321221523,13,31.2,310.3810729980469,0.02670000120997429,0,0.0,0.0,,,,,0,,5,,
Raw,1774392,1777724000000,,,-1278056086725182976,0.0,46.104072680464014,10.19037378763629,10.693955442606464,1,12,0.0,15,115450375572365,11,33.2,-315.60650634765625,0.04540000110864639,0,0.0,0.0,,,,,0,,5,,
Raw,1774392,1777724000000,,,-1278056086725182976,0.0,46.104072680464014,10.19037378763629,10.693955442606464,1,13,0.0,15,115450323580157,13,31.0,-54.205318450927734,0.02970000170171261,0,0.0,0.0,,,,,0,,5,,
Raw,1774393,1777724000000,,,-1278056086725182976,0.0,46.104072680464014,10.19037378763629,10.693955442606464,1,16,0.0,15,115450322737629,35,22.0,-269.9691162109375,0.6694999933242798,0,0.0,0.0,,,,,0,,5,,
Raw,1774393,1777724000000,,,-1278056086725182976,0.0,46.104072680464014,10.19037378763629,10.693955442606464,1,21,0.0,15,115450375994948,13,31.1,-53.835411071777344,0.047700002789497375,0,0.0,0.0,,,,,0,,5,,
Raw,1774394,1777724000000,,,-1278056086725182976,0.0,46.104072680464014,10.19037378763629,10.693955442606464,1,1,0.0,7183,115464355423127,35,22.9,368.3609619140625,0.6389999985694885,0,0.0,0.0,,,,,0,,6,,
Raw,1774395,1777724000000,,,-1278056086725182976,0.0,46.104072680464014,10.19037378763629,10.693955442606464,1,19,0.0,7183,115464367723560,24,25.2,-390.60162353515625,0.4043000042438507,0,0.0,0.0,,,,,0,,6,,
Fix,gps,22.925355,120.294626,45.516174,0.000000,3.216000,1594022647000
NMEA,$GPGSV,4,2,13,09,21,045,16,12,24,267,40,13,24,184,26,15,02,208,30*71,1594022646331
NMEA,$GPGSV,4,3,13,19,47,142,27,25,10,293,28,17,27,144,,29,00,000,*78,1594022646338
NMEA,$GPGSV,4,4,13,30,06,123,*4E,1594022646339
NMEA,$GLGSV,2,1,07,69,37,217,25,68,80,324,33,82,52,085,,84,00,000,*66,1594022646339
NMEA,$GLGSV,2,2,07,83,00,000,,81,12,125,,67,29,025,*58,1594022646339
NMEA,$GAGSV,1,1,02,01,09,209,23,19,49,198,25*6A,1594022646339
NMEA,$PQGSV,1,1,03,193,70,061,18,195,71,133,26,194,11,161,,0,5*6F,1594022646339
NMEA,$PQGSV,4,1,14,01,50,130,22,02,42,243,31,03,62,203,29,05,17,258,35,0,4*69,1594022646339
NMEA,$PQGSV,4,2,14,06,45,170,19,07,00,000,15,09,22,189,19,10,30,222,31,0,4*61,1594022646339
NMEA,$PQGSV,4,3,14,12,59,340,33,13,40,327,31,16,40,175,22,21,71,265,31,0,4*65,1594022646340
NMEA,$PQGSV,4,4,14,04,37,113,,22,45,030,,0,4*6F,1594022646340
NMEA,$GNGSA,A,3,05,12,13,19,25,,,,,,,,1.4,1.1,0.9,1*36,1594022646340
NMEA,$GNGSA,A,2,68,69,,,,,,,,,,,1.4,1.1,0.9,2*3E,1594022646341
NMEA,$GNGSA,A,2,01,,,,,,,,,,,,1.4,1.1,0.9,3*3F,1594022646341
NMEA,$PQGSA,A,3,05,10,13,21,,,,,,,,,1.4,1.1,0.9,4*35,1594022646341
NMEA,$GNVTG,,T,,M,0.0,N,0.0,K,A*3D,1594022646341
NMEA,$GNRMC,080407.00,A,2255.521287,N,12017.677533,E,0.0,,060720,2.8,W,A*18,1594022646341
NMEA,$GNGGA,080407.00,2255.521287,N,12017.677533,E,1,12,1.1,28.0,M,17.5,M,,*4E,1594022646341
Fix,gps,22.925355,120.294624,45.688843,0.000000,3.216000,1594022648000
Raw,1775391,1778724000000,,,-1278056086725182976,0.0,44.94623135542497,10.123042305331106,10.695242998945075,1,5,0.0,207,39847378860871,24,25.5,-551.1773681640625,0.6087999939918518,0,0.0,0.0,,,,,0,,3,,
Raw,1775392,1778724000000,,,-1278056086725182976,0.0,44.94623135542497,10.123042305331106,10.695242998945075,1,4,0.0,207,39847385111149,10,34.5,129.38232421875,0.22960001230239868,0,0.0,0.0,,,,,0,,3,,
Raw,1775392,1778724000000,,,-1278056086725182976,0.0,44.94623135542497,10.123042305331106,10.695242998945075,1,2,0.0,3,15875633,31,23.1,-219.72259521484375,0.7489999532699585,0,0.0,0.0,,,,,0,,1,,
Raw,1775393,1778724000000,,,-1278056086725182976,0.0,44.94623135542497,10.123042305331106,10.695242998945075,1,5,0.0,15,115465379362822,7,37.9,-85.461181640625,0.04910000041127205,0,0.0,0.0,,,,,0,,1,,
Raw,1775393,1778724000000,,,-1278056086725182976,0.0,44.94623135542497,10.123042305331106,10.695242998945075,1,6,0.0,15,115465376242803,333,15.7,86.2125473022461,11.030500411987305,0,0.0,0.0,,,,,0,,1,,
Raw,1775394,1778724000000,,,-1278056086725182976,0.0,44.94623135542497,10.123042305331106,10.695242998945075,1,7,0.0,15,115465363155128,40,21.7,-194.4420623779297,0.7910000085830688,0,0.0,0.0,,,,,0,,1,,
Raw,1775394,1778724000000,,,-1278056086725182976,0.0,44.94623135542497,10.123042305331106,10.695242998945075,1,9,0.0,15,115465370440814,110,15.8,504.0879211425781,3.5215001106262207,0,0.0,0.0,,,,,0,,1,,
Raw,1775394,1778724000000,,,-1278056086725182976,0.0,44.94623135542497,10.123042305331106,10.695242998945075,1,12,0.0,15,115465371691447,6,39.5,206.24310302734375,0.03610000014305115,0,0.0,0.0,,,,,0,,1,,
Raw,1775394,1778724000000,,,-1278056086725182976,0.0,44.94623135542497,10.123042305331106,10.695242998945075,1,13,0.0,15,115465371996047,31,23.8,-662.7072143554688,0.6829999685287476,0,0.0,0.0,,,,,0,,1,,
Raw,1775395,1778724000000,,,-1278056086725182976,0.0,44.94623135542497,10.123042305331106,10.695242998945075,1,15,0.0,15,115465364147604,14,30.5,-719.30322265625,0.03180000185966492,0,0.0,0.0,,,,,0,,1,,
Raw,1775395,1778724000000,,,-1278056086725182976,0.0,44.94623135542497,10.123042305331106,10.695242998945075,1,17,0.0,15,115465373403196,367,23.1,577.7410888671875,1.0460000038146973,0,0.0,0.0,,,,,0,,1,,
Raw,1775395,1778724000000,,,-1278056086725182976,0.0,44.94623135542497,10.123042305331106,10.695242998945075,1,19,0.0,15,115465377275238,21,26.6,496.6476745605469,0.13670000433921814,0,0.0,0.0,,,,,0,,1,,
Raw,1775395,1778724000000,,,-1278056086725182976,0.0,44.94623135542497,10.123042305331106,10.695242998945075,1,25,0.0,15,115465367111299,17,28.6,-15.279006958007812,0.043800000101327896,0,0.0,0.0,,,,,0,,1,,
Raw,1775396,1778724000000,,,-1278056086725182976,0.0,44.94623135542497,10.123042305331106,10.695242998945075,1,1,0.0,783,115451325485059,38,23.3,-0.2592533230781555,2.1449999809265137,0,0.0,0.0,,,,,0,,5,,
Raw,1775396,1778724000000,,,-1278056086725182976,0.0,44.94623135542497,10.123042305331106,10.695242998945075,1,2,0.0,783,115451323987429,16,29.4,2.9286022186279297,0.3850000202655792,0,0.0,0.0,,,,,0,,5,,
Raw,1775396,1778724000000,,,-1278056086725182976,0.0,44.94623135542497,10.123042305331106,10.695242998945075,1,3,0.0,783,115451328649614,16,29.3,4.906609058380127,0.41350001096725464,0,0.0,0.0,,,,,0,,5,,
Raw,1775397,1778724000000,,,-1278056086725182976,0.0,44.94623135542497,10.123042305331106,10.695242998945075,1,5,0.0,783,115451316046159,10,34.7,-0.4032829701900482,0.29350000619888306,0,0.0,0.0,,,,,0,,5,,
Raw,1775397,1778724000000,,,-1278056086725182976,0.0,44.94623135542497,10.123042305331106,10.695242998945075,1,6,0.0,15,115451324910640,70,17.8,-240.00135803222656,0.92249995470047,0,0.0,0.0,,,,,0,,5,,
Raw,1775397,1778724000000,,,-1278056086725182976,0.0,44.94623135542497,10.123042305331106,10.695242998945075,1,7,0.0,15,115451319461527,73,17.5,293.9548645019531,1.7450000047683716,0,0.0,0.0,,,,,0,,5,,
Raw,1775397,1778724000000,,,-1278056086725182976,0.0,44.94623135542497,10.123042305331106,10.695242998945075,1,9,0.0,15,115451319001606,53,19.8,-258.4659423828125,0.8149999976158142,0,0.0,0.0,,,,,0,,5,,
Raw,1775398,1778724000000,,,-1278056086725182976,0.0,44.94623135542497,10.123042305331106,10.695242998945075,1,10,0.0,15,115451321220480,14,30.7,310.8373718261719,0.027300000190734863,0,0.0,0.0,,,,,0,,5,,
Raw,1775398,1778724000000,,,-1278056086725182976,0.0,44.94623135542497,10.123042305331106,10.695242998945075,1,12,0.0,15,115451375573408,11,33.6,-315.0810241699219,0.04540000110864639,0,0.0,0.0,,,,,0,,5,,
Raw,1775398,1778724000000,,,-1278056086725182976,0.0,44.94623135542497,10.123042305331106,10.695242998945075,1,13,0.0,15,115451323580348,14,30.2,-53.79633331298828,0.030300000682473183,0,0.0,0.0,,,,,0,,5,,
Raw,1775399,1778724000000,,,-1278056086725182976,0.0,44.94623135542497,10.123042305331106,10.695242998945075,1,16,0.0,15,115451322738539,31,23.6,-269.78668212890625,0.6195000410079956,0,0.0,0.0,,,,,0,,5,,
Raw,1775399,1778724000000,,,-1278056086725182976,0.0,44.94623135542497,10.123042305331106,10.695242998945075,1,21,0.0,15,115451375995128,13,31.3,-53.25613021850586,0.047700002789497375,0,0.0,0.0,,,,,0,,5,,
Raw,1775399,1778724000000,,,-1278056086725182976,0.0,44.94623135542497,10.123042305331106,10.695242998945075,1,1,0.0,7183,115465355421892,24,25.1,368.865234375,0.4043000042438507,0,0.0,0.0,,,,,0,,6,,
Raw,1775399,1778724000000,,,-1278056086725182976,0.0,44.94623135542497,10.123042305331106,10.695242998945075,1,19,0.0,7183,115465367724865,21,26.1,-389.56439208984375,0.13369999825954437,0,0.0,0.0,,,,,0,,6,,
NMEA,$GPGSV,4,1,13,02,00,000,23,05,54,286,38,06,43,054,16,07,02,094,22*71,1594022647332
NMEA,$GPGSV,4,2,13,09,21,045,16,12,24,267,40,13,24,184,24,15,02,208,31*72,1594022647332
NMEA,$GPGSV,4,3,13,17,27,144,23,19,47,142,27,25,10,293,29,29,00,000,*78,1594022647332
NMEA,$GPGSV,4,4,13,30,06,123,*4E,1594022647332
NMEA,$GLGSV,2,1,07,69,37,217,26,68,80,324,35,82,52,085,,84,00,000,*63,1594022647332
NMEA,$GLGSV,2,2,07,83,00,000,,81,12,125,,67,29,025,*58,1594022647332
NMEA,$GAGSV,1,1,02,01,09,209,25,19,49,198,26*6F,1594022647333
NMEA,$PQGSV,1,1,03,193,70,061,19,195,71,133,27,194,11,161,,0,5*6F,1594022647333
NMEA,$PQGSV,4,1,14,01,50,130,23,02,42,243,29,03,62,203,29,05,17,258,35,0,4*61,1594022647333
NMEA,$PQGSV,4,2,14,06,45,170,18,07,00,000,18,09,22,189,20,10,30,222,31,0,4*67,1594022647333
NMEA,$PQGSV,4,3,14,12,59,340,34,13,40,327,30,16,40,175,24,21,71,265,31,0,4*65,1594022647334
NMEA,$PQGSV,4,4,14,04,37,113,,22,45,030,,0,4*6F,1594022647334
NMEA,$GNGSA,A,3,05,12,13,19,25,,,,,,,,1.4,1.1,0.9,1*36,1594022647335
NMEA,$GNGSA,A,2,68,69,,,,,,,,,,,1.4,1.1,0.9,2*3E,1594022647335
NMEA,$GNGSA,A,2,01,,,,,,,,,,,,1.4,1.1,0.9,3*3F,1594022647335
NMEA,$PQGSA,A,3,05,10,13,21,,,,,,,,,1.4,1.1,0.9,4*35,1594022647335
NMEA,$GNVTG,,T,,M,0.0,N,0.0,K,A*3D,1594022647335
NMEA,$GNRMC,080408.00,A,2255.521309,N,12017.677448,E,0.0,,060720,2.8,W,A*1D,1594022647336
NMEA,$GNGGA,080408.00,2255.521309,N,12017.677448,E,1,12,1.1,28.2,M,17.5,M,,*49,1594022647336
Raw,1776435,1779724000000,,,-1278056086725182976,0.0,43.99194585857913,11.114241984397507,11.70229178874166,1,5,0.0,207,39848378862623,19,27.6,-551.0171508789062,0.26829999685287476,0,0.0,0.0,,,,,0,,3,,
Raw,1776435,1779724000000,,,-1278056086725182976,0.0,43.99194585857913,11.114241984397507,11.70229178874166,1,4,0.0,207,39848385110721,10,34.5,129.6007080078125,0.22960001230239868,0,0.0,0.0,,,,,0,,3,,
Raw,1776436,1779724000000,,,-1278056086725182976,0.0,43.99194585857913,11.114241984397507,11.70229178874166,1,2,0.0,3,15876309,31,23.5,-219.57034301757812,0.6889999508857727,0,0.0,0.0,,,,,0,,1,,
Raw,1776436,1779724000000,,,-1278056086725182976,0.0,43.99194585857913,11.114241984397507,11.70229178874166,1,5,0.0,15,115466379363103,6,38.3,-85.33243560791016,0.048600003123283386,0,0.0,0.0,,,,,0,,1,,
Raw,1776436,1779724000000,,,-1278056086725182976,0.0,43.99194585857913,11.114241984397507,11.70229178874166,1,6,0.0,15,115466376242516,407,15.7,86.2125473022461,12.530500411987305,0,0.0,0.0,,,,,0,,1,,
Raw,1776436,1779724000000,,,-1278056086725182976,0.0,43.99194585857913,11.114241984397507,11.70229178874166,1,7,0.0,15,115466363155745,35,22.0,-194.0614776611328,0.7910000085830688,0,0.0,0.0,,,,,0,,1,,
Raw,1776437,1779724000000,,,-1278056086725182976,0.0,43.99194585857913,11.114241984397507,11.70229178874166,1,9,0.0,15,115466370439132,135,15.8,504.0879211425781,5.021500110626221,0,0.0,0.0,,,,,0,,1,,
Raw,1776437,1779724000000,,,-1278056086725182976,0.0,43.99194585857913,11.114241984397507,11.70229178874166,1,12,0.0,15,115466371690760,5,40.5,206.3896942138672,0.03590000048279762,0,0.0,0.0,,,,,0,,1,,
Raw,1776437,1779724000000,,,-1278056086725182976,0.0,43.99194585857913,11.114241984397507,11.70229178874166,1,13,0.0,15,115466371998212,31,23.9,-662.336181640625,0.6829999685287476,0,0.0,0.0,,,,,0,,1,,
Raw,1776437,1779724000000,,,-1278056086725182976,0.0,43.99194585857913,11.114241984397507,11.70229178874166,1,15,0.0,15,115466364150018,14,30.6,-719.2520751953125,0.03180000185966492,0,0.0,0.0,,,,,0,,1,,
Raw,1776437,1779724000000,,,-1278056086725182976,0.0,43.99194585857913,11.114241984397507,11.70229178874166,1,17,0.0,15,115466373401268,427,21.9,578.64501953125,1.8560000658035278,0,0.0,0.0,,,,,0,,1,,
Raw,1776438,1779724000000,,,-1278056086725182976,0.0,43.99194585857913,11.114241984397507,11.70229178874166,1,19,0.0,15,115466377273547,21,26.7,496.7872314453125,0.13670000433921814,0,0.0,0.0,,,,,0,,1,,
Raw,1776438,1779724000000,,,-1278056086725182976,0.0,43.99194585857913,11.114241984397507,11.70229178874166,1,25,0.0,15,115466367111352,17,28.6,-15.118712425231934,0.043800000101327896,0,0.0,0.0,,,,,0,,1,,
Raw,1776438,1779724000000,,,-1278056086725182976,0.0,43.99194585857913,11.114241984397507,11.70229178874166,1,1,0.0,783,115452325485060,55,23.3,-0.2592533230781555,3.6450002193450928,0,0.0,0.0,,,,,0,,5,,
Raw,1776439,1779724000000,,,-1278056086725182976,0.0,43.99194585857913,11.114241984397507,11.70229178874166,1,2,0.0,783,115452323987436,11,33.1,-1.949200987815857,0.2850000262260437,0,0.0,0.0,,,,,0,,5,,
Raw,1776439,1779724000000,,,-1278056086725182976,0.0,43.99194585857913,11.114241984397507,11.70229178874166,1,3,0.0,783,115452328649592,17,28.6,7.6623759269714355,0.44350001215934753,0,0.0,0.0,,,,,0,,5,,
Raw,1776439,1779724000000,,,-1278056086725182976,0.0,43.99194585857913,11.114241984397507,11.70229178874166,1,5,0.0,783,115452316046157,10,34.9,-0.8641777038574219,0.273499995470047,0,0.0,0.0,,,,,0,,5,,
Raw,1776439,1779724000000,,,-1278056086725182976,0.0,43.99194585857913,11.114241984397507,11.70229178874166,1,6,0.0,15,115452324911435,53,19.4,-239.11798095703125,0.8524999618530273,0,0.0,0.0,,,,,0,,5,,
Raw,1776440,1779724000000,,,-1278056086725182976,0.0,43.99194585857913,11.114241984397507,11.70229178874166,1,7,0.0,15,115452319460546,86,17.5,293.9548645019531,3.245000123977661,0,0.0,0.0,,,,,0,,5,,
Raw,1776440,1779724000000,,,-1278056086725182976,0.0,43.99194585857913,11.114241984397507,11.70229178874166,1,9,0.0,15,115452319002477,93,15.9,-257.1504821777344,1.1049998998641968,0,0.0,0.0,,,,,0,,5,,
Raw,1776440,1779724000000,,,-1278056086725182976,0.0,43.99194585857913,11.114241984397507,11.70229178874166,1,10,0.0,15,115452321219443,13,31.3,310.8905029296875,0.02670000120997429,0,0.0,0.0,,,,,0,,5,,
Raw,1776440,1779724000000,,,-1278056086725182976,0.0,43.99194585857913,11.114241984397507,11.70229178874166,1,12,0.0,15,115452375574460,11,33.6,-314.9624938964844,0.04540000110864639,0,0.0,0.0,,,,,0,,5,,
Raw,1776441,1779724000000,,,-1278056086725182976,0.0,43.99194585857913,11.114241984397507,11.70229178874166,1,13,0.0,15,115452323580517,13,31.0,-53.733497619628906,0.02970000170171261,0,0.0,0.0,,,,,0,,5,,
