# 
# Header Description:
# 
# Version: v2.0.0.1 Platform: 8.0.0 Manufacturer: Sony Model: G8142
# 
# Raw,ElapsedRealtimeMillis,TimeNanos,LeapSecond,TimeUncertaintyNanos,FullBiasNanos,BiasNanos,BiasUncertaintyNanos,DriftNanosPerSecond,DriftUncertaintyNanosPerSecond,HardwareClockDiscontinuityCount,Svid,TimeOffsetNanos,State,ReceivedSvTimeNanos,ReceivedSvTimeUncertaintyNanos,Cn0DbHz,PseudorangeRateMetersPerSecond,PseudorangeRateUncertaintyMetersPerSecond,AccumulatedDeltaRangeState,AccumulatedDeltaRangeMeters,AccumulatedDeltaRangeUncertaintyMeters,CarrierFrequencyHz,CarrierCycles,CarrierPhase,CarrierPhaseUncertainty,MultipathIndicator,SnrInDb,ConstellationType,AgcDb,CarrierFrequencyHz
# 
# Fix,Provider,Latitude,Longitude,Altitude,Speed,Accuracy,(UTC)TimeInMs
# 
# Nav,Svid,Type,Status,MessageId,Sub-messageId,Data(Bytes)
# 
Raw,2043371,2047104000000,,,-1278056086674050304,0.0,4291.771445423365,5.414492913005711,12.69118197824208,84,5,0.0,207,40115708211553,17,28.1,-525.173583984375,0.25279998779296875,0,0.0,0.0,,,,,0,,3,,
Raw,2043371,2047104000000,,,-1278056086674050304,0.0,4291.771445423365,5.414492913005711,12.69118197824208,84,4,0.0,207,40115713848539,35,22.6,164.39915466308594,0.9309999942779541,0,0.0,0.0,,,,,0,,3,,
Raw,2043371,2047104000000,,,-1278056086674050304,0.0,4291.771445423365,5.414492913005711,12.69118197824208,84,5,0.0,15,115733708301357,9,35.9,-70.14156341552734,0.027000000700354576,0,0.0,0.0,,,,,0,,1,,
Raw,2043372,2047104000000,,,-1278056086674050304,0.0,4291.771445423365,5.414492913005711,12.69118197824208,84,12,0.0,15,115733700367253,4,42.3,225.12391662597656,0.037800002843141556,0,0.0,0.0,,,,,0,,1,,
Raw,2043372,2047104000000,,,-1278056086674050304,0.0,4291.771445423365,5.414492913005711,12.69118197824208,84,13,0.0,15,115733701457250,19,27.7,-659.9940795898438,0.09510000050067902,0,0.0,0.0,,,,,0,,1,,
Raw,2043372,2047104000000,,,-1278056086674050304,0.0,4291.771445423365,5.414492913005711,12.69118197824208,84,19,0.0,15,115733705690849,27,24.4,515.6863403320312,0.6589999794960022,0,0.0,0.0,,,,,0,,1,,
Raw,2043373,2047104000000,,,-1278056086674050304,0.0,4291.771445423365,5.414492913005711,12.69118197824208,84,25,0.0,15,115733695983994,19,27.4,6.907907009124756,0.0861000046133995,0,0.0,0.0,,,,,0,,1,,
Fix,gps,22.925366,120.294614,46.677917,0.000000,6.432000,1594022916000
NMEA,$GPGSV,3,1,12,05,54,289,36,12,23,264,42,13,27,184,28,19,45,144,24*70,1594022915187
NMEA,$GPGSV,3,2,12,25,10,292,27,02,51,355,,06,43,057,,07,03,092,*78,1594022915187
NMEA,$GPGSV,3,3,12,09,19,043,,17,26,146,,29,01,323,,30,07,122,*70,1594022915187
NMEA,$GLGSV,2,1,07,69,39,219,28,68,77,336,23,82,52,090,,84,02,324,*62,1594022915188
NMEA,$GLGSV,2,2,07,83,48,001,,81,11,126,,67,27,025,*5B,1594022915188
NMEA,$GAGSV,1,1,0,*74,1594022915190
NMEA,$PQGSV,1,1,03,193,70,060,,194,11,161,,195,71,135,,0,5*65,1594022915192
NMEA,$PQGSV,1,1,0,*73,1594022915192
NMEA,$GNGSA,A,3,05,12,13,19,25,,,,,,,,1.8,1.5,0.9,1*3E,1594022915205
NMEA,$GNGSA,A,2,68,69,,,,,,,,,,,1.8,1.5,0.9,2*36,1594022915205
NMEA,$GNVTG,,T,,M,0.0,N,0.0,K,A*3D,1594022915205
NMEA,$GNRMC,080836.00,A,2255.521953,N,12017.676828,E,0.0,,060720,2.8,W,A*12,1594022915206
NMEA,$GNGGA,080836.00,2255.521953,N,12017.676828,E,1,07,1.5,29.2,M,17.5,M,,*47,1594022915206
Raw,2044377,2047997000000,,,-1278056086673360384,0.0,4292.436875402927,1.182523174773228,10.633977107865697,85,5,0.0,207,40116600522904,12,32.0,-523.7249755859375,0.2785000205039978,0,0.0,0.0,,,,,0,,3,,
Raw,2044377,2047997000000,,,-1278056086673360384,0.0,4292.436875402927,1.182523174773228,10.633977107865697,85,4,0.0,207,40116606157857,17,28.1,165.79864501953125,0.30640000104904175,0,0.0,0.0,,,,,0,,3,,
Raw,2044378,2047997000000,,,-1278056086673360384,0.0,4292.436875402927,1.182523174773228,10.633977107865697,85,5,0.0,15,115734600611430,6,39.1,-68.84832000732422,0.05190000310540199,0,0.0,0.0,,,,,0,,1,,
Raw,2044378,2047997000000,,,-1278056086673360384,0.0,4292.436875402927,1.182523174773228,10.633977107865697,85,12,0.0,15,115734592676423,4,43.0,226.402099609375,0.03240000084042549,0,0.0,0.0,,,,,0,,1,,
Raw,2044378,2047997000000,,,-1278056086673360384,0.0,4292.436875402927,1.182523174773228,10.633977107865697,85,13,0.0,15,115734593769031,14,30.8,-658.7854614257812,0.08299999684095383,0,0.0,0.0,,,,,0,,1,,
Raw,2044379,2047997000000,,,-1278056086673360384,0.0,4292.436875402927,1.182523174773228,10.633977107865697,85,19,0.0,15,115734597999079,19,27.5,517.6528930664062,0.1891999989748001,0,0.0,0.0,,,,,0,,1,,
Raw,2044379,2047997000000,,,-1278056086673360384,0.0,4292.436875402927,1.182523174773228,10.633977107865697,85,25,0.0,15,115734588293808,19,27.9,8.098554611206055,0.17570000886917114,0,0.0,0.0,,,,,0,,1,,
Fix,gps,22.925366,120.294614,46.682983,0.000000,6.432000,1594022917000
NMEA,$GPGSV,4,1,13,05,54,289,39,12,23,264,43,13,27,184,31,19,45,144,28*7C,1594022916191
NMEA,$GPGSV,4,2,13,25,10,292,28,02,51,355,,06,43,057,,07,03,092,*71,1594022916191
NMEA,$GPGSV,4,3,13,09,19,043,,15,04,208,,17,26,146,,29,01,323,*79,1594022916192
NMEA,$GPGSV,4,4,13,30,07,122,*4E,1594022916192
NMEA,$GLGSV,2,1,07,69,39,219,32,68,77,336,28,82,52,090,,84,02,324,*62,1594022916192
NMEA,$GLGSV,2,2,07,83,48,001,,81,11,126,,67,27,025,*5B,1594022916192
NMEA,$GAGSV,1,1,0,*74,1594022916192
NMEA,$PQGSV,1,1,03,193,70,060,,194,11,161,,195,71,135,,0,5*65,1594022916193
NMEA,$PQGSV,1,1,0,*73,1594022916193
NMEA,$GNGSA,A,3,05,12,13,19,25,,,,,,,,1.8,1.5,0.9,1*3E,1594022916194
NMEA,$GNGSA,A,2,68,69,,,,,,,,,,,1.8,1.5,0.9,2*36,1594022916194
NMEA,$GNVTG,,T,,M,0.0,N,0.0,K,A*3D,1594022916194
NMEA,$GNRMC,080837.00,A,2255.521952,N,12017.676829,E,0.0,,060720,2.8,W,A*13,1594022916194
NMEA,$GNGGA,080837.00,2255.521952,N,12017.676829,E,1,07,1.5,29.2,M,17.5,M,,*46,1594022916195
Raw,2045365,2049190000000,,,-1278056086672692224,0.0,4348.237533122301,5.090895569541962,13.357947680572208,86,5,0.0,207,40117792856955,12,32.0,-523.6334228515625,0.26649999618530273,0,0.0,0.0,,,,,0,,3,,
Raw,2045366,2049190000000,,,-1278056086672692224,0.0,4348.237533122301,5.090895569541962,13.357947680572208,86,4,0.0,207,40117798489000,21,26.6,165.95516967773438,0.47769999504089355,0,0.0,0.0,,,,,0,,3,,
Raw,2045366,2049190000000,,,-1278056086672692224,0.0,4348.237533122301,5.090895569541962,13.357947680572208,86,5,0.0,15,115735792943581,5,40.3,-68.82032012939453,0.03790000081062317,0,0.0,0.0,,,,,0,,1,,
Raw,2045366,2049190000000,,,-1278056086672692224,0.0,4348.237533122301,5.090895569541962,13.357947680572208,86,12,0.0,15,115735785007408,4,42.9,226.41055297851562,0.02370000071823597,0,0.0,0.0,,,,,0,,1,,
Raw,2045366,2049190000000,,,-1278056086672692224,0.0,4348.237533122301,5.090895569541962,13.357947680572208,86,13,0.0,15,115735786103537,11,33.1,-658.7526245117188,0.05220000073313713,0,0.0,0.0,,,,,0,,1,,
Raw,2045367,2049190000000,,,-1278056086672692224,0.0,4348.237533122301,5.090895569541962,13.357947680572208,86,19,0.0,15,115735790328935,17,28.2,517.6154174804688,0.11240000277757645,0,0.0,0.0,,,,,0,,1,,
Raw,2045367,2049190000000,,,-1278056086672692224,0.0,4348.237533122301,5.090895569541962,13.357947680572208,86,25,0.0,15,115735780625702,21,26.3,8.232049942016602,0.2806999981403351,0,0.0,0.0,,,,,0,,1,,
Fix,gps,22.925366,120.294614,46.684998,0.000000,6.432000,1594022918000
NMEA,$GPGSV,4,1,13,05,54,289,40,12,23,264,43,13,27,184,33,19,45,144,28*70,1594022917188
NMEA,$GPGSV,4,2,13,25,10,292,26,02,51,355,,06,43,057,,07,03,092,*7F,1594022917190
NMEA,$GPGSV,4,3,13,09,19,043,,15,04,208,,17,26,146,,29,01,323,*79,1594022917190
NMEA,$GPGSV,4,4,13,30,07,122,*4E,1594022917192
NMEA,$GLGSV,2,1,07,69,39,219,32,68,77,336,27,82,52,090,,84,02,324,*6D,1594022917192
NMEA,$GLGSV,2,2,07,83,48,001,,81,11,126,,67,27,025,*5B,1594022917192
NMEA,$GAGSV,1,1,0,*74,1594022917192
NMEA,$PQGSV,1,1,03,193,70,060,,194,11,161,,195,71,135,,0,5*65,1594022917193
NMEA,$PQGSV,1,1,0,*73,1594022917205
NMEA,$GNGSA,A,3,05,12,13,19,25,,,,,,,,1.8,1.5,0.9,1*3E,1594022917206
NMEA,$GNGSA,A,2,68,69,,,,,,,,,,,1.8,1.5,0.9,2*36,1594022917206
NMEA,$GNVTG,,T,,M,0.0,N,0.0,K,A*3D,1594022917207
NMEA,$GNRMC,080838.00,A,2255.521950,N,12017.676830,E,0.0,,060720,2.8,W,A*16,1594022917207
NMEA,$GNGGA,080838.00,2255.521950,N,12017.676830,E,1,07,1.5,29.2,M,17.5,M,,*43,1594022917207
Fix,gps,22.925366,120.294614,46.684998,0.000000,6.432000,1594022919000
NMEA,$GPGSA,A,1,,,,,,,,,,,,,1.8,1.5,0.9,1*29,1594022918185
NMEA,$GPVTG,,T,,M,0.0,N,0.0,K,A*23,1594022918186
NMEA,$GPRMC,080839.00,A,2255.521950,N,12017.676830,E,0.0,,060720,2.8,W,A*09,1594022918187
NMEA,$GPGGA,080839.00,2255.521950,N,12017.676830,E,1,00,1.5,29.2,M,17.5,M,,*5B,1594022918188
Raw,2047381,2051093000000,,,-1278056086671063552,0.0,4276.706371456385,1.61796922118567,8.94464831737357,87,5,0.0,207,40119694231591,13,31.0,-523.736328125,0.24480001628398895,0,0.0,0.0,,,,,0,,3,,
Raw,2047382,2051093000000,,,-1278056086671063552,0.0,4276.706371456385,1.61796922118567,8.94464831737357,87,4,0.0,207,40119699859340,24,25.9,165.98350524902344,0.40790000557899475,0,0.0,0.0,,,,,0,,3,,
Raw,2047382,2051093000000,,,-1278056086671063552,0.0,4276.706371456385,1.61796922118567,8.94464831737357,87,5,0.0,15,115737694315345,6,39.5,-68.94601440429688,0.031300000846385956,0,0.0,0.0,,,,,0,,1,,
Raw,2047383,2051093000000,,,-1278056086671063552,0.0,4276.706371456385,1.61796922118567,8.94464831737357,87,12,0.0,15,115737686377316,4,43.7,226.33108520507812,0.01590000092983246,0,0.0,0.0,,,,,0,,1,,
Raw,2047383,2051093000000,,,-1278056086671063552,0.0,4276.706371456385,1.61796922118567,8.94464831737357,87,13,0.0,15,115737687479048,12,32.4,-658.9774780273438,0.03189999982714653,0,0.0,0.0,,,,,0,,1,,
Raw,2047383,2051093000000,,,-1278056086671063552,0.0,4276.706371456385,1.61796922118567,8.94464831737357,87,19,0.0,15,115737691696944,21,26.6,517.543701171875,0.11419999599456787,0,0.0,0.0,,,,,0,,1,,
Raw,2047383,2051093000000,,,-1278056086671063552,0.0,4276.706371456385,1.61796922118567,8.94464831737357,87,25,0.0,15,115737681996982,24,25.9,8.111421585083008,0.21090000867843628,0,0.0,0.0,,,,,0,,1,,
Fix,gps,22.925366,120.294614,46.688965,0.000000,6.432000,1594022920000
NMEA,$GPGSV,3,1,12,05,54,289,40,12,23,264,44,13,27,184,32,19,45,144,27*7F,1594022919186
NMEA,$GPGSV,3,2,12,25,10,292,26,02,51,355,,06,43,057,,09,19,043,*70,1594022919186
NMEA,$GPGSV,3,3,12,15,04,208,,17,26,146,,29,01,323,,30,07,122,*7C,1594022919186
NMEA,$GLGSV,2,1,07,69,39,219,31,68,77,336,26,82,52,090,,84,02,324,*6F,1594022919187
NMEA,$GLGSV,2,2,07,83,48,001,,81,11,126,,67,27,025,*5B,1594022919187
NMEA,$GAGSV,1,1,0,*74,1594022919188
NMEA,$PQGSV,1,1,03,193,70,060,,194,11,161,,195,71,135,,0,5*65,1594022919188
NMEA,$PQGSV,1,1,0,*73,1594022919190
NMEA,$GNGSA,A,3,05,12,13,19,25,,,,,,,,1.8,1.5,0.9,1*3E,1594022919191
NMEA,$GNGSA,A,2,68,69,,,,,,,,,,,1.8,1.5,0.9,2*36,1594022919191
NMEA,$GNVTG,,T,,M,0.0,N,0.0,K,A*3D,1594022919192
NMEA,$GNRMC,080840.00,A,2255.521948,N,12017.676830,E,0.0,,060720,2.8,W,A*10,1594022919193
NMEA,$GNGGA,080840.00,2255.521948,N,12017.676830,E,1,07,1.5,29.2,M,17.5,M,,*45,1594022919193
NMEA,$GPGSV,4,1,13,05,54,289,40,12,23,264,44,13,27,184,32,19,45,144,27*79,1594022920193
Raw,2048388,2052108000000,,,-1278056086670136064,0.0,4294.041078537703,3.7442313288115137,9.706213635658825,88,5,0.0,207,40120708306109,14,30.0,-523.0927124023438,0.23880000412464142,0,0.0,0.0,,,,,0,,3,,
Raw,2048389,2052108000000,,,-1278056086670136064,0.0,4294.041078537703,3.7442313288115137,9.706213635658825,88,4,0.0,207,40120713931497,24,25.7,166.47772216796875,0.39890000224113464,0,0.0,0.0,,,,,0,,3,,
Raw,2048390,2052108000000,,,-1278056086670136064,0.0,4294.041078537703,3.7442313288115137,9.706213635658825,88,5,0.0,15,115738708388347,6,39.7,-68.33483123779297,0.022300001233816147,0,0.0,0.0,,,,,0,,1,,
Raw,2048390,2052108000000,,,-1278056086670136064,0.0,4294.041078537703,3.7442313288115137,9.706213635658825,88,12,0.0,15,115738700449317,4,43.6,227.08450317382812,0.036900002509355545,0,0.0,0.0,,,,,0,,1,,
Raw,2048391,2052108000000,,,-1278056086670136064,0.0,4294.041078537703,3.7442313288115137,9.706213635658825,88,13,0.0,15,115738701554049,12,32.3,-658.2638549804688,0.05290000140666962,0,0.0,0.0,,,,,0,,1,,
Raw,2048391,2052108000000,,,-1278056086670136064,0.0,4294.041078537703,3.7442313288115137,9.706213635658825,88,19,0.0,15,115738705767983,19,27.4,518.1530151367188,0.07110000401735306,0,0.0,0.0,,,,,0,,1,,
Raw,2048392,2052108000000,,,-1278056086670136064,0.0,4294.041078537703,3.7442313288115137,9.706213635658825,88,25,0.0,15,115738696069740,24,25.6,8.906022071838379,0.20340000092983246,0,0.0,0.0,,,,,0,,1,,
Fix,gps,22.925366,120.294614,46.690491,0.000000,6.432000,1594022921000
NMEA,$GPGSV,4,2,13,25,10,292,26,02,51,355,,06,43,057,,07,03,092,*7F,1594022920198
NMEA,$GPGSV,4,3,13,09,19,043,,15,04,208,,17,26,146,,29,01,323,*79,1594022920202
NMEA,$GPGSV,4,4,13,30,07,122,*4E,1594022920207
NMEA,$GLGSV,2,1,07,69,39,219,30,68,77,336,26,82,52,090,,84,02,324,*6E,1594022920207
NMEA,$GLGSV,2,2,07,83,48,001,,81,11,126,,67,27,025,*5B,1594022920212
NMEA,$GAGSV,1,1,0,*74,1594022920214
NMEA,$PQGSV,1,1,03,193,70,060,,194,11,161,,195,71,135,,0,5*65,1594022920215
NMEA,$PQGSV,1,1,0,*73,1594022920216
NMEA,$GNGSA,A,3,05,12,13,19,25,,,,,,,,1.8,1.5,0.9,1*3E,1594022920218
NMEA,$GNGSA,A,2,68,69,,,,,,,,,,,1.8,1.5,0.9,2*36,1594022920219
NMEA,$GNVTG,,T,,M,0.0,N,0.0,K,A*3D,1594022920219
NMEA,$GNRMC,080841.00,A,2255.521947,N,12017.676831,E,0.0,,060720,2.8,W,A*1F,1594022920220
NMEA,$GNGGA,080841.00,2255.521947,N,12017.676831,E,1,07,1.5,29.2,M,17.5,M,,*4A,1594022920220
Raw,2049378,2053102000000,,,-1278056086669485056,0.0,4281.766712665558,5.787905723729623,9.318136679581217,89,5,0.0,207,40121701656706,14,30.9,-522.2046508789062,0.2583000063896179,0,0.0,0.0,,,,,0,,3,,
Raw,2049379,2053102000000,,,-1278056086669485056,0.0,4281.766712665558,5.787905723729623,9.318136679581217,89,4,0.0,207,40121707279858,21,26.9,167.5035858154297,0.30820000171661377,0,0.0,0.0,,,,,0,,3,,
Raw,2049379,2053102000000,,,-1278056086669485056,0.0,4281.766712665558,5.787905723729623,9.318136679581217,89,5,0.0,15,115739701737471,5,40.8,-67.53943634033203,0.040699999779462814,0,0.0,0.0,,,,,0,,1,,
Raw,2049379,2053102000000,,,-1278056086669485056,0.0,4281.766712665558,5.787905723729623,9.318136679581217,89,12,0.0,15,115739693797464,4,44.5,227.81427001953125,0.025800000876188278,0,0.0,0.0,,,,,0,,1,,
Raw,2049380,2053102000000,,,-1278056086669485056,0.0,4281.766712665558,5.787905723729623,9.318136679581217,89,13,0.0,15,115739694905134,12,32.5,-657.6077880859375,0.04240000247955322,0,0.0,0.0,,,,,0,,1,,
Raw,2049380,2053102000000,,,-1278056086669485056,0.0,4281.766712665558,5.787905723729623,9.318136679581217,89,19,0.0,15,115739699115178,19,27.5,519.0175170898438,0.09210000187158585,0,0.0,0.0,,,,,0,,1,,
Raw,2049380,2053102000000,,,-1278056086669485056,0.0,4281.766712665558,5.787905723729623,9.318136679581217,89,25,0.0,15,115739689418608,21,26.8,9.393326759338379,0.1111999973654747,0,0.0,0.0,,,,,0,,1,,
Fix,gps,22.925366,120.294614,46.687744,0.000000,6.432000,1594022922000
NMEA,$GPGSV,4,1,13,05,54,289,41,12,23,264,45,13,27,184,33,19,45,144,28*77,1594022921191
NMEA,$GPGSV,4,2,13,25,10,292,27,02,51,355,,06,43,057,,07,03,092,*7E,1594022921192
NMEA,$GPGSV,4,3,13,09,19,043,,15,04,208,,17,26,146,,29,01,323,*79,1594022921192
NMEA,$GPGSV,4,4,13,30,07,122,*4E,1594022921192
NMEA,$GLGSV,2,1,07,69,39,219,31,68,77,336,27,82,52,090,,84,02,324,*6E,1594022921193
NMEA,$GLGSV,2,2,07,83,48,001,,81,11,126,,67,27,025,*5B,1594022921193
NMEA,$GAGSV,1,1,0,*74,1594022921193
NMEA,$PQGSV,1,1,03,193,70,060,,194,11,161,,195,71,135,,0,5*65,1594022921193
NMEA,$PQGSV,1,1,0,*73,1594022921193
NMEA,$GNGSA,A,3,05,12,13,19,25,,,,,,,,1.8,1.5,0.9,1*3E,1594022921195
NMEA,$GNGSA,A,2,68,69,,,,,,,,,,,1.8,1.5,0.9,2*36,1594022921195
NMEA,$GNVTG,,T,,M,0.0,N,0.0,K,A*3D,1594022921195
NMEA,$GNRMC,080842.00,A,2255.521946,N,12017.676833,E,0.0,,060720,2.8,W,A*1F,1594022921195
NMEA,$GNGGA,080842.00,2255.521946,N,12017.676833,E,1,07,1.5,29.2,M,17.5,M,,*4A,1594022921195
NMEA,$GPGSV,4,1,13,05,54,289,40,12,23,264,44,13,27,184,32,19,45,144,28*76,1594022922187
Raw,2050357,2054091000000,,,-1278056086669231360,0.0,4271.085374057293,8.426171886204612,11.425207119780662,90,5,0.0,207,40122690404745,14,30.9,-522.0042724609375,0.241799995303154,0,0.0,0.0,,,,,0,,3,,
Raw,2050357,2054091000000,,,-1278056086669231360,0.0,4271.085374057293,8.426171886204612,11.425207119780662,90,4,0.0,207,40122696025749,27,24.1,167.34970092773438,0.8255000114440918,0,0.0,0.0,,,,,0,,3,,
Raw,2050358,2054091000000,,,-1278056086669231360,0.0,4271.085374057293,8.426171886204612,11.425207119780662,90,5,0.0,15,115740690483990,5,40.4,-67.34352111816406,0.02419999986886978,0,0.0,0.0,,,,,0,,1,,
Raw,2050359,2054091000000,,,-1278056086669231360,0.0,4271.085374057293,8.426171886204612,11.425207119780662,90,12,0.0,15,115740682543008,4,43.9,227.96875,0.00989999994635582,0,0.0,0.0,,,,,0,,1,,
Raw,2050359,2054091000000,,,-1278056086669231360,0.0,4271.085374057293,8.426171886204612,11.425207119780662,90,13,0.0,15,115740683653618,12,32.0,-657.484619140625,0.02590000070631504,0,0.0,0.0,,,,,0,,1,,
Raw,2050359,2054091000000,,,-1278056086669231360,0.0,4271.085374057293,8.426171886204612,11.425207119780662,90,19,0.0,15,115740687859744,19,27.9,519.2069091796875,0.07410000264644623,0,0.0,0.0,,,,,0,,1,,
Raw,2050360,2054091000000,,,-1278056086669231360,0.0,4271.085374057293,8.426171886204612,11.425207119780662,90,25,0.0,15,115740678164807,21,26.9,9.826471328735352,0.12469999492168427,0,0.0,0.0,,,,,0,,1,,
Fix,gps,22.925366,120.294614,46.683655,0.000000,5.360000,1594022923000
NMEA,$GPGSV,4,2,13,25,10,292,27,02,51,355,,06,43,057,,07,03,092,*7E,1594022922188
NMEA,$GPGSV,4,3,13,09,19,043,,15,04,208,,17,26,146,,29,01,323,*79,1594022922189
NMEA,$GPGSV,4,4,13,30,07,122,*4E,1594022922189
NMEA,$GLGSV,2,1,07,69,39,219,31,68,77,336,24,82,52,090,,84,02,324,*6D,1594022922190
NMEA,$GLGSV,2,2,07,83,48,001,,81,11,126,,67,27,025,*5B,1594022922191
NMEA,$GAGSV,1,1,0,*74,1594022922192
NMEA,$PQGSV,1,1,03,193,70,060,,194,11,161,,195,71,135,,0,5*65,1594022922193
NMEA,$PQGSV,1,1,0,*73,1594022922194
NMEA,$GNGSA,A,3,05,12,13,19,25,,,,,,,,1.8,1.5,0.9,1*3E,1594022922195
NMEA,$GNGSA,A,2,68,69,,,,,,,,,,,1.8,1.5,0.9,2*36,1594022922196
NMEA,$GNVTG,,T,,M,0.0,N,0.0,K,A*3D,1594022922197
NMEA,$GNRMC,080843.00,A,2255.521945,N,12017.676836,E,0.0,,060720,2.8,W,A*18,1594022922197
NMEA,$GNGGA,080843.00,2255.521945,N,12017.676836,E,1,07,1.5,29.2,M,17.5,M,,*4D,1594022922197
Raw,2051476,2055004000000,,,-1278056086668919296,0.0,4256.322048604488,8.602257741150279,8.022536096150123,91,5,0.0,207,40123603094561,13,31.8,-521.2617797851562,0.2896000146865845,0,0.0,0.0,,,,,0,,3,,
Raw,2051477,2055004000000,,,-1278056086668919296,0.0,4256.322048604488,8.602257741150279,8.022536096150123,91,4,0.0,207,40123608713237,21,26.4,168.53013610839844,0.4627000093460083,0,0.0,0.0,,,,,0,,3,,
Raw,2051477,2055004000000,,,-1278056086668919296,0.0,4256.322048604488,8.602257741150279,8.022536096150123,91,5,0.0,15,115741603172300,5,40.8,-66.62249755859375,0.0544000007212162,0,0.0,0.0,,,,,0,,1,,
Raw,2051477,2055004000000,,,-1278056086668919296,0.0,4256.322048604488,8.602257741150279,8.022536096150123,91,12,0.0,15,115741595230408,4,43.8,228.69898986816406,0.036900002509355545,0,0.0,0.0,,,,,0,,1,,
Raw,2051478,2055004000000,,,-1278056086668919296,0.0,4256.322048604488,8.602257741150279,8.022536096150123,91,13,0.0,15,115741596343738,12,32.0,-656.745849609375,0.07249999791383743,0,0.0,0.0,,,,,0,,1,,
Raw,2051478,2055004000000,,,-1278056086668919296,0.0,4256.322048604488,8.602257741150279,8.022536096150123,91,19,0.0,15,115741600546261,17,28.5,519.8126831054688,0.1273999959230423,0,0.0,0.0,,,,,0,,1,,
Raw,2051478,2055004000000,,,-1278056086668919296,0.0,4256.322048604488,8.602257741150279,8.022536096150123,91,25,0.0,15,115741590852891,17,28.8,10.517786026000977,0.11240000277757645,0,0.0,0.0,,,,,0,,1,,
Fix,gps,22.925366,120.294614,46.682129,0.000000,6.432000,1594022924000
NMEA,$GPGSV,4,1,13,05,54,289,41,12,23,264,44,13,27,184,32,19,45,144,29*76,1594022923187
NMEA,$GPGSV,4,2,13,25,10,292,29,02,51,355,,06,43,057,,07,03,092,*70,1594022923188
NMEA,$GPGSV,4,3,13,09,19,043,,15,04,208,,17,26,146,,29,01,323,*79,1594022923188
NMEA,$GPGSV,4,4,13,30,07,122,*4E,1594022923189
NMEA,$GLGSV,2,1,07,69,39,219,32,68,77,336,26,82,52,090,,84,02,324,*6C,1594022923189
NMEA,$GLGSV,2,2,07,83,48,001,,81,11,126,,67,27,025,*5B,1594022923190
NMEA,$GAGSV,1,1,0,*74,1594022923190
NMEA,$PQGSV,1,1,03,193,70,060,,194,11,161,,195,71,135,,0,5*65,1594022923191
NMEA,$PQGSV,1,1,0,*73,1594022923191
NMEA,$GNGSA,A,3,05,12,13,19,25,,,,,,,,1.8,1.5,0.9,1*3E,1594022923192
NMEA,$GNGSA,A,2,68,69,,,,,,,,,,,1.8,1.5,0.9,2*36,1594022923193
NMEA,$GNVTG,,T,,M,0.0,N,0.0,K,A*3D,1594022923193
NMEA,$GNRMC,080844.00,A,2255.521941,N,12017.676841,E,0.0,,060720,2.8,W,A*1B,1594022923193
NMEA,$GNGGA,080844.00,2255.521941,N,12017.676841,E,1,07,1.5,29.2,M,17.5,M,,*4E,1594022923193
Fix,gps,22.925366,120.294614,46.682068,0.000000,6.432000,1594022925000
NMEA,$GPGSA,A,1,,,,,,,,,,,,,1.8,1.5,0.9,1*29,1594022924186
NMEA,$GPVTG,,T,,M,0.0,N,0.0,K,A*23,1594022924186
NMEA,$GPRMC,080845.00,A,2255.521938,N,12017.676844,E,0.0,,060720,2.8,W,A*0F,1594022924186
NMEA,$GPGGA,080845.00,2255.521938,N,12017.676844,E,1,00,1.5,29.2,M,17.5,M,,*5D,1594022924187
Fix,gps,22.925366,120.294614,46.680664,0.000000,6.432000,1594022926000
Raw,2053364,2057111000000,,,-1278056086667242240,0.0,4283.331800252199,3.4142928300260174,8.29259368184493,92,5,0.0,207,40125708421214,14,30.3,-524.5049438476562,0.23880000412464142,0,0.0,0.0,,,,,0,,3,,
Raw,2053365,2057111000000,,,-1278056086667242240,0.0,4283.331800252199,3.4142928300260174,8.29259368184493,92,4,0.0,207,40125714035079,31,23.2,165.28619384765625,0.872499942779541,0,0.0,0.0,,,,,0,,3,,
Raw,2053365,2057111000000,,,-1278056086667242240,0.0,4283.331800252199,3.4142928300260174,8.29259368184493,92,5,0.0,15,115743708495825,5,40.8,-69.95884704589844,0.02120000123977661,0,0.0,0.0,,,,,0,,1,,
Raw,2053365,2057111000000,,,-1278056086667242240,0.0,4283.331800252199,3.4142928300260174,8.29259368184493,92,12,0.0,15,115743700551879,4,43.8,225.46994018554688,0.036900002509355545,0,0.0,0.0,,,,,0,,1,,
Raw,2053365,2057111000000,,,-1278056086667242240,0.0,4283.331800252199,3.4142928300260174,8.29259368184493,92,13,0.0,15,115743701671398,13,31.8,-660.1275024414062,0.05530000105500221,0,0.0,0.0,,,,,0,,1,,
Raw,2053366,2057111000000,,,-1278056086667242240,0.0,4283.331800252199,3.4142928300260174,8.29259368184493,92,19,0.0,15,115743705865689,19,27.8,516.5489501953125,0.07110000401735306,0,0.0,0.0,,,,,0,,1,,
Raw,2053366,2057111000000,,,-1278056086667242240,0.0,4283.331800252199,3.4142928300260174,8.29259368184493,92,25,0.0,15,115743696175864,21,26.7,7.328129768371582,0.1216999962925911,0,0.0,0.0,,,,,0,,1,,
NMEA,$GPGSV,4,1,13,05,54,289,41,12,23,264,44,13,27,184,32,19,45,144,28*77,1594022925191
NMEA,$GPGSV,4,2,13,25,10,292,27,02,51,355,,06,43,057,,07,03,092,*7E,1594022925192
NMEA,$GPGSV,4,3,13,09,19,043,,15,04,208,,17,26,146,,29,01,323,*79,1594022925193
NMEA,$GPGSV,4,4,13,30,07,122,*4E,1594022925194
NMEA,$GLGSV,2,1,07,69,39,219,30,68,77,336,23,82,52,090,,84,02,324,*6B,1594022925195
NMEA,$GLGSV,2,2,07,83,48,001,,81,11,126,,67,27,025,*5B,1594022925196
NMEA,$GAGSV,1,1,0,*74,1594022925196
NMEA,$PQGSV,1,1,03,193,70,060,,194,11,161,,195,71,135,,0,5*65,1594022925197
NMEA,$PQGSV,1,1,0,*73,1594022925197
NMEA,$GNGSA,A,3,05,12,13,19,25,,,,,,,,1.8,1.5,0.9,1*3E,1594022925200
NMEA,$GNGSA,A,2,68,69,,,,,,,,,,,1.8,1.5,0.9,2*36,1594022925201
NMEA,$GNVTG,,T,,M,0.0,N,0.0,K,A*3D,1594022925201
NMEA,$GNRMC,080846.00,A,2255.521935,N,12017.676847,E,0.0,,060720,2.8,W,A*1C,1594022925202
NMEA,$GNGGA,080846.00,2255.521935,N,12017.676847,E,1,07,1.5,29.2,M,17.5,M,,*49,1594022925203
Raw,2054377,2058104000000,,,-1278056086666692352,0.0,4303.088877350092,-1.4089510709387272,10.230593421183253,93,5,0.0,207,40126700872630,14,30.4,-521.9816284179688,0.25679999589920044,0,0.0,0.0,,,,,0,,3,,
Raw,2054378,2058104000000,,,-1278056086666692352,0.0,4303.088877350092,-1.4089510709387272,10.230593421183253,93,4,0.0,207,40126706484233,35,22.2,168.48883056640625,0.9204999804496765,0,0.0,0.0,,,,,0,,3,,
Raw,2054378,2058104000000,,,-1278056086666692352,0.0,4303.088877350092,-1.4089510709387272,10.230593421183253,93,5,0.0,15,115744700945766,5,40.5,-67.52729797363281,0.03920000046491623,0,0.0,0.0,,,,,0,,1,,
Raw,2054379,2058104000000,,,-1278056086666692352,0.0,4303.088877350092,-1.4089510709387272,10.230593421183253,93,6,0.0,15,115744697666419,46,20.7,98.5340576171875,0.8569999933242798,0,0.0,0.0,,,,,0,,1,,
Raw,2054379,2058104000000,,,-1278056086666692352,0.0,4303.088877350092,-1.4089510709387272,10.230593421183253,93,12,0.0,15,115744693000853,4,43.7,227.88226318359375,0.026400001719594002,0,0.0,0.0,,,,,0,,1,,
Raw,2054379,2058104000000,,,-1278056086666692352,0.0,4303.088877350092,-1.4089510709387272,10.230593421183253,93,13,0.0,15,115744694123305,12,32.2,-657.8197021484375,0.04240000247955322,0,0.0,0.0,,,,,0,,1,,
Raw,2054380,2058104000000,,,-1278056086666692352,0.0,4303.088877350092,-1.4089510709387272,10.230593421183253,93,19,0.0,15,115744698313658,17,28.3,519.0936279296875,0.06780000030994415,0,0.0,0.0,,,,,0,,1,,
Raw,2054380,2058104000000,,,-1278056086666692352,0.0,4303.088877350092,-1.4089510709387272,10.230593421183253,93,25,0.0,15,115744688625576,17,28.4,9.69570255279541,0.052799999713897705,0,0.0,0.0,,,,,0,,1,,
Fix,gps,22.925366,120.294614,46.677612,0.000000,6.432000,1594022927000
NMEA,$GPGSV,3,1,12,05,54,289,41,06,43,057,21,12,23,264,44,13,27,184,32*73,1594022926188
NMEA,$GPGSV,3,2,12,19,45,144,28,25,10,292,28,02,51,355,,07,03,092,*76,1594022926189
NMEA,$GPGSV,3,3,12,09,19,043,,17,26,146,,29,01,323,,30,07,122,*70,1594022926190
NMEA,$GLGSV,2,1,07,69,39,219,30,68,77,336,22,82,52,090,,84,02,324,*6A,1594022926190
NMEA,$GLGSV,2,2,07,83,48,001,,81,11,126,,67,27,025,*5B,1594022926190
NMEA,$GAGSV,1,1,0,*74,1594022926190
NMEA,$PQGSV,1,1,03,193,70,060,,194,11,161,,195,71,135,,0,5*65,1594022926190
NMEA,$PQGSV,1,1,0,*73,1594022926190
NMEA,$GNGSA,A,3,05,12,13,19,25,,,,,,,,1.8,1.5,0.9,1*3E,1594022926191
NMEA,$GNGSA,A,2,68,69,,,,,,,,,,,1.8,1.5,0.9,2*36,1594022926191
NMEA,$GNVTG,,T,,M,0.0,N,0.0,K,A*3D,1594022926192
NMEA,$GNRMC,080847.00,A,2255.521932,N,12017.676851,E,0.0,,060720,2.8,W,A*1D,1594022926192
NMEA,$GNGGA,080847.00,2255.521932,N,12017.676851,E,1,07,1.5,29.2,M,17.5,M,,*48,1594022926192
Raw,2055547,2059096000000,,,-1278056086665999360,0.0,4289.204254746437,6.594543466653997,12.448129673949486,94,5,0.0,207,40127692181669,14,30.9,-522.6071166992188,0.24480000138282776,0,0.0,0.0,,,,,0,,3,,
Raw,2055548,2059096000000,,,-1278056086665999360,0.0,4289.204254746437,6.594543466653997,12.448129673949486,94,4,0.0,207,40127697791248,31,23.7,167.16294860839844,0.8769999742507935,0,0.0,0.0,,,,,0,,3,,
Raw,2055548,2059096000000,,,-1278056086665999360,0.0,4289.204254746437,6.594543466653997,12.448129673949486,94,5,0.0,15,115745692253349,5,40.7,-68.17830657958984,0.0272000003606081,0,0.0,0.0,,,,,0,,1,,
Raw,2055549,2059096000000,,,-1278056086665999360,0.0,4289.204254746437,6.594543466653997,12.448129673949486,94,6,0.0,15,115745688973503,40,21.2,96.69772338867188,0.8434999585151672,0,0.0,0.0,,,,,0,,1,,
Raw,2055549,2059096000000,,,-1278056086665999360,0.0,4289.204254746437,6.594543466653997,12.448129673949486,94,12,0.0,15,115745684307456,4,43.9,227.2679443359375,0.042900003492832184,0,0.0,0.0,,,,,0,,1,,
Raw,2055549,2059096000000,,,-1278056086665999360,0.0,4289.204254746437,6.594543466653997,12.448129673949486,94,13,0.0,15,115745685432832,12,32.0,-658.510498046875,0.02889999933540821,0,0.0,0.0,,,,,0,,1,,
Raw,2055549,2059096000000,,,-1278056086665999360,0.0,4289.204254746437,6.594543466653997,12.448129673949486,94,19,0.0,15,115745689619353,17,28.2,518.394287109375,0.05429999902844429,0,0.0,0.0,,,,,0,,1,,
Raw,2055550,2059096000000,,,-1278056086665999360,0.0,4289.204254746437,6.594543466653997,12.448129673949486,94,25,0.0,15,115745679932929,19,27.6,9.131668090820312,0.09210000187158585,0,0.0,0.0,,,,,0,,1,,
Fix,gps,22.925365,120.294614,46.666504,0.000000,6.432000,1594022928000
NMEA,$GPGSV,3,1,12,05,54,289,41,06,43,057,21,12,23,264,44,13,27,184,32*73,1594022927191
NMEA,$GPGSV,3,2,12,19,45,144,28,25,10,292,28,02,51,355,,07,03,092,*76,1594022927192
NMEA,$GPGSV,3,3,12,09,19,043,,15,04,208,,29,01,323,,30,07,122,*7B,1594022927192
NMEA,$GLGSV,2,1,07,69,39,219,31,68,77,336,24,82,52,090,,84,02,324,*6D,1594022927193
NMEA,$GLGSV,2,2,07,83,48,001,,81,11,126,,67,27,025,*5B,1594022927194
NMEA,$GAGSV,1,1,0,*74,1594022927195
NMEA,$PQGSV,1,1,03,193,70,060,,194,11,161,,195,71,135,,0,5*65,1594022927195
NMEA,$PQGSV,1,1,0,*73,1594022927196
NMEA,$GNGSA,A,3,05,12,13,19,25,,,,,,,,1.8,1.5,0.9,1*3E,1594022927201
NMEA,$GNGSA,A,2,68,69,,,,,,,,,,,1.8,1.5,0.9,2*36,1594022927201
NMEA,$GNVTG,,T,,M,0.0,N,0.0,K,A*3D,1594022927203
NMEA,$GNRMC,080848.00,A,2255.521929,N,12017.676857,E,0.0,,060720,2.8,W,A*1E,1594022927205
NMEA,$GNGGA,080848.00,2255.521929,N,12017.676857,E,1,07,1.5,29.2,M,17.5,M,,*4B,1594022927207
NMEA,$GPGSV,4,1,13,05,54,289,41,06,43,057,23,12,23,264,44,13,27,184,32*77,1594022928194
Raw,2056386,2060108000000,,,-1278056086665017088,0.0,4276.463761925697,4.613335833767274,10.107498581650972,95,5,0.0,207,40128703201015,13,31.7,-523.5525512695312,0.2583000063896179,0,0.0,0.0,,,,,0,,3,,
Raw,2056387,2060108000000,,,-1278056086665017088,0.0,4276.463761925697,4.613335833767274,10.107498581650972,95,4,0.0,207,40128708807942,31,23.7,166.51869201660156,0.8634999394416809,0,0.0,0.0,,,,,0,,3,,
Raw,2056387,2060108000000,,,-1278056086665017088,0.0,4276.463761925697,4.613335833767274,10.107498581650972,95,5,0.0,15,115746703271095,5,41.4,-69.14942932128906,0.04260000213980675,0,0.0,0.0,,,,,0,,1,,
Raw,2056387,2060108000000,,,-1278056086665017088,0.0,4276.463761925697,4.613335833767274,10.107498581650972,95,6,0.0,15,115746699990618,31,23.4,96.43132019042969,0.7400000095367432,0,0.0,0.0,,,,,0,,1,,
Raw,2056388,2060108000000,,,-1278056086665017088,0.0,4276.463761925697,4.613335833767274,10.107498581650972,95,12,0.0,15,115746695324210,4,43.8,226.28314208984375,0.02940000221133232,0,0.0,0.0,,,,,0,,1,,
Raw,2056388,2060108000000,,,-1278056086665017088,0.0,4276.463761925697,4.613335833767274,10.107498581650972,95,13,0.0,15,115746696452571,12,32.0,-659.5009765625,0.04540000110864639,0,0.0,0.0,,,,,0,,1,,
Raw,2056388,2060108000000,,,-1278056086665017088,0.0,4276.463761925697,4.613335833767274,10.107498581650972,95,19,0.0,15,115746700635115,17,28.5,517.4407958984375,0.07079999893903732,0,0.0,0.0,,,,,0,,1,,
Raw,2056389,2060108000000,,,-1278056086665017088,0.0,4276.463761925697,4.613335833767274,10.107498581650972,95,25,0.0,15,115746690950421,16,29.1,8.199394226074219,0.04470000043511391,0,0.0,0.0,,,,,0,,1,,
Fix,gps,22.925365,120.294614,46.663147,0.000000,6.432000,1594022929000
NMEA,$GPGSV,4,2,13,19,45,144,29,25,10,292,29,02,51,355,,07,03,092,*70,1594022928195
NMEA,$GPGSV,4,3,13,09,19,043,,15,04,208,,17,26,146,,29,01,323,*79,1594022928196
NMEA,$GPGSV,4,4,13,30,07,122,*4E,1594022928196
NMEA,$GLGSV,2,1,07,69,39,219,32,68,77,336,24,82,52,090,,84,02,324,*6E,1594022928197
NMEA,$GLGSV,2,2,07,83,48,001,,81,11,126,,67,27,025,*5B,1594022928198
NMEA,$GAGSV,1,1,0,*74,1594022928198
NMEA,$PQGSV,1,1,03,193,70,060,,194,11,161,,195,71,135,,0,5*65,1594022928199
NMEA,$PQGSV,1,1,0,*73,1594022928215
NMEA,$GNGSA,A,3,05,12,13,19,25,,,,,,,,1.8,1.5,0.9,1*3E,1594022928226
NMEA,$GNGSA,A,2,68,69,,,,,,,,,,,1.8,1.5,0.9,2*36,1594022928226
NMEA,$GNVTG,,T,,M,0.0,N,0.0,K,A*3D,1594022928226
NMEA,$GNRMC,080849.00,A,2255.521926,N,12017.676862,E,0.0,,060720,2.8,W,A*16,1594022928227
NMEA,$GNGGA,080849.00,2255.521926,N,12017.676862,E,1,07,1.5,29.2,M,17.5,M,,*43,1594022928227
Fix,gps,22.925365,120.294614,46.659363,0.000000,5.360000,1594022930000
Raw,2057387,2061102000000,,,-1278056086664627712,0.0,4265.691619366407,1.3043901038751111,10.461595661459402,96,5,0.0,207,40129696813487,12,32.0,-522.9361572265625,0.24539999663829803,0,0.0,0.0,,,,,0,,3,,
Raw,2057388,2061102000000,,,-1278056086664627712,0.0,4265.691619366407,1.3043901038751111,10.461595661459402,96,4,0.0,207,40129702418217,31,23.6,166.74278259277344,0.8844999670982361,0,0.0,0.0,,,,,0,,3,,
Raw,2057388,2061102000000,,,-1278056086664627712,0.0,4265.691619366407,1.3043901038751111,10.461595661459402,96,5,0.0,15,115747696882117,5,40.7,-68.5901870727539,0.03319999948143959,0,0.0,0.0,,,,,0,,1,,
Raw,2057388,2061102000000,,,-1278056086664627712,0.0,4265.691619366407,1.3043901038751111,10.461595661459402,96,6,0.0,15,115747693601150,35,22.3,96.8689956665039,0.7910000085830688,0,0.0,0.0,,,,,0,,1,,
Raw,2057388,2061102000000,,,-1278056086664627712,0.0,4265.691619366407,1.3043901038751111,10.461595661459402,96,12,0.0,15,115747688934244,4,43.4,226.82896423339844,0.018900001421570778,0,0.0,0.0,,,,,0,,1,,
Raw,2057388,2061102000000,,,-1278056086664627712,0.0,4265.691619366407,1.3043901038751111,10.461595661459402,96,13,0.0,15,115747690065542,12,32.0,-659.013671875,0.036400001496076584,0,0.0,0.0,,,,,0,,1,,
Raw,2057389,2061102000000,,,-1278056086664627712,0.0,4265.691619366407,1.3043901038751111,10.461595661459402,96,19,0.0,15,115747694244163,17,28.9,518.0823364257812,0.061799999326467514,0,0.0,0.0,,,,,0,,1,,
Raw,2057389,2061102000000,,,-1278056086664627712,0.0,4265.691619366407,1.3043901038751111,10.461595661459402,96,25,0.0,15,115747684561131,17,28.1,8.817686080932617,0.046799998730421066,0,0.0,0.0,,,,,0,,1,,
NMEA,$GPGSV,4,1,13,05,54,289,41,06,43,057,22,12,23,264,43,13,27,184,32*71,1594022929190
NMEA,$GPGSV,4,2,13,19,45,144,29,25,10,292,28,02,51,355,,07,03,092,*71,1594022929191
NMEA,$GPGSV,4,3,13,09,19,043,,15,04,208,,17,26,146,,29,01,323,*79,1594022929192
NMEA,$GPGSV,4,4,13,30,07,122,*4E,1594022929196
NMEA,$GLGSV,2,1,07,69,39,219,32,68,77,336,24,82,52,090,,84,02,324,*6E,1594022929196
NMEA,$GLGSV,2,2,07,83,48,001,,81,11,126,,67,27,025,*5B,1594022929197
NMEA,$GAGSV,1,1,0,*74,1594022929198
NMEA,$PQGSV,1,1,03,193,70,060,,194,11,161,,195,71,135,,0,5*65,1594022929199
NMEA,$PQGSV,1,1,0,*73,1594022929200
NMEA,$GNGSA,A,3,05,12,13,19,25,,,,,,,,1.8,1.5,0.9,1*3E,1594022929203
NMEA,$GNGSA,A,2,68,69,,,,,,,,,,,1.8,1.5,0.9,2*36,1594022929207
NMEA,$GNVTG,,T,,M,0.0,N,0.0,K,A*3D,1594022929215
NMEA,$GNRMC,080850.00,A,2255.521924,N,12017.676865,E,0.0,,060720,2.8,W,A*1B,1594022929215
NMEA,$GNGGA,080850.00,2255.521924,N,12017.676865,E,1,07,1.5,29.2,M,17.5,M,,*4E,1594022929216
Raw,2058503,2062114000000,,,-1278056086664393728,0.0,4253.356717526913,3.158165943833587,10.05356913728171,97,5,0.0,207,40130708581223,13,31.6,-523.3952026367188,0.23580001294612885,0,0.0,0.0,,,,,0,,3,,
Raw,2058504,2062114000000,,,-1278056086664393728,0.0,4253.356717526913,3.158165943833587,10.05356913728171,97,4,0.0,207,40130714183851,27,24.4,167.34036254882812,0.8224999904632568,0,0.0,0.0,,,,,0,,3,,
Raw,2058504,2062114000000,,,-1278056086664393728,0.0,4253.356717526913,3.158165943833587,10.05356913728171,97,5,0.0,15,115748708648346,5,40.9,-69.10076904296875,0.02120000123977661,0,0.0,0.0,,,,,0,,1,,
Raw,2058504,2062114000000,,,-1278056086664393728,0.0,4253.356717526913,3.158165943833587,10.05356913728171,97,6,0.0,15,115748705366908,35,22.4,96.4979248046875,0.7789999842643738,0,0.0,0.0,,,,,0,,1,,
Raw,2058504,2062114000000,,,-1278056086664393728,0.0,4253.356717526913,3.158165943833587,10.05356913728171,97,12,0.0,15,115748700699470,4,43.7,226.39732360839844,0.036900002509355545,0,0.0,0.0,,,,,0,,1,,
Raw,2058505,2062114000000,,,-1278056086664393728,0.0,4253.356717526913,3.158165943833587,10.05356913728171,97,13,0.0,15,115748701833761,13,31.7,-659.5120239257812,0.05530000105500221,0,0.0,0.0,,,,,0,,1,,
Raw,2058505,2062114000000,,,-1278056086664393728,0.0,4253.356717526913,3.158165943833587,10.05356913728171,97,19,0.0,15,115748706008421,16,29.3,517.55712890625,0.03869999945163727,0,0.0,0.0,,,,,0,,1,,
Raw,2058505,2062114000000,,,-1278056086664393728,0.0,4253.356717526913,3.158165943833587,10.05356913728171,97,25,0.0,15,115748696327102,16,29.0,8.325210571289062,0.053700000047683716,0,0.0,0.0,,,,,0,,1,,
Raw,2058505,2062114000000,,,-1278056086664393728,0.0,4253.356717526913,3.158165943833587,10.05356913728171,97,29,0.0,15,115748693196486,40,21.0,-680.8517456054688,0.8510000109672546,0,0.0,0.0,,,,,0,,1,,
Fix,gps,22.925365,120.294615,46.652039,0.000000,5.360000,1594022931000
NMEA,$GPGSV,4,1,13,05,54,289,41,06,43,057,22,12,23,264,44,13,27,184,32*76,1594022930195
NMEA,$GPGSV,4,2,13,19,45,144,29,25,10,292,29,29,01,323,21,02,51,355,*74,1594022930196
NMEA,$GPGSV,4,3,13,07,03,092,,09,19,043,,15,04,208,,17,26,146,*7E,1594022930211
NMEA,$GPGSV,4,4,13,30,07,122,*4E,1594022930212
NMEA,$GLGSV,2,1,07,69,39,219,32,68,77,336,24,82,52,090,,84,02,324,*6E,1594022930212
NMEA,$GLGSV,2,2,07,83,48,001,,81,11,126,,67,27,025,*5B,1594022930212
NMEA,$GAGSV,1,1,0,*74,1594022930213
NMEA,$PQGSV,1,1,03,193,70,060,,194,11,161,,195,71,135,,0,5*65,1594022930213
NMEA,$PQGSV,1,1,0,*73,1594022930213
NMEA,$GNGSA,A,3,05,12,13,19,25,,,,,,,,1.8,1.5,0.9,1*3E,1594022930214
NMEA,$GNGSA,A,2,68,69,,,,,,,,,,,1.8,1.5,0.9,2*36,1594022930215
NMEA,$GNVTG,,T,,M,0.0,N,0.0,K,A*3D,1594022930215
NMEA,$GNRMC,080851.00,A,2255.521923,N,12017.676870,E,0.0,,060720,2.8,W,A*19,1594022930215
NMEA,$GNGGA,080851.00,2255.521923,N,12017.676870,E,1,07,1.5,29.2,M,17.5,M,,*4C,1594022930216
Raw,2059384,2063106000000,,,-1278056086663880192,0.0,4239.941947162151,1.1981301231160668,8.966263994509719,98,5,0.0,207,40131700069418,12,32.1,-521.5498046875,0.2513999938964844,0,0.0,0.0,,,,,0,,3,,
Raw,2059385,2063106000000,,,-1278056086663880192,0.0,4239.941947162151,1.1981301231160668,8.966263994509719,98,4,0.0,207,40131705669639,24,25.2,168.55650329589844,0.38690000772476196,0,0.0,0.0,,,,,0,,3,,
Raw,2059385,2063106000000,,,-1278056086663880192,0.0,4239.941947162151,1.1981301231160668,8.966263994509719,98,5,0.0,15,115749700135026,5,40.8,-67.28456115722656,0.03920000046491623,0,0.0,0.0,,,,,0,,1,,
Raw,2059385,2063106000000,,,-1278056086663880192,0.0,4239.941947162151,1.1981301231160668,8.966263994509719,98,6,0.0,15,115749696852901,31,23.6,97.63968658447266,0.6754999756813049,0,0.0,0.0,,,,,0,,1,,
Raw,2059385,2063106000000,,,-1278056086663880192,0.0,4239.941947162151,1.1981301231160668,8.966263994509719,98,12,0.0,15,115749692185162,4,43.9,228.18304443359375,0.024900000542402267,0,0.0,0.0,,,,,0,,1,,
Raw,2059385,2063106000000,,,-1278056086663880192,0.0,4239.941947162151,1.1981301231160668,8.966263994509719,98,13,0.0,15,115749693322390,13,31.8,-657.786376953125,0.043299999088048935,0,0.0,0.0,,,,,0,,1,,
Raw,2059386,2063106000000,,,-1278056086663880192,0.0,4239.941947162151,1.1981301231160668,8.966263994509719,98,19,0.0,15,115749697493157,16,29.4,519.413330078125,0.0552000030875206,0,0.0,0.0,,,,,0,,1,,
Raw,2059386,2063106000000,,,-1278056086663880192,0.0,4239.941947162151,1.1981301231160668,8.966263994509719,98,25,0.0,15,115749687813570,16,29.1,10.096098899841309,0.04020000249147415,0,0.0,0.0,,,,,0,,1,,
Fix,gps,22.925365,120.294615,46.646484,0.000000,5.360000,1594022932000
NMEA,$GPGSV,3,1,12,05,54,289,41,06,43,057,24,12,23,264,44,13,27,184,32*76,1594022931191
NMEA,$GPGSV,3,2,12,19,45,144,29,25,10,292,29,02,51,355,,07,03,092,*76,1594022931193
NMEA,$GPGSV,3,3,12,09,19,043,,15,04,208,,17,26,146,,30,07,122,*72,1594022931194
NMEA,$GLGSV,2,1,07,69,39,219,32,68,77,336,25,82,52,090,,84,02,324,*6F,1594022931194
NMEA,$GLGSV,2,2,07,83,48,001,,81,11,126,,67,27,025,*5B,1594022931195
NMEA,$GAGSV,1,1,0,*74,1594022931198
NMEA,$PQGSV,1,1,03,193,70,060,,194,11,161,,195,71,135,,0,5*65,1594022931199
NMEA,$PQGSV,1,1,0,*73,1594022931200
NMEA,$GNGSA,A,3,05,12,13,19,25,,,,,,,,1.8,1.5,0.9,1*3E,1594022931203
NMEA,$GNGSA,A,2,68,69,,,,,,,,,,,1.8,1.5,0.9,2*36,1594022931204
NMEA,$GNVTG,,T,,M,0.0,N,0.0,K,A*3D,1594022931207
NMEA,$GNRMC,080852.00,A,2255.521921,N,12017.676874,E,0.0,,060720,2.8,W,A*1C,1594022931207
NMEA,$GNGGA,080852.00,2255.521921,N,12017.676874,E,1,07,1.5,29.2,M,17.5,M,,*49,1594022931208
Raw,2060395,2064095000000,,,-1278056086663784448,0.0,4231.720697134733,7.133436692204037,9.845856635965536,99,5,0.0,207,40132688975339,12,32.5,-521.5498657226562,0.23340000212192535,0,0.0,0.0,,,,,0,,3,,
Raw,2060396,2064095000000,,,-1278056086663784448,0.0,4231.720697134733,7.133436692204037,9.845856635965536,99,4,0.0,207,40132694573348,27,24.7,168.68490600585938,0.8224999904632568,0,0.0,0.0,,,,,0,,3,,
Raw,2060396,2064095000000,,,-1278056086663784448,0.0,4231.720697134733,7.133436692204037,9.845856635965536,99,5,0.0,15,115750689039443,5,40.8,-67.3467788696289,0.022700000554323196,0,0.0,0.0,,,,,0,,1,,
Raw,2060397,2064095000000,,,-1278056086663784448,0.0,4231.720697134733,7.133436692204037,9.845856635965536,99,6,0.0,15,115750685756706,35,22.5,98.49600982666016,0.718999981880188,0,0.0,0.0,,,,,0,,1,,
Raw,2060397,2064095000000,,,-1278056086663784448,0.0,4231.720697134733,7.133436692204037,9.845856635965536,99,12,0.0,15,115750681088603,4,43.7,228.18328857421875,0.03840000182390213,0,0.0,0.0,,,,,0,,1,,
Raw,2060397,2064095000000,,,-1278056086663784448,0.0,4231.720697134733,7.133436692204037,9.845856635965536,99,13,0.0,15,115750682228724,12,32.1,-657.8356323242188,0.0544000007212162,0,0.0,0.0,,,,,0,,1,,
Raw,2060398,2064095000000,,,-1278056086663784448,0.0,4231.720697134733,7.133436692204037,9.845856635965536,99,19,0.0,15,115750686395631,17,28.7,519.2974243164062,0.049799997359514236,0,0.0,0.0,,,,,0,,1,,
Raw,2060399,2064095000000,,,-1278056086663784448,0.0,4231.720697134733,7.133436692204037,9.845856635965536,99,25,0.0,15,115750676717678,16,29.3,10.136451721191406,0.053700000047683716,0,0.0,0.0,,,,,0,,1,,
Raw,2060399,2064095000000,,,-1278056086663784448,0.0,4231.720697134733,7.133436692204037,9.845856635965536,99,29,0.0,15,115750673591606,40,21.0,-677.8927001953125,0.8510000109672546,0,0.0,0.0,,,,,0,,1,,
Fix,gps,22.925365,120.294615,46.655579,0.000000,4.288000,1594022933000
NMEA,$GPGSV,4,1,13,05,54,289,41,06,43,057,23,12,23,264,44,13,27,184,32*77,1594022932193
NMEA,$GPGSV,4,2,13,19,45,144,29,25,10,292,29,29,01,323,21,02,51,355,*74,1594022932194
NMEA,$GPGSV,4,3,13,07,03,092,,09,19,043,,15,04,208,,17,26,146,*7E,1594022932195
NMEA,$GPGSV,4,4,13,30,07,122,*4E,1594022932199
NMEA,$GLGSV,2,1,07,69,39,219,33,68,77,336,25,82,52,090,,84,02,324,*6E,1594022932200
NMEA,$GLGSV,2,2,07,83,48,001,,81,11,126,,67,27,025,*5B,1594022932200
NMEA,$GAGSV,1,1,0,*74,1594022932201
NMEA,$PQGSV,1,1,03,193,70,060,,194,11,161,,195,71,135,,0,5*65,1594022932202
NMEA,$PQGSV,1,1,0,*73,1594022932202
NMEA,$GNGSA,A,3,05,12,13,19,25,,,,,,,,1.8,1.5,0.9,1*3E,1594022932224
NMEA,$GNGSA,A,2,68,69,,,,,,,,,,,1.8,1.5,0.9,2*36,1594022932225
NMEA,$GNVTG,,T,,M,0.0,N,0.0,K,A*3D,1594022932225
NMEA,$GNRMC,080853.00,A,2255.521920,N,12017.676876,E,0.0,,060720,2.8,W,A*1E,1594022932225
NMEA,$GNGGA,080853.00,2255.521920,N,12017.676876,E,1,07,1.5,29.2,M,17.5,M,,*4B,1594022932226
Raw,2061365,2065110000000,,,-1278056086663252992,0.0,4219.18136999011,6.729640255836763,11.489709000200254,100,5,0.0,207,40133703445952,12,32.1,-521.3053588867188,0.25589999556541443,0,0.0,0.0,,,,,0,,3,,
Raw,2061365,2065110000000,,,-1278056086663252992,0.0,4219.18136999011,6.729640255836763,11.489709000200254,100,4,0.0,207,40133709041394,35,22.9,168.50750732421875,0.9249999523162842,0,0.0,0.0,,,,,0,,3,,
Raw,2061366,2065110000000,,,-1278056086663252992,0.0,4219.18136999011,6.729640255836763,11.489709000200254,100,5,0.0,15,115751703508463,5,40.7,-67.13687896728516,0.04370000213384628,0,0.0,0.0,,,,,0,,1,,
Raw,2061366,2065110000000,,,-1278056086663252992,0.0,4219.18136999011,6.729640255836763,11.489709000200254,100,6,0.0,15,115751700225287,35,22.2,97.69677734375,0.8014999628067017,0,0.0,0.0,,,,,0,,1,,
Raw,2061367,2065110000000,,,-1278056086663252992,0.0,4219.18136999011,6.729640255836763,11.489709000200254,100,12,0.0,15,115751695556636,4,43.8,228.31809997558594,0.02940000221133232,0,0.0,0.0,,,,,0,,1,,
Raw,2061367,2065110000000,,,-1278056086663252992,0.0,4219.18136999011,6.729640255836763,11.489709000200254,100,13,0.0,15,115751696699770,12,32.0,-657.7421264648438,0.04540000110864639,0,0.0,0.0,,,,,0,,1,,
Raw,2061368,2065110000000,,,-1278056086663252992,0.0,4219.18136999011,6.729640255836763,11.489709000200254,100,19,0.0,15,115751700862663,17,28.4,519.527587890625,0.07079999893903732,0,0.0,0.0,,,,,0,,1,,
Raw,2061368,2065110000000,,,-1278056086663252992,0.0,4219.18136999011,6.729640255836763,11.489709000200254,100,25,0.0,15,115751691186472,16,29.0,10.259929656982422,0.04619999974966049,0,0.0,0.0,,,,,0,,1,,
Fix,gps,22.925365,120.294615,46.657593,0.000000,4.288000,1594022934000
NMEA,$GPGSV,3,1,11,05,54,289,41,06,43,057,22,12,23,264,44,13,27,184,32*73,1594022933191
NMEA,$GPGSV,3,2,11,19,45,144,28,25,10,292,29,02,51,355,,07,03,092,*74,1594022933192
NMEA,$GPGSV,3,3,11,09,19,043,,15,04,208,,30,07,122,*40,1594022933193
NMEA,$GLGSV,2,1,07,69,39,219,32,68,77,336,23,82,52,090,,84,02,324,*69,1594022933193
NMEA,$GLGSV,2,2,07,83,48,001,,81,11,126,,67,27,025,*5B,1594022933194
NMEA,$GAGSV,1,1,0,*74,1594022933195
NMEA,$PQGSV,1,1,03,193,70,060,,194,11,161,,195,71,135,,0,5*65,1594022933196
NMEA,$PQGSV,1,1,0,*73,1594022933196
NMEA,$GNGSA,A,3,05,12,13,19,25,,,,,,,,1.8,1.5,0.9,1*3E,1594022933199
NMEA,$GNGSA,A,2,68,69,,,,,,,,,,,1.8,1.5,0.9,2*36,1594022933200
NMEA,$GNVTG,,T,,M,0.0,N,0.0,K,A*3D,1594022933200
NMEA,$GNRMC,080854.00,A,2255.521917,N,12017.676878,E,0.0,,060720,2.8,W,A*13,1594022933201
NMEA,$GNGGA,080854.00,2255.521917,N,12017.676878,E,1,07,1.5,29.2,M,17.5,M,,*46,1594022933201
Raw,2062371,2066104000000,,,-1278056086662676224,0.0,4213.168285787106,6.833425726683772,10.748741402217656,101,5,0.0,207,40134696870601,12,32.8,-522.2110595703125,0.24539999663829803,0,0.0,0.0,,,,,0,,3,,
Raw,2062372,2066104000000,,,-1278056086662676224,0.0,4213.168285787106,6.833425726683772,10.748741402217656,101,4,0.0,207,40134702463869,27,24.0,168.3581085205078,0.8345000147819519,0,0.0,0.0,,,,,0,,3,,
Raw,2062372,2066104000000,,,-1278056086662676224,0.0,4213.168285787106,6.833425726683772,10.748741402217656,101,5,0.0,15,115752696931607,5,40.0,-68.11880493164062,0.03319999948143959,0,0.0,0.0,,,,,0,,1,,
Raw,2062372,2066104000000,,,-1278056086662676224,0.0,4213.168285787106,6.833425726683772,10.748741402217656,101,6,0.0,15,115752693647869,46,20.6,96.40277099609375,0.8510000109672546,0,0.0,0.0,,,,,0,,1,,
Raw,2062373,2066104000000,,,-1278056086662676224,0.0,4213.168285787106,6.833425726683772,10.748741402217656,101,12,0.0,15,115752688978792,4,44.1,227.37728881835938,0.018300000578165054,0,0.0,0.0,,,,,0,,1,,
Raw,2062373,2066104000000,,,-1278056086662676224,0.0,4213.168285787106,6.833425726683772,10.748741402217656,101,13,0.0,15,115752690124885,12,32.1,-658.6927490234375,0.036400001496076584,0,0.0,0.0,,,,,0,,1,,
Raw,2062373,2066104000000,,,-1278056086662676224,0.0,4213.168285787106,6.833425726683772,10.748741402217656,101,19,0.0,15,115752694283902,17,28.2,518.5877685546875,0.061799999326467514,0,0.0,0.0,,,,,0,,1,,
Raw,2062373,2066104000000,,,-1278056086662676224,0.0,4213.168285787106,6.833425726683772,10.748741402217656,101,25,0.0,15,115752684609371,17,28.5,9.365629196166992,0.046799998730421066,0,0.0,0.0,,,,,0,,1,,
Fix,gps,22.925365,120.294615,46.653931,0.000000,5.360000,1594022935000
NMEA,$GPGSV,4,1,13,05,54,289,40,06,43,057,21,12,23,264,44,13,27,184,32*74,1594022934188
NMEA,$GPGSV,4,2,13,19,45,144,28,25,10,292,29,02,51,355,,07,03,092,*71,1594022934188
NMEA,$GPGSV,4,3,13,09,19,043,,15,04,208,,17,26,146,,29,01,323,*79,1594022934189
NMEA,$GPGSV,4,4,13,30,07,122,*4E,1594022934189
NMEA,$GLGSV,2,1,07,69,39,219,33,68,77,336,24,82,52,090,,84,02,324,*6F,1594022934190
NMEA,$GLGSV,2,2,07,83,48,001,,81,11,126,,67,27,025,*5B,1594022934190
NMEA,$GAGSV,1,1,0,*74,1594022934190
NMEA,$PQGSV,1,1,03,193,70,060,,194,11,161,,195,71,135,,0,5*65,1594022934191
NMEA,$PQGSV,1,1,0,*73,1594022934192
NMEA,$GNGSA,A,3,05,12,13,19,25,,,,,,,,1.8,1.5,0.9,1*3E,1594022934195
NMEA,$GNGSA,A,2,68,69,,,,,,,,,,,1.8,1.5,0.9,2*36,1594022934196
NMEA,$GNVTG,,T,,M,0.0,N,0.0,K,A*3D,1594022934199
NMEA,$GNRMC,080855.00,A,2255.521914,N,12017.676881,E,0.0,,060720,2.8,W,A*17,1594022934199
NMEA,$GNGGA,080855.00,2255.521914,N,12017.676881,E,1,07,1.5,29.2,M,17.5,M,,*42,1594022934200
Raw,2063379,2067112000000,,,-1278056086662358272,0.0,4218.453075736761,3.5313375862686276,10.834579816922963,102,5,0.0,207,40135704554214,12,32.6,-523.2352905273438,0.227400004863739,0,0.0,0.0,,,,,0,,3,,
Raw,2063380,2067112000000,,,-1278056086662358272,0.0,4218.453075736761,3.5313375862686276,10.834579816922963,102,4,0.0,207,40135710145310,31,23.2,167.3683624267578,0.8664999604225159,0,0.0,0.0,,,,,0,,3,,
Raw,2063380,2067112000000,,,-1278056086662358272,0.0,4218.453075736761,3.5313375862686276,10.834579816922963,102,5,0.0,15,115753704613733,5,40.4,-69.19966888427734,0.015200000256299973,0,0.0,0.0,,,,,0,,1,,
Raw,2063381,2067112000000,,,-1278056086662358272,0.0,4218.453075736761,3.5313375862686276,10.834579816922963,102,6,0.0,15,115753701329295,35,22.2,95.76528930664062,0.8029999732971191,0,0.0,0.0,,,,,0,,1,,
Raw,2063381,2067112000000,,,-1278056086662358272,0.0,4218.453075736761,3.5313375862686276,10.834579816922963,102,12,0.0,15,115753696659916,4,43.8,226.34518432617188,0.030900001525878906,0,0.0,0.0,,,,,0,,1,,
Raw,2063381,2067112000000,,,-1278056086662358272,0.0,4218.453075736761,3.5313375862686276,10.834579816922963,102,13,0.0,15,115753697808961,13,31.8,-659.7939453125,0.049300000071525574,0,0.0,0.0,,,,,0,,1,,
Raw,2063381,2067112000000,,,-1278056086662358272,0.0,4218.453075736761,3.5313375862686276,10.834579816922963,102,19,0.0,15,115753701963993,17,28.9,517.608642578125,0.0723000019788742,0,0.0,0.0,,,,,0,,1,,
Raw,2063382,2067112000000,,,-1278056086662358272,0.0,4218.453075736761,3.5313375862686276,10.834579816922963,102,25,0.0,15,115753692291214,17,28.5,8.292617797851562,0.058800000697374344,0,0.0,0.0,,,,,0,,1,,
Fix,gps,22.925365,120.294615,46.659363,0.000000,4.288000,1594022936000
NMEA,$GPGSV,4,1,13,05,54,289,40,06,43,057,22,12,23,264,44,13,27,184,32*77,1594022935191
NMEA,$GPGSV,4,2,13,19,45,144,29,25,10,292,29,02,51,355,,07,03,092,*70,1594022935192
NMEA,$GPGSV,4,3,13,09,19,043,,15,04,208,,17,26,146,,29,01,323,*79,1594022935193
NMEA,$GPGSV,4,4,13,30,07,122,*4E,1594022935195
NMEA,$GLGSV,2,1,07,69,39,219,33,68,77,336,23,82,52,090,,84,02,324,*68,1594022935195
NMEA,$GLGSV,2,2,07,83,48,001,,81,11,126,,67,27,025,*5B,1594022935196
NMEA,$GAGSV,1,1,0,*74,1594022935196
NMEA,$PQGSV,1,1,03,193,70,060,,194,11,161,,195,71,135,,0,5*65,1594022935197
NMEA,$PQGSV,1,1,0,*73,1594022935198
NMEA,$GNGSA,A,3,05,12,13,19,25,,,,,,,,1.8,1.5,0.9,1*3E,1594022935200
NMEA,$GNGSA,A,2,68,69,,,,,,,,,,,1.8,1.5,0.9,2*36,1594022935206
NMEA,$GNVTG,,T,,M,0.0,N,0.0,K,A*3D,1594022935215
NMEA,$GNRMC,080856.00,A,2255.521913,N,12017.676881,E,0.0,,060720,2.8,W,A*13,1594022935215
NMEA,$GNGGA,080856.00,2255.521913,N,12017.676881,E,1,07,1.5,29.2,M,17.5,M,,*46,1594022935215
Raw,2064506,2068109000000,,,-1278056086661727744,0.0,4214.145243167877,-7.521460667493019E-4,9.201812048270424,103,5,0.0,207,40136700925557,12,32.8,-522.0857543945312,0.2513999938964844,0,0.0,0.0,,,,,0,,3,,
Raw,2064507,2068109000000,,,-1278056086661727744,0.0,4214.145243167877,-7.521460667493019E-4,9.201812048270424,103,4,0.0,207,40136706514294,31,23.9,168.49815368652344,0.8604999780654907,0,0.0,0.0,,,,,0,,3,,
Raw,2064507,2068109000000,,,-1278056086661727744,0.0,4214.145243167877,-7.521460667493019E-4,9.201812048270424,103,5,0.0,15,115754700983597,5,40.4,-68.03926849365234,0.03920000046491623,0,0.0,0.0,,,,,0,,1,,
Raw,2064508,2068109000000,,,-1278056086661727744,0.0,4214.145243167877,-7.521460667493019E-4,9.201812048270424,103,6,0.0,15,115754697698687,40,21.4,96.8594741821289,0.8569999933242798,0,0.0,0.0,,,,,0,,1,,
Raw,2064508,2068109000000,,,-1278056086661727744,0.0,4214.145243167877,-7.521460667493019E-4,9.201812048270424,103,12,0.0,15,115754693028802,4,43.5,227.4597930908203,0.026400001719594002,0,0.0,0.0,,,,,0,,1,,
Raw,2064509,2068109000000,,,-1278056086661727744,0.0,4214.145243167877,-7.521460667493019E-4,9.201812048270424,103,13,0.0,15,115754694180767,12,32.0,-658.7356567382812,0.04240000247955322,0,0.0,0.0,,,,,0,,1,,
Raw,2064510,2068109000000,,,-1278056086661727744,0.0,4214.145243167877,-7.521460667493019E-4,9.201812048270424,103,19,0.0,15,115754698331877,17,28.5,518.7101440429688,0.06780000030994415,0,0.0,0.0,,,,,0,,1,,
Raw,2064510,2068109000000,,,-1278056086661727744,0.0,4214.145243167877,-7.521460667493019E-4,9.201812048270424,103,25,0.0,15,115754688660811,17,28.3,9.458675384521484,0.052799999713897705,0,0.0,0.0,,,,,0,,1,,
Fix,gps,22.925365,120.294615,46.673767,0.000000,5.360000,1594022937000
NMEA,$GPGSV,3,1,12,05,54,289,40,06,43,057,21,12,23,264,44,13,27,184,32*72,1594022936199
NMEA,$GPGSV,3,2,12,19,45,144,29,25,10,292,28,02,51,355,,07,03,092,*77,1594022936201
NMEA,$GPGSV,3,3,12,09,19,043,,15,04,208,,29,01,323,,30,07,122,*7B,1594022936201
NMEA,$GLGSV,2,1,07,69,39,219,33,68,77,336,24,82,52,090,,84,02,324,*6F,1594022936202
NMEA,$GLGSV,2,2,07,83,48,001,,81,11,126,,67,27,025,*5B,1594022936203
NMEA,$GAGSV,1,1,0,*74,1594022936204
NMEA,$PQGSV,1,1,03,193,70,060,,194,11,161,,195,71,135,,0,5*65,1594022936205
NMEA,$PQGSV,1,1,0,*73,1594022936208
NMEA,$GNGSA,A,3,05,12,13,19,25,,,,,,,,1.8,1.5,0.9,1*3E,1594022936217
NMEA,$GNGSA,A,2,68,69,,,,,,,,,,,1.8,1.5,0.9,2*36,1594022936217
NMEA,$GNVTG,,T,,M,0.0,N,0.0,K,A*3D,1594022936219
NMEA,$GNRMC,080857.00,A,2255.521913,N,12017.676877,E,0.0,,060720,2.8,W,A*1B,1594022936219
NMEA,$GNGGA,080857.00,2255.521913,N,12017.676877,E,1,07,1.5,29.2,M,17.5,M,,*4E,1594022936219
Fix,gps,22.925365,120.294615,46.684814,0.000000,5.360000,1594022938000
Raw,2065404,2069000000000,,,-1278056086661176064,0.0,4220.655187964439,3.080796055176268,7.769242191778084,104,5,0.0,207,40137591375682,11,33.2,-521.3908081054688,0.2597000002861023,0,0.0,0.0,,,,,0,,3,,
Raw,2065405,2069000000000,,,-1278056086661176064,0.0,4220.655187964439,3.080796055176268,7.769242191778084,104,4,0.0,207,40137596962319,21,26.6,168.8843536376953,0.474700003862381,0,0.0,0.0,,,,,0,,3,,
Raw,2065405,2069000000000,,,-1278056086661176064,0.0,4220.655187964439,3.080796055176268,7.769242191778084,104,5,0.0,15,115755591432267,5,40.2,-67.40343475341797,0.036400001496076584,0,0.0,0.0,,,,,0,,1,,
Raw,2065405,2069000000000,,,-1278056086661176064,0.0,4220.655187964439,3.080796055176268,7.769242191778084,104,12,0.0,15,115755583476607,4,43.7,228.11630249023438,0.048900000751018524,0,0.0,0.0,,,,,0,,1,,
Raw,2065405,2069000000000,,,-1278056086661176064,0.0,4220.655187964439,3.080796055176268,7.769242191778084,104,13,0.0,15,115755584631203,13,31.7,-658.018798828125,0.06109999865293503,0,0.0,0.0,,,,,0,,1,,
Raw,2065406,2069000000000,,,-1278056086661176064,0.0,4220.655187964439,3.080796055176268,7.769242191778084,104,19,0.0,15,115755588778844,17,28.2,519.4436645507812,0.10939999669790268,0,0.0,0.0,,,,,0,,1,,
Raw,2065406,2069000000000,,,-1278056086661176064,0.0,4220.655187964439,3.080796055176268,7.769242191778084,104,25,0.0,15,115755579109253,19,27.3,10.137371063232422,0.19220000505447388,0,0.0,0.0,,,,,0,,1,,
NMEA,$GPGSV,3,1,12,05,54,289,40,12,23,264,44,13,27,184,32,19,45,144,28*70,1594022937190
NMEA,$GPGSV,3,2,12,25,10,292,27,02,51,355,,07,03,092,,09,19,043,*7D,1594022937191
NMEA,$GPGSV,3,3,12,15,04,208,,17,26,146,,29,01,323,,30,07,122,*7C,1594022937192
NMEA,$GLGSV,2,1,07,69,39,219,33,68,77,336,27,82,52,090,,84,02,324,*6C,1594022937192
NMEA,$GLGSV,2,2,07,83,48,001,,81,11,126,,67,27,025,*5B,1594022937193
NMEA,$GAGSV,1,1,0,*74,1594022937193
NMEA,$PQGSV,1,1,03,193,70,060,,194,11,161,,195,71,135,,0,5*65,1594022937193
NMEA,$PQGSV,1,1,0,*73,1594022937194
NMEA,$GNGSA,A,3,05,12,13,19,25,,,,,,,,1.8,1.5,0.9,1*3E,1594022937196
NMEA,$GNGSA,A,2,68,69,,,,,,,,,,,1.8,1.5,0.9,2*36,1594022937197
NMEA,$GNVTG,,T,,M,0.0,N,0.0,K,A*3D,1594022937197
NMEA,$GNRMC,080858.00,A,2255.521913,N,12017.676873,E,0.0,,060720,2.8,W,A*10,1594022937198
NMEA,$GNGGA,080858.00,2255.521913,N,12017.676873,E,1,07,1.5,29.2,M,17.5,M,,*45,1594022937199
Fix,gps,22.925365,120.294615,46.684814,0.000000,5.360000,1594022939000
NMEA,$GPGSA,A,1,,,,,,,,,,,,,1.8,1.5,0.9,1*29,1594022938185
NMEA,$GPVTG,,T,,M,0.0,N,0.0,K,A*23,1594022938186
NMEA,$GPRMC,080859.00,A,2255.521913,N,12017.676871,E,0.0,,060720,2.8,W,A*0D,1594022938187
NMEA,$GPGGA,080859.00,2255.521913,N,12017.676871,E,1,00,1.5,29.2,M,17.5,M,,*5F,1594022938187
Fix,gps,22.925365,120.294615,46.686035,0.000000,5.360000,1594022940000
Raw,2067379,2071004000000,,,-1278056086660211200,0.0,4217.209294438362,7.435039805834182,6.082026456994226,105,5,0.0,207,40139594414117,11,33.8,-519.4556884765625,0.26420000195503235,0,0.0,0.0,,,,,0,,3,,
Raw,2067379,2071004000000,,,-1278056086660211200,0.0,4217.209294438362,7.435039805834182,6.082026456994226,105,4,0.0,207,40139599995944,19,27.2,170.87904357910156,0.3922000229358673,0,0.0,0.0,,,,,0,,3,,
Raw,2067380,2071004000000,,,-1278056086660211200,0.0,4217.209294438362,7.435039805834182,6.082026456994226,105,5,0.0,15,115757594467719,5,40.2,-65.52289581298828,0.04090000316500664,0,0.0,0.0,,,,,0,,1,,
Raw,2067380,2071004000000,,,-1278056086660211200,0.0,4217.209294438362,7.435039805834182,6.082026456994226,105,12,0.0,15,115757586510071,4,44.2,230.0072784423828,0.02199999988079071,0,0.0,0.0,,,,,0,,1,,
Raw,2067381,2071004000000,,,-1278056086660211200,0.0,4217.209294438362,7.435039805834182,6.082026456994226,105,13,0.0,15,115757587670623,13,31.1,-656.388671875,0.06560000032186508,0,0.0,0.0,,,,,0,,1,,
Raw,2067382,2071004000000,,,-1278056086660211200,0.0,4217.209294438362,7.435039805834182,6.082026456994226,105,19,0.0,15,115757591810426,16,29.7,521.1881103515625,0.0908999964594841,0,0.0,0.0,,,,,0,,1,,
Raw,2067382,2071004000000,,,-1278056086660211200,0.0,4217.209294438362,7.435039805834182,6.082026456994226,105,25,0.0,15,115757582144241,19,27.3,12.154084205627441,0.19670000672340393,0,0.0,0.0,,,,,0,,1,,
NMEA,$GPGSV,3,1,12,05,54,289,40,12,23,264,44,13,27,184,31,19,45,144,30*7A,1594022939190
NMEA,$GPGSV,3,2,12,25,10,292,27,02,51,355,,06,43,057,,07,03,092,*78,1594022939190
NMEA,$GPGSV,3,3,12,09,19,043,,15,04,208,,17,26,146,,30,07,122,*72,1594022939191
NMEA,$GLGSV,2,1,07,69,39,219,34,68,77,336,27,82,52,090,,84,02,324,*6B,1594022939191
NMEA,$GLGSV,2,2,07,83,48,001,,81,11,126,,67,27,025,*5B,1594022939192
NMEA,$GAGSV,1,1,0,*74,1594022939192
NMEA,$PQGSV,1,1,03,193,70,060,,194,11,161,,195,71,135,,0,5*65,1594022939193
NMEA,$PQGSV,1,1,0,*73,1594022939193
NMEA,$GNGSA,A,3,05,12,13,19,25,,,,,,,,1.8,1.5,0.9,1*3E,1594022939196
NMEA,$GNGSA,A,2,68,69,,,,,,,,,,,1.8,1.5,0.9,2*36,1594022939198
NMEA,$GNVTG,,T,,M,0.0,N,0.0,K,A*3D,1594022939198
NMEA,$GNRMC,080900.00,A,2255.521912,N,12017.676870,E,0.0,,060720,2.8,W,A*1E,1594022939199
NMEA,$GNGGA,080900.00,2255.521912,N,12017.676870,E,1,07,1.5,29.2,M,17.5,M,,*4B,1594022939200
Fix,gps,22.925365,120.294615,46.685974,0.000000,5.360000,1594022941000
NMEA,$GPGSA,A,1,,,,,,,,,,,,,1.8,1.5,0.9,1*29,1594022940187
NMEA,$GPVTG,,T,,M,0.0,N,0.0,K,A*23,1594022940187
NMEA,$GPRMC,080901.00,A,2255.521911,N,12017.676870,E,0.0,,060720,2.8,W,A*02,1594022940188
NMEA,$GPGGA,080901.00,2255.521911,N,12017.676870,E,1,00,1.5,29.2,M,17.5,M,,*50,1594022940189
Raw,2069508,2073112000000,,,-1278056086659164928,0.0,4210.823681205511,8.381445407833125,8.18589749067716,106,5,0.0,207,40141701371563,12,32.3,-520.2106323242188,0.25290000438690186,0,0.0,0.0,,,,,0,,3,,
Raw,2069509,2073112000000,,,-1278056086659164928,0.0,4210.823681205511,8.381445407833125,8.18589749067716,106,4,0.0,207,40141706948584,27,24.2,170.36558532714844,0.8105000257492065,0,0.0,0.0,,,,,0,,3,,
Raw,2069509,2073112000000,,,-1278056086659164928,0.0,4210.823681205511,8.381445407833125,8.18589749067716,106,5,0.0,15,115759701421995,5,40.2,-66.41068267822266,0.040699999779462814,0,0.0,0.0,,,,,0,,1,,
Raw,2069510,2073112000000,,,-1278056086659164928,0.0,4210.823681205511,8.381445407833125,8.18589749067716,106,12,0.0,15,115759693462277,4,43.7,229.15866088867188,0.026400001719594002,0,0.0,0.0,,,,,0,,1,,
Raw,2069510,2073112000000,,,-1278056086659164928,0.0,4210.823681205511,8.381445407833125,8.18589749067716,106,13,0.0,15,115759694629048,14,30.8,-657.322998046875,0.04780000075697899,0,0.0,0.0,,,,,0,,1,,
Raw,2069510,2073112000000,,,-1278056086659164928,0.0,4210.823681205511,8.381445407833125,8.18589749067716,106,19,0.0,15,115759698760579,17,28.7,520.4118041992188,0.06780000030994415,0,0.0,0.0,,,,,0,,1,,
