# 
# Header Description:
# 
# Version: v2.0.0.1 Platform: 8.0.0 Manufacturer: Sony Model: G8142
# 
# Raw,ElapsedRealtimeMillis,TimeNanos,LeapSecond,TimeUncertaintyNanos,FullBiasNanos,BiasNanos,BiasUncertaintyNanos,DriftNanosPerSecond,DriftUncertaintyNanosPerSecond,HardwareClockDiscontinuityCount,Svid,TimeOffsetNanos,State,ReceivedSvTimeNanos,ReceivedSvTimeUncertaintyNanos,Cn0DbHz,PseudorangeRateMetersPerSecond,PseudorangeRateUncertaintyMetersPerSecond,AccumulatedDeltaRangeState,AccumulatedDeltaRangeMeters,AccumulatedDeltaRangeUncertaintyMeters,CarrierFrequencyHz,CarrierCycles,CarrierPhase,CarrierPhaseUncertainty,MultipathIndicator,SnrInDb,ConstellationType,AgcDb,CarrierFrequencyHz
# 
# Fix,Provider,Latitude,Longitude,Altitude,Speed,Accuracy,(UTC)TimeInMs
# 
# Nav,Svid,Type,Status,MessageId,Sub-messageId,Data(Bytes)
# 
Fix,gps,22.925366,120.294628,45.520264,0.000000,4.288000,1594023179000
Raw,2306401,2309908000000,,,-1278056086533414400,0.0,54.62062836159021,8.655438828191171,13.68455913059762,323,18,0.0,207,40378374014093,1098,15.9,141.68048095703125,7.702500343322754,0,0.0,0.0,,,,,0,,3,,
Raw,2306401,2309908000000,,,-1278056086533414400,0.0,54.62062836159021,8.655438828191171,13.68455913059762,323,5,0.0,207,40378372023161,24,25.2,-494.09234619140625,0.5997999906539917,0,0.0,0.0,,,,,0,,3,,
Raw,2306401,2309908000000,,,-1278056086533414400,0.0,54.62062836159021,8.655438828191171,13.68455913059762,323,3,0.0,207,40378367448915,1097,15.1,706.6121215820312,7.692000389099121,0,0.0,0.0,,,,,0,,3,,
Raw,2306401,2309908000000,,,-1278056086533414400,0.0,54.62062836159021,8.655438828191171,13.68455913059762,323,4,0.0,207,40378377052832,24,25.2,202.28941345214844,0.6072999835014343,0,0.0,0.0,,,,,0,,3,,
Raw,2306402,2309908000000,,,-1278056086533414400,0.0,54.62062836159021,8.655438828191171,13.68455913059762,323,2,0.0,15,115996368500226,1424,14.1,-219.1802520751953,7.743500232696533,0,0.0,0.0,,,,,0,,1,,
Raw,2306402,2309908000000,,,-1278056086533414400,0.0,54.62062836159021,8.655438828191171,13.68455913059762,323,5,0.0,15,115996371719564,13,31.3,-51.11724090576172,0.04170000180602074,0,0.0,0.0,,,,,0,,1,,
Raw,2306402,2309908000000,,,-1278056086533414400,0.0,54.62062836159021,8.655438828191171,13.68455913059762,323,6,0.0,15,115996368304867,848,17.5,105.21337127685547,7.343500137329102,0,0.0,0.0,,,,,0,,1,,
Raw,2306402,2309908000000,,,-1278056086533414400,0.0,54.62062836159021,8.655438828191171,13.68455913059762,323,9,0.0,15,115996361749439,1424,13.5,541.1666870117188,7.7330002784729,0,0.0,0.0,,,,,0,,1,,
Raw,2306403,2309908000000,,,-1278056086533414400,0.0,54.62062836159021,8.655438828191171,13.68455913059762,323,12,0.0,15,115996363525433,6,39.3,247.02536010742188,0.02410000190138817,0,0.0,0.0,,,,,0,,1,,
Raw,2306403,2309908000000,,,-1278056086533414400,0.0,54.62062836159021,8.655438828191171,13.68455913059762,323,13,0.0,15,115996365396647,27,24.2,-651.1754150390625,0.6739999651908875,0,0.0,0.0,,,,,0,,1,,
Raw,2306403,2309908000000,,,-1278056086533414400,0.0,54.62062836159021,8.655438828191171,13.68455913059762,323,15,0.0,15,115996357663476,24,25.6,-724.6161499023438,0.4072999954223633,0,0.0,0.0,,,,,0,,1,,
Raw,2306403,2309908000000,,,-1278056086533414400,0.0,54.62062836159021,8.655438828191171,13.68455913059762,323,19,0.0,15,115996368593431,17,28.8,539.192626953125,0.04529999941587448,0,0.0,0.0,,,,,0,,1,,
Raw,2306403,2309908000000,,,-1278056086533414400,0.0,54.62062836159021,8.655438828191171,13.68455913059762,323,25,0.0,15,115996359331752,40,21.4,31.969337463378906,0.875,0,0.0,0.0,,,,,0,,1,,
Raw,2306404,2309908000000,,,-1278056086533414400,0.0,54.62062836159021,8.655438828191171,13.68455913059762,323,29,0.0,15,115996356779138,964,17.4,-678.1590576171875,7.445500373840332,0,0.0,0.0,,,,,0,,1,,
Raw,2306404,2309908000000,,,-1278056086533414400,0.0,54.62062836159021,8.655438828191171,13.68455913059762,323,1,0.0,783,115982317714802,19,27.7,-0.3552730679512024,0.45500001311302185,0,0.0,0.0,,,,,0,,5,,
Raw,2306404,2309908000000,,,-1278056086533414400,0.0,54.62062836159021,8.655438828191171,13.68455913059762,323,2,0.0,783,115982316226321,17,28.7,0.16323357820510864,0.44350001215934753,0,0.0,0.0,,,,,0,,5,,
Raw,2306404,2309908000000,,,-1278056086533414400,0.0,54.62062836159021,8.655438828191171,13.68455913059762,323,3,0.0,783,115982320875848,13,31.6,5.6267571449279785,0.3634999990463257,0,0.0,0.0,,,,,0,,5,,
Raw,2306405,2309908000000,,,-1278056086533414400,0.0,54.62062836159021,8.655438828191171,13.68455913059762,323,5,0.0,783,115982308282617,13,31.3,-2.3140759468078613,0.3634999990463257,0,0.0,0.0,,,,,0,,5,,
Raw,2306405,2309908000000,,,-1278056086533414400,0.0,54.62062836159021,8.655438828191171,13.68455913059762,323,6,0.0,15,115982317562852,17,28.6,-230.71597290039062,0.058800000697374344,0,0.0,0.0,,,,,0,,5,,
Raw,2306405,2309908000000,,,-1278056086533414400,0.0,54.62062836159021,8.655438828191171,13.68455913059762,323,7,0.0,15,115982311183071,40,21.5,287.4255065917969,0.7429999709129333,0,0.0,0.0,,,,,0,,5,,
Raw,2306405,2309908000000,,,-1278056086533414400,0.0,54.62062836159021,8.655438828191171,13.68455913059762,323,9,0.0,15,115982311696210,87,22.2,-258.48516845703125,5.183000087738037,0,0.0,0.0,,,,,0,,5,,
Raw,2306405,2309908000000,,,-1278056086533414400,0.0,54.62062836159021,8.655438828191171,13.68455913059762,323,10,0.0,15,115982312906160,21,26.5,310.533447265625,0.12919999659061432,0,0.0,0.0,,,,,0,,5,,
Raw,2306406,2309908000000,,,-1278056086533414400,0.0,54.62062836159021,8.655438828191171,13.68455913059762,323,11,0.0,15,115982354999841,70,17.5,-571.6055297851562,1.0175000429153442,0,0.0,0.0,,,,,0,,5,,
Raw,2306406,2309908000000,,,-1278056086533414400,0.0,54.62062836159021,8.655438828191171,13.68455913059762,323,12,0.0,15,115982368340279,35,22.5,-283.5079040527344,0.6784999966621399,0,0.0,0.0,,,,,0,,5,,
Raw,2306406,2309908000000,,,-1278056086533414400,0.0,54.62062836159021,8.655438828191171,13.68455913059762,323,13,0.0,15,115982315922665,16,29.2,-66.0093994140625,0.04920000210404396,0,0.0,0.0,,,,,0,,5,,
Raw,2306406,2309908000000,,,-1278056086533414400,0.0,54.62062836159021,8.655438828191171,13.68455913059762,323,14,0.0,15,115982352396559,17,28.0,-526.9526977539062,0.05130000039935112,0,0.0,0.0,,,,,0,,5,,
Raw,2306407,2309908000000,,,-1278056086533414400,0.0,54.62062836159021,8.655438828191171,13.68455913059762,323,16,0.0,15,115982315445887,24,25.9,-262.2420349121094,0.4043000042438507,0,0.0,0.0,,,,,0,,5,,
Raw,2306407,2309908000000,,,-1278056086533414400,0.0,54.62062836159021,8.655438828191171,13.68455913059762,323,21,0.0,15,115982368288601,10,34.5,-11.741512298583984,0.0340999998152256,0,0.0,0.0,,,,,0,,5,,
Raw,2306410,2309908000000,,,-1278056086533414400,0.0,54.62062836159021,8.655438828191171,13.68455913059762,323,22,0.0,15,115982362975993,53,19.4,455.0184020996094,0.8495000004768372,0,0.0,0.0,,,,,0,,5,,
NMEA,$GPGSV,4,1,13,02,52,358,14,05,55,292,31,06,42,060,18,09,18,043,14*73,1594023178190
NMEA,$GPGSV,4,2,13,12,23,262,39,13,28,184,24,15,06,208,26,19,43,144,29*79,1594023178191
NMEA,$GPGSV,4,3,13,25,10,291,21,29,02,323,17,07,04,091,,17,23,147,*70,1594023178191
NMEA,$GPGSV,4,4,13,30,07,120,*4C,1594023178191
NMEA,$GLGSV,2,1,07,82,51,094,16,69,40,220,25,67,25,025,15,68,75,341,25*61,1594023178191
NMEA,$GLGSV,2,2,07,84,03,326,,83,49,004,,81,10,127,*54,1594023178191
NMEA,$GAGSV,1,1,02,01,07,206,,19,52,199,*66,1594023178192
NMEA,$PQGSV,1,1,03,193,70,059,15,195,71,137,18,194,11,161,,0,5*60,1594023178192
NMEA,$PQGSV,4,1,16,01,50,130,28,02,42,243,29,03,62,203,32,05,17,258,31,0,4*66,1594023178192
NMEA,$PQGSV,4,2,16,06,47,171,29,07,21,195,22,09,24,189,22,10,28,222,27,0,4*69,1594023178192
NMEA,$PQGSV,4,3,16,11,13,322,18,12,63,341,23,13,40,330,29,14,01,227,28,0,4*66,1594023178192
NMEA,$PQGSV,4,4,16,16,42,177,26,21,73,278,35,22,41,030,19,04,37,113,,0,4*69,1594023178193
NMEA,$GNGSA,A,3,05,12,13,15,19,25,,,,,,,1.4,1.1,0.9,1*32,1594023178193
NMEA,$GNGSA,A,2,68,69,,,,,,,,,,,1.4,1.1,0.9,2*3E,1594023178194
NMEA,$PQGSA,A,3,05,10,12,13,21,,,,,,,,1.4,1.1,0.9,4*36,1594023178194
NMEA,$GNVTG,,T,,M,0.0,N,0.0,K,A*3D,1594023178194
NMEA,$GNRMC,081259.00,A,2255.521957,N,12017.677687,E,0.0,,060720,2.8,W,A*1E,1594023178194
NMEA,$GNGGA,081259.00,2255.521957,N,12017.677687,E,1,12,1.1,28.1,M,17.5,M,,*49,1594023178194
Raw,2307365,2310908000000,,,-1278056086533414400,0.0,59.69679477857426,6.43209425688322,18.660295549875258,323,18,0.0,207,40379374013592,1122,15.8,141.6149139404297,8.452500343322754,0,0.0,0.0,,,,,0,,3,,
Raw,2307365,2310908000000,,,-1278056086533414400,0.0,59.69679477857426,6.43209425688322,18.660295549875258,323,5,0.0,207,40379372024817,31,23.5,-495.53155517578125,0.8844999670982361,0,0.0,0.0,,,,,0,,3,,
Raw,2307365,2310908000000,,,-1278056086533414400,0.0,59.69679477857426,6.43209425688322,18.660295549875258,323,3,0.0,207,40379367446565,1122,15.1,706.5000610351562,8.442000389099121,0,0.0,0.0,,,,,0,,3,,
Raw,2307365,2310908000000,,,-1278056086533414400,0.0,59.69679477857426,6.43209425688322,18.660295549875258,323,4,0.0,207,40379377052190,16,29.9,200.53907775878906,0.25220000743865967,0,0.0,0.0,,,,,0,,3,,
Raw,2307366,2310908000000,,,-1278056086533414400,0.0,59.69679477857426,6.43209425688322,18.660295549875258,323,2,0.0,15,115997368500955,1273,14.8,-219.284912109375,8.37350082397461,0,0.0,0.0,,,,,0,,1,,
Raw,2307366,2310908000000,,,-1278056086533414400,0.0,59.69679477857426,6.43209425688322,18.660295549875258,323,5,0.0,15,115997371719734,19,27.8,-52.458370208740234,0.05780000239610672,0,0.0,0.0,,,,,0,,1,,
Raw,2307366,2310908000000,,,-1278056086533414400,0.0,59.69679477857426,6.43209425688322,18.660295549875258,323,6,0.0,15,115997368304513,196,17.9,104.94696044921875,8.093500137329102,0,0.0,0.0,,,,,0,,1,,
Raw,2307366,2310908000000,,,-1278056086533414400,0.0,59.69679477857426,6.43209425688322,18.660295549875258,323,9,0.0,15,115997361747637,1449,14.1,541.06201171875,8.483000755310059,0,0.0,0.0,,,,,0,,1,,
Raw,2307366,2310908000000,,,-1278056086533414400,0.0,59.69679477857426,6.43209425688322,18.660295549875258,323,12,0.0,15,115997363524626,5,40.4,245.2457733154297,0.023900000378489494,0,0.0,0.0,,,,,0,,1,,
Raw,2307367,2310908000000,,,-1278056086533414400,0.0,59.69679477857426,6.43209425688322,18.660295549875258,323,13,0.0,15,115997365398822,17,28.7,-652.71044921875,0.040800001472234726,0,0.0,0.0,,,,,0,,1,,
Raw,2307367,2310908000000,,,-1278056086533414400,0.0,59.69679477857426,6.43209425688322,18.660295549875258,323,15,0.0,15,115997357665920,17,28.0,-726.9539794921875,0.058800000697374344,0,0.0,0.0,,,,,0,,1,,
Raw,2307367,2310908000000,,,-1278056086533414400,0.0,59.69679477857426,6.43209425688322,18.660295549875258,323,19,0.0,15,115997368591614,16,29.0,537.436279296875,0.038700003176927567,0,0.0,0.0,,,,,0,,1,,
Raw,2307367,2310908000000,,,-1278056086533414400,0.0,59.69679477857426,6.43209425688322,18.660295549875258,323,25,0.0,15,115997359331725,31,23.8,31.274765014648438,0.6949999928474426,0,0.0,0.0,,,,,0,,1,,
Raw,2307367,2310908000000,,,-1278056086533414400,0.0,59.69679477857426,6.43209425688322,18.660295549875258,323,29,0.0,15,115997356781408,988,17.4,-678.2542114257812,8.195500373840332,0,0.0,0.0,,,,,0,,1,,
Raw,2307368,2310908000000,,,-1278056086533414400,0.0,59.69679477857426,6.43209425688322,18.660295549875258,323,1,0.0,783,115983317714803,26,27.7,-0.3552730679512024,1.9550000429153442,0,0.0,0.0,,,,,0,,5,,
Raw,2307368,2310908000000,,,-1278056086533414400,0.0,59.69679477857426,6.43209425688322,18.660295549875258,323,2,0.0,783,115983316226331,14,30.7,-6.116457939147949,0.3935000002384186,0,0.0,0.0,,,,,0,,5,,
Raw,2307368,2310908000000,,,-1278056086533414400,0.0,59.69679477857426,6.43209425688322,18.660295549875258,323,3,0.0,783,115983320875829,13,31.3,1.065819263458252,0.3634999990463257,0,0.0,0.0,,,,,0,,5,,
Raw,2307368,2310908000000,,,-1278056086533414400,0.0,59.69679477857426,6.43209425688322,18.660295549875258,323,5,0.0,783,115983308282610,11,33.4,-2.0260167121887207,0.3135000169277191,0,0.0,0.0,,,,,0,,5,,
Raw,2307369,2310908000000,,,-1278056086533414400,0.0,59.69679477857426,6.43209425688322,18.660295549875258,323,6,0.0,15,115983317563619,16,29.1,-232.6038055419922,0.05220000073313713,0,0.0,0.0,,,,,0,,5,,
Raw,2307369,2310908000000,,,-1278056086533414400,0.0,59.69679477857426,6.43209425688322,18.660295549875258,323,7,0.0,15,115983311182133,27,24.9,285.23626708984375,0.5429999828338623,0,0.0,0.0,,,,,0,,5,,
Raw,2307369,2310908000000,,,-1278056086533414400,0.0,59.69679477857426,6.43209425688322,18.660295549875258,323,9,0.0,15,115983311697075,110,15.2,-258.9364318847656,3.433000087738037,0,0.0,0.0,,,,,0,,5,,
Raw,2307369,2310908000000,,,-1278056086533414400,0.0,59.69679477857426,6.43209425688322,18.660295549875258,323,10,0.0,15,115983312905143,19,27.6,308.653564453125,0.059300001710653305,0,0.0,0.0,,,,,0,,5,,
Raw,2307369,2310908000000,,,-1278056086533414400,0.0,59.69679477857426,6.43209425688322,18.660295549875258,323,11,0.0,15,115983355001764,40,21.1,-572.7673950195312,0.7489999532699585,0,0.0,0.0,,,,,0,,5,,
Raw,2307370,2310908000000,,,-1278056086533414400,0.0,59.69679477857426,6.43209425688322,18.660295549875258,323,12,0.0,15,115983368341213,19,27.2,-285.54449462890625,0.053300000727176666,0,0.0,0.0,,,,,0,,5,,
Raw,2307370,2310908000000,,,-1278056086533414400,0.0,59.69679477857426,6.43209425688322,18.660295549875258,323,13,0.0,15,115983315922890,19,27.7,-68.09693908691406,0.06379999965429306,0,0.0,0.0,,,,,0,,5,,
Raw,2307370,2310908000000,,,-1278056086533414400,0.0,59.69679477857426,6.43209425688322,18.660295549875258,323,14,0.0,15,115983352398314,16,29.1,-528.8067016601562,0.04470000043511391,0,0.0,0.0,,,,,0,,5,,
Raw,2307370,2310908000000,,,-1278056086533414400,0.0,59.69679477857426,6.43209425688322,18.660295549875258,323,16,0.0,15,115983315446786,17,28.6,-264.0094299316406,0.055800002068281174,0,0.0,0.0,,,,,0,,5,,
Raw,2307371,2310908000000,,,-1278056086533414400,0.0,59.69679477857426,6.43209425688322,18.660295549875258,323,21,0.0,15,115983368288636,11,33.6,-13.549031257629395,0.03490000218153,0,0.0,0.0,,,,,0,,5,,
Raw,2307371,2310908000000,,,-1278056086533414400,0.0,59.69679477857426,6.43209425688322,18.660295549875258,323,22,0.0,15,115983362974544,61,18.9,452.6850891113281,0.8495000004768372,0,0.0,0.0,,,,,0,,5,,
Fix,gps,22.925366,120.294628,45.522461,0.000000,4.288000,1594023180000
NMEA,$GPGSV,4,1,13,02,52,358,15,05,55,292,28,06,42,060,18,09,18,043,14*7A,1594023179189
NMEA,$GPGSV,4,2,13,12,23,262,40,13,28,184,29,15,06,208,28,19,43,144,29*74,1594023179189
NMEA,$GPGSV,4,3,13,25,10,291,24,29,02,323,17,07,04,091,,17,23,147,*75,1594023179189
NMEA,$GPGSV,4,4,13,30,07,120,*4C,1594023179189
NMEA,$GLGSV,2,1,07,82,51,094,16,69,40,220,24,67,25,025,15,68,75,341,30*64,1594023179189
NMEA,$GLGSV,2,2,07,84,03,326,,83,49,004,,81,10,127,*54,1594023179189
NMEA,$GAGSV,1,1,02,01,07,206,,19,52,199,*66,1594023179190
NMEA,$PQGSV,1,1,03,193,70,059,15,195,71,137,22,194,11,161,,0,5*69,1594023179190
NMEA,$PQGSV,4,1,16,01,50,130,28,02,42,243,31,03,62,203,31,05,17,258,33,0,4*6E,1594023179191
NMEA,$PQGSV,4,2,16,06,47,171,29,07,21,195,25,09,24,189,15,10,28,222,28,0,4*65,1594023179191
NMEA,$PQGSV,4,3,16,11,13,322,21,12,63,341,27,13,40,330,28,14,01,227,29,0,4*68,1594023179191
NMEA,$PQGSV,4,4,16,16,42,177,29,21,73,278,34,22,41,030,19,04,37,113,,0,4*67,1594023179191
NMEA,$GNGSA,A,3,05,12,13,15,19,25,,,,,,,1.4,1.1,0.9,1*32,1594023179192
NMEA,$GNGSA,A,2,68,69,,,,,,,,,,,1.4,1.1,0.9,2*3E,1594023179193
NMEA,$PQGSA,A,3,05,10,12,13,21,,,,,,,,1.4,1.1,0.9,4*36,1594023179193
NMEA,$GNVTG,,T,,M,0.0,N,0.0,K,A*3D,1594023179193
NMEA,$GNRMC,081300.00,A,2255.521957,N,12017.677686,E,0.0,,060720,2.8,W,A*12,1594023179193
NMEA,$GNGGA,081300.00,2255.521957,N,12017.677686,E,1,12,1.1,28.1,M,17.5,M,,*45,1594023179193
Fix,gps,22.925366,120.294628,45.531860,0.000000,3.216000,1594023181000
Raw,2308363,2312246000000,,,-1278056086532696576,0.0,4136.510659009218,-1.330644443292933,8.806106778171847,324,5,0.0,207,40380709308808,40,21.7,-492.7535400390625,0.98499995470047,0,0.0,0.0,,,,,0,,3,,
Raw,2308363,2312246000000,,,-1278056086532696576,0.0,4136.510659009218,-1.330644443292933,8.806106778171847,324,4,0.0,207,40380714333169,16,29.4,202.60467529296875,0.2506999969482422,0,0.0,0.0,,,,,0,,3,,
Raw,2308363,2312246000000,,,-1278056086532696576,0.0,4136.510659009218,-1.330644443292933,8.806106778171847,324,5,0.0,15,115998709001798,14,30.4,-50.98959732055664,0.040300000458955765,0,0.0,0.0,,,,,0,,1,,
Raw,2308363,2312246000000,,,-1278056086532696576,0.0,4136.510659009218,-1.330644443292933,8.806106778171847,324,12,0.0,15,115998700805352,5,40.0,247.1938934326172,0.03920000046491623,0,0.0,0.0,,,,,0,,1,,
Raw,2308364,2312246000000,,,-1278056086532696576,0.0,4136.510659009218,-1.330644443292933,8.806106778171847,324,13,0.0,15,115998702683551,16,29.3,-650.6317749023438,0.06270000338554382,0,0.0,0.0,,,,,0,,1,,
Raw,2308364,2312246000000,,,-1278056086532696576,0.0,4136.510659009218,-1.330644443292933,8.806106778171847,324,15,0.0,15,115998694950933,24,25.4,-725.0044555664062,0.20040000975131989,0,0.0,0.0,,,,,0,,1,,
Raw,2308365,2312246000000,,,-1278056086532696576,0.0,4136.510659009218,-1.330644443292933,8.806106778171847,324,19,0.0,15,115998705871089,21,26.0,539.3229370117188,0.10520000010728836,0,0.0,0.0,,,,,0,,1,,
Raw,2308365,2312246000000,,,-1278056086532696576,0.0,4136.510659009218,-1.330644443292933,8.806106778171847,324,25,0.0,15,115998696613293,27,24.5,32.93983459472656,0.6255000233650208,0,0.0,0.0,,,,,0,,1,,
NMEA,$GPGSV,4,1,13,02,52,358,15,05,55,292,30,06,42,060,18,09,18,043,14*73,1594023180187
NMEA,$GPGSV,4,2,13,12,23,262,40,13,28,184,29,15,06,208,25,19,43,144,26*76,1594023180187
NMEA,$GPGSV,4,3,13,25,10,291,25,29,02,323,17,07,04,091,,17,23,147,*74,1594023180187
NMEA,$GPGSV,4,4,13,30,07,120,*4C,1594023180187
NMEA,$GLGSV,2,1,07,82,51,094,16,69,40,220,22,67,25,025,15,68,75,341,29*6A,1594023180187
NMEA,$GLGSV,2,2,07,84,03,326,,83,49,004,,81,10,127,*54,1594023180187
NMEA,$GAGSV,1,1,0,*74,1594023180188
NMEA,$PQGSV,1,1,03,193,70,059,15,195,71,137,21,194,11,161,,0,5*6A,1594023180188
NMEA,$PQGSV,1,1,0,*73,1594023180188
NMEA,$GNGSA,A,3,05,12,13,15,19,25,,,,,,,1.4,1.1,0.9,1*32,1594023180189
NMEA,$GNGSA,A,2,68,69,,,,,,,,,,,1.4,1.1,0.9,2*3E,1594023180189
NMEA,$GNVTG,,T,,M,0.0,N,0.0,K,A*3D,1594023180189
NMEA,$GNRMC,081301.00,A,2255.521958,N,12017.677684,E,0.0,,060720,2.8,W,A*1E,1594023180190
NMEA,$GNGGA,081301.00,2255.521958,N,12017.677684,E,1,08,1.1,28.1,M,17.5,M,,*42,1594023180190
Raw,2309350,2313238000000,,,-1278056086532214272,0.0,4166.094120591879,5.5003782491588105,10.779890881322464,325,5,0.0,207,40381700829011,46,20.6,-492.080078125,1.0614999532699585,0,0.0,0.0,,,,,0,,3,,
Raw,2309351,2313238000000,,,-1278056086532214272,0.0,4166.094120591879,5.5003782491588105,10.779890881322464,325,4,0.0,207,40381705850671,14,30.4,203.58767700195312,0.23430000245571136,0,0.0,0.0,,,,,0,,3,,
Raw,2309351,2313238000000,,,-1278056086532214272,0.0,4166.094120591879,5.5003782491588105,10.779890881322464,325,5,0.0,15,115999700520193,14,30.1,-49.979957580566406,0.0568000003695488,0,0.0,0.0,,,,,0,,1,,
Raw,2309352,2313238000000,,,-1278056086532214272,0.0,4166.094120591879,5.5003782491588105,10.779890881322464,325,6,0.0,15,115999697103690,40,21.9,107.64913177490234,0.796999990940094,0,0.0,0.0,,,,,0,,1,,
Raw,2309352,2313238000000,,,-1278056086532214272,0.0,4166.094120591879,5.5003782491588105,10.779890881322464,325,12,0.0,15,115999692322785,5,40.6,248.16819763183594,0.0272000003606081,0,0.0,0.0,,,,,0,,1,,
Raw,2309353,2313238000000,,,-1278056086532214272,0.0,4166.094120591879,5.5003782491588105,10.779890881322464,325,13,0.0,15,115999694203985,17,28.8,-649.7996826171875,0.061799999326467514,0,0.0,0.0,,,,,0,,1,,
Raw,2309353,2313238000000,,,-1278056086532214272,0.0,4166.094120591879,5.5003782491588105,10.779890881322464,325,15,0.0,15,115999686471573,17,28.9,-724.1094970703125,0.049799997359514236,0,0.0,0.0,,,,,0,,1,,
Raw,2309354,2313238000000,,,-1278056086532214272,0.0,4166.094120591879,5.5003782491588105,10.779890881322464,325,19,0.0,15,115999697387515,24,25.2,540.3191528320312,0.20489999651908875,0,0.0,0.0,,,,,0,,1,,
Raw,2309354,2313238000000,,,-1278056086532214272,0.0,4166.094120591879,5.5003782491588105,10.779890881322464,325,25,0.0,15,115999688131484,24,25.2,33.718406677246094,0.19140000641345978,0,0.0,0.0,,,,,0,,1,,
Raw,2309355,2313238000000,,,-1278056086532214272,0.0,4166.094120591879,5.5003782491588105,10.779890881322464,325,29,0.0,15,115999685586793,46,20.7,-677.2837524414062,0.8389999866485596,0,0.0,0.0,,,,,0,,1,,
Fix,gps,22.925366,120.294628,45.531738,0.000000,3.216000,1594023182000
NMEA,$GPGSV,4,1,13,05,55,292,30,06,42,060,22,12,23,262,41,13,28,184,29*78,1594023181189
NMEA,$GPGSV,4,2,13,15,06,208,29,19,43,144,25,25,10,291,25,29,02,323,21*74,1594023181190
NMEA,$GPGSV,4,3,13,02,52,358,,07,04,091,,09,18,043,,17,23,147,*7E,1594023181190
NMEA,$GPGSV,4,4,13,30,07,120,*4C,1594023181191
NMEA,$GLGSV,2,1,07,69,40,220,21,68,75,341,30,82,51,094,,84,03,326,*6B,1594023181192
NMEA,$GLGSV,2,2,07,83,49,004,,81,10,127,,67,25,025,*5D,1594023181192
NMEA,$GAGSV,1,1,0,*74,1594023181192
NMEA,$PQGSV,1,1,03,195,71,137,21,193,70,059,,194,11,161,,0,5*6E,1594023181192
NMEA,$PQGSV,1,1,0,*73,1594023181192
NMEA,$GNGSA,A,3,05,12,13,15,19,25,,,,,,,1.4,1.1,0.9,1*32,1594023181195
NMEA,$GNGSA,A,2,68,69,,,,,,,,,,,1.4,1.1,0.9,2*3E,1594023181195
NMEA,$GNVTG,,T,,M,0.0,N,0.0,K,A*3D,1594023181196
NMEA,$GNRMC,081302.00,A,2255.521959,N,12017.677682,E,0.0,,060720,2.8,W,A*1A,1594023181196
NMEA,$GNGGA,081302.00,2255.521959,N,12017.677682,E,1,08,1.1,28.1,M,17.5,M,,*46,1594023181196
Raw,2310384,2314230000000,,,-1278056086531957760,0.0,4166.907165199518,9.403749235114093,10.002964753475592,326,4,0.0,207,40382697593233,16,29.8,205.39649963378906,0.25519999861717224,0,0.0,0.0,,,,,0,,3,,
Raw,2310384,2314230000000,,,-1278056086531957760,0.0,4166.907165199518,9.403749235114093,10.002964753475592,326,5,0.0,15,116000692263566,16,29.5,-48.2977409362793,0.047700002789497375,0,0.0,0.0,,,,,0,,1,,
Raw,2310385,2314230000000,,,-1278056086531957760,0.0,4166.907165199518,9.403749235114093,10.002964753475592,326,6,0.0,15,116000688846510,35,22.2,109.0953598022461,0.7834999561309814,0,0.0,0.0,,,,,0,,1,,
Raw,2310385,2314230000000,,,-1278056086531957760,0.0,4166.907165199518,9.403749235114093,10.002964753475592,326,12,0.0,15,116000684065137,5,40.4,249.915283203125,0.04520000144839287,0,0.0,0.0,,,,,0,,1,,
Raw,2310385,2314230000000,,,-1278056086531957760,0.0,4166.907165199518,9.403749235114093,10.002964753475592,326,13,0.0,15,116000685949292,16,29.9,-648.062744140625,0.03720000013709068,0,0.0,0.0,,,,,0,,1,,
Raw,2310385,2314230000000,,,-1278056086531957760,0.0,4166.907165199518,9.403749235114093,10.002964753475592,326,15,0.0,15,116000678217169,17,28.2,-722.42919921875,0.06780000030994415,0,0.0,0.0,,,,,0,,1,,
Raw,2310386,2314230000000,,,-1278056086531957760,0.0,4166.907165199518,9.403749235114093,10.002964753475592,326,19,0.0,15,116000689128926,21,26.5,542.0910034179688,0.1111999973654747,0,0.0,0.0,,,,,0,,1,,
Raw,2310386,2314230000000,,,-1278056086531957760,0.0,4166.907165199518,9.403749235114093,10.002964753475592,326,25,0.0,15,116000679874590,31,23.6,35.41365432739258,0.6800000071525574,0,0.0,0.0,,,,,0,,1,,
Fix,gps,22.925366,120.294628,45.534851,0.000000,3.216000,1594023183000
NMEA,$GPGSV,3,1,12,05,55,292,30,06,42,060,22,12,23,262,40,13,28,184,30*77,1594023182191
NMEA,$GPGSV,3,2,12,15,06,208,28,19,43,144,27,25,10,291,24,02,52,358,*73,1594023182192
NMEA,$GPGSV,3,3,12,07,04,091,,09,18,043,,17,23,147,,30,07,120,*74,1594023182192
NMEA,$GLGSV,2,1,06,68,75,341,30,82,51,094,,84,03,326,,83,49,004,*60,1594023182193
NMEA,$GLGSV,2,2,06,81,10,127,,67,25,025,*6E,1594023182194
NMEA,$GAGSV,1,1,0,*74,1594023182195
NMEA,$PQGSV,1,1,03,195,71,137,22,193,70,059,,194,11,161,,0,5*6D,1594023182195
NMEA,$PQGSV,1,1,0,*73,1594023182196
NMEA,$GNGSA,A,3,05,12,13,15,19,25,,,,,,,1.4,1.1,0.9,1*32,1594023182199
NMEA,$GNGSA,A,2,68,,,,,,,,,,,,1.4,1.1,0.9,2*31,1594023182201
NMEA,$GNVTG,,T,,M,0.0,N,0.0,K,A*3D,1594023182201
NMEA,$GNRMC,081303.00,A,2255.521959,N,12017.677681,E,0.0,,060720,2.8,W,A*18,1594023182202
NMEA,$GNGGA,081303.00,2255.521959,N,12017.677681,E,1,07,1.1,28.1,M,17.5,M,,*4B,1594023182204
Fix,gps,22.925366,120.294628,45.537292,0.000000,3.216000,1594023184000
Raw,2311379,2315244000000,,,-1278056086531205376,0.0,4155.706614255905,14.82665261881713,10.245116006914792,327,18,0.0,207,40383707802248,40,21.6,147.04759216308594,0.9819999933242798,0,0.0,0.0,,,,,0,,3,,
Raw,2311380,2315244000000,,,-1278056086531205376,0.0,4155.706614255905,14.82665261881713,10.245116006914792,327,5,0.0,207,40383705822923,40,21.6,-488.38543701171875,0.9789999723434448,0,0.0,0.0,,,,,0,,3,,
Raw,2311380,2315244000000,,,-1278056086531205376,0.0,4155.706614255905,14.82665261881713,10.245116006914792,327,4,0.0,207,40383710840092,13,31.1,207.4669952392578,0.23880000412464142,0,0.0,0.0,,,,,0,,3,,
Raw,2311381,2315244000000,,,-1278056086531205376,0.0,4155.706614255905,14.82665261881713,10.245116006914792,327,5,0.0,15,116001705511339,17,28.2,-46.344486236572266,0.04829999804496765,0,0.0,0.0,,,,,0,,1,,
Raw,2311382,2315244000000,,,-1278056086531205376,0.0,4155.706614255905,14.82665261881713,10.245116006914792,327,6,0.0,15,116001702093767,40,21.6,110.65576934814453,0.8044999837875366,0,0.0,0.0,,,,,0,,1,,
Raw,2311382,2315244000000,,,-1278056086531205376,0.0,4155.706614255905,14.82665261881713,10.245116006914792,327,12,0.0,15,116001697311885,5,40.4,251.92904663085938,0.034700002521276474,0,0.0,0.0,,,,,0,,1,,
Raw,2311382,2315244000000,,,-1278056086531205376,0.0,4155.706614255905,14.82665261881713,10.245116006914792,327,13,0.0,15,116001699199090,16,29.0,-646.0943603515625,0.05820000171661377,0,0.0,0.0,,,,,0,,1,,
Raw,2311383,2315244000000,,,-1278056086531205376,0.0,4155.706614255905,14.82665261881713,10.245116006914792,327,15,0.0,15,116001691467196,16,29.0,-720.5354614257812,0.04619999974966049,0,0.0,0.0,,,,,0,,1,,
Raw,2311383,2315244000000,,,-1278056086531205376,0.0,4155.706614255905,14.82665261881713,10.245116006914792,327,19,0.0,15,116001702374663,31,23.9,544.5824584960938,0.684499979019165,0,0.0,0.0,,,,,0,,1,,
Raw,2311383,2315244000000,,,-1278056086531205376,0.0,4155.706614255905,14.82665261881713,10.245116006914792,327,25,0.0,15,116001693122064,27,24.4,37.67814636230469,0.6710000038146973,0,0.0,0.0,,,,,0,,1,,
Raw,2311384,2315244000000,,,-1278056086531205376,0.0,4155.706614255905,14.82665261881713,10.245116006914792,327,29,0.0,15,116001690581913,35,22.3,-672.5264282226562,0.7864999771118164,0,0.0,0.0,,,,,0,,1,,
NMEA,$GPGSV,4,1,13,05,55,292,28,06,42,060,22,12,23,262,40,13,28,184,29*70,1594023183193
NMEA,$GPGSV,4,2,13,15,06,208,29,19,43,144,24,25,10,291,24,29,02,323,22*77,1594023183194
NMEA,$GPGSV,4,3,13,02,52,358,,07,04,091,,09,18,043,,17,23,147,*7E,1594023183195
NMEA,$GPGSV,4,4,13,30,07,120,*4C,1594023183195
NMEA,$GLGSV,2,1,07,82,51,094,22,69,40,220,22,68,75,341,31,84,03,326,*69,1594023183196
NMEA,$GLGSV,2,2,07,83,49,004,,81,10,127,,67,25,025,*5D,1594023183196
NMEA,$GAGSV,1,1,0,*74,1594023183197
NMEA,$PQGSV,1,1,03,195,71,137,22,193,70,059,,194,11,161,,0,5*6D,1594023183197
NMEA,$PQGSV,1,1,0,*73,1594023183198
NMEA,$GNGSA,A,3,05,12,13,15,19,25,,,,,,,1.4,1.1,0.9,1*32,1594023183200
NMEA,$GNGSA,A,2,68,69,,,,,,,,,,,1.4,1.1,0.9,2*3E,1594023183202
NMEA,$GNVTG,,T,,M,0.0,N,0.0,K,A*3D,1594023183202
NMEA,$GNRMC,081304.00,A,2255.521959,N,12017.677679,E,0.0,,060720,2.8,W,A*18,1594023183203
NMEA,$GNGGA,081304.00,2255.521959,N,12017.677679,E,1,08,1.1,28.1,M,17.5,M,,*44,1594023183204
Raw,2312373,2316235000000,,,-1278056086530746112,0.0,4147.67162874341,20.367615932120554,11.006224039903753,328,4,0.0,207,40384701380200,14,30.4,206.5834503173828,0.2583000063896179,0,0.0,0.0,,,,,0,,3,,
Raw,2312373,2316235000000,,,-1278056086530746112,0.0,4147.67162874341,20.367615932120554,11.006224039903753,328,5,0.0,15,116002696052240,17,28.4,-47.21868133544922,0.06480000168085098,0,0.0,0.0,,,,,0,,1,,
Raw,2312374,2316235000000,,,-1278056086530746112,0.0,4147.67162874341,20.367615932120554,11.006224039903753,328,6,0.0,15,116002692634168,46,20.6,109.43789672851562,0.8495000004768372,0,0.0,0.0,,,,,0,,1,,
Raw,2312374,2316235000000,,,-1278056086530746112,0.0,4147.67162874341,20.367615932120554,11.006224039903753,328,12,0.0,15,116002687851827,5,40.3,251.01904296875,0.019700000062584877,0,0.0,0.0,,,,,0,,1,,
Raw,2312374,2316235000000,,,-1278056086530746112,0.0,4147.67162874341,20.367615932120554,11.006224039903753,328,13,0.0,15,116002689742030,17,28.4,-647.0479125976562,0.05429999902844429,0,0.0,0.0,,,,,0,,1,,
Raw,2312375,2316235000000,,,-1278056086530746112,0.0,4147.67162874341,20.367615932120554,11.006224039903753,328,15,0.0,15,116002682010330,16,29.4,-721.5091552734375,0.06270000338554382,0,0.0,0.0,,,,,0,,1,,
Raw,2312375,2316235000000,,,-1278056086530746112,0.0,4147.67162874341,20.367615932120554,11.006224039903753,328,19,0.0,15,116002692913675,27,24.0,543.43115234375,0.6694999933242798,0,0.0,0.0,,,,,0,,1,,
Raw,2312375,2316235000000,,,-1278056086530746112,0.0,4147.67162874341,20.367615932120554,11.006224039903753,328,25,0.0,15,116002683662747,31,23.9,36.298519134521484,0.6859999895095825,0,0.0,0.0,,,,,0,,1,,
Fix,gps,22.925366,120.294628,45.539307,0.000000,3.216000,1594023185000
NMEA,$GPGSV,3,1,12,05,55,292,28,06,42,060,21,12,23,262,40,13,28,184,28*74,1594023184187
NMEA,$GPGSV,3,2,12,15,06,208,29,19,43,144,24,25,10,291,24,02,52,358,*71,1594023184189
NMEA,$GPGSV,3,3,12,07,04,091,,09,18,043,,17,23,147,,30,07,120,*74,1594023184189
NMEA,$GLGSV,2,1,05,68,75,341,30,84,03,326,,83,49,004,,81,10,127,*6C,1594023184190
NMEA,$GLGSV,2,2,05,67,25,025,*51,1594023184190
NMEA,$GAGSV,1,1,0,*74,1594023184191
NMEA,$PQGSV,1,1,03,195,71,137,22,193,70,059,,194,11,161,,0,5*6D,1594023184191
NMEA,$PQGSV,1,1,0,*73,1594023184192
NMEA,$GNGSA,A,3,05,12,13,15,19,25,,,,,,,1.4,1.1,0.9,1*32,1594023184192
NMEA,$GNGSA,A,2,68,,,,,,,,,,,,1.4,1.1,0.9,2*31,1594023184194
NMEA,$GNVTG,,T,,M,0.0,N,0.0,K,A*3D,1594023184198
NMEA,$GNRMC,081305.00,A,2255.521959,N,12017.677679,E,0.0,,060720,2.8,W,A*19,1594023184208
NMEA,$GNGGA,081305.00,2255.521959,N,12017.677679,E,1,07,1.1,28.1,M,17.5,M,,*4A,1594023184208
Raw,2313367,2317246000000,,,-1278056086529770496,0.0,4150.23835375905,17.256903676401613,10.258882282530196,329,5,0.0,207,40385706391223,40,21.2,-489.2366027832031,0.9804999828338623,0,0.0,0.0,,,,,0,,3,,
Raw,2313368,2317246000000,,,-1278056086529770496,0.0,4150.23835375905,17.256903676401613,10.258882282530196,329,4,0.0,207,40385711404151,16,29.8,207.52694702148438,0.24620001018047333,0,0.0,0.0,,,,,0,,3,,
Raw,2313368,2317246000000,,,-1278056086529770496,0.0,4150.23835375905,17.256903676401613,10.258882282530196,329,5,0.0,15,116003706076975,19,27.7,-46.74170684814453,0.07259999960660934,0,0.0,0.0,,,,,0,,1,,
Raw,2313368,2317246000000,,,-1278056086529770496,0.0,4150.23835375905,17.256903676401613,10.258882282530196,329,12,0.0,15,116003697875556,6,39.3,250.68960571289062,0.03580000251531601,0,0.0,0.0,,,,,0,,1,,
Raw,2313368,2317246000000,,,-1278056086529770496,0.0,4150.23835375905,17.256903676401613,10.258882282530196,329,13,0.0,15,116003699768727,19,27.6,-648.1995849609375,0.09210000187158585,0,0.0,0.0,,,,,0,,1,,
Raw,2313369,2317246000000,,,-1278056086529770496,0.0,4150.23835375905,17.256903676401613,10.258882282530196,329,15,0.0,15,116003692037306,19,27.8,-722.2814331054688,0.08160000294446945,0,0.0,0.0,,,,,0,,1,,
Raw,2313369,2317246000000,,,-1278056086529770496,0.0,4150.23835375905,17.256903676401613,10.258882282530196,329,19,0.0,15,116003702936310,24,25.2,542.2228393554688,0.6044999957084656,0,0.0,0.0,,,,,0,,1,,
Raw,2313369,2317246000000,,,-1278056086529770496,0.0,4150.23835375905,17.256903676401613,10.258882282530196,329,25,0.0,15,116003693687035,35,22.8,37.35464859008789,0.7310000061988831,0,0.0,0.0,,,,,0,,1,,
Fix,gps,22.925366,120.294628,45.549255,0.000000,3.216000,1594023186000
NMEA,$GPGSV,3,1,12,05,55,292,28,12,23,262,39,13,28,184,28,15,06,208,28*7D,1594023185184
NMEA,$GPGSV,3,2,12,19,43,144,25,25,10,291,23,02,52,358,,07,04,091,*7F,1594023185184
NMEA,$GPGSV,3,3,12,09,18,043,,17,23,147,,29,02,323,,30,07,120,*74,1594023185184
NMEA,$GLGSV,2,1,07,69,40,220,21,68,75,341,30,82,51,094,,84,03,326,*6B,1594023185184
NMEA,$GLGSV,2,2,07,83,49,004,,81,10,127,,67,25,025,*5D,1594023185184
NMEA,$GAGSV,1,1,0,*74,1594023185184
NMEA,$PQGSV,1,1,02,193,70,059,,194,11,161,,0,5*62,1594023185185
NMEA,$PQGSV,1,1,0,*73,1594023185185
NMEA,$GNGSA,A,3,05,12,13,15,19,25,,,,,,,1.6,1.4,0.9,1*35,1594023185186
NMEA,$GNGSA,A,2,68,69,,,,,,,,,,,1.6,1.4,0.9,2*39,1594023185186
NMEA,$GNVTG,,T,,M,0.0,N,0.0,K,A*3D,1594023185186
NMEA,$GNRMC,081306.00,A,2255.521959,N,12017.677678,E,0.0,,060720,2.8,W,A*1B,1594023185186
NMEA,$GNGGA,081306.00,2255.521959,N,12017.677678,E,1,08,1.4,28.1,M,17.5,M,,*42,1594023185186
Fix,gps,22.925366,120.294629,45.224976,0.000000,3.216000,1594023187000
Raw,2314526,2318241000000,,,-1278056086528843008,0.0,4167.874343693256,16.733745439077374,12.121897571900305,330,4,0.0,207,40386705475834,14,30.6,207.5113525390625,0.23430000245571136,0,0.0,0.0,,,,,0,,3,,
Raw,2314527,2318241000000,,,-1278056086528843008,0.0,4167.874343693256,16.733745439077374,12.121897571900305,330,5,0.0,15,116004700149598,17,28.3,-46.38401794433594,0.07079999893903732,0,0.0,0.0,,,,,0,,1,,
Raw,2314528,2318241000000,,,-1278056086528843008,0.0,4167.874343693256,16.733745439077374,12.121897571900305,330,6,0.0,15,116004696730432,24,25.0,111.16004943847656,0.6255000233650208,0,0.0,0.0,,,,,0,,1,,
Raw,2314528,2318241000000,,,-1278056086528843008,0.0,4167.874343693256,16.733745439077374,12.121897571900305,330,12,0.0,15,116004691947167,5,40.5,251.83836364746094,0.025700001046061516,0,0.0,0.0,,,,,0,,1,,
Raw,2314528,2318241000000,,,-1278056086528843008,0.0,4167.874343693256,16.733745439077374,12.121897571900305,330,13,0.0,15,116004693843322,17,28.1,-646.32470703125,0.06030000001192093,0,0.0,0.0,,,,,0,,1,,
Raw,2314528,2318241000000,,,-1278056086528843008,0.0,4167.874343693256,16.733745439077374,12.121897571900305,330,15,0.0,15,116004686112177,16,29.2,-720.87890625,0.03869999945163727,0,0.0,0.0,,,,,0,,1,,
Raw,2314529,2318241000000,,,-1278056086528843008,0.0,4167.874343693256,16.733745439077374,12.121897571900305,330,19,0.0,15,116004697007161,27,24.2,543.43115234375,0.6769999861717224,0,0.0,0.0,,,,,0,,1,,
Raw,2314529,2318241000000,,,-1278056086528843008,0.0,4167.874343693256,16.733745439077374,12.121897571900305,330,25,0.0,15,116004687759529,27,24.5,37.373680114746094,0.612000048160553,0,0.0,0.0,,,,,0,,1,,
NMEA,$GPGSV,4,1,13,05,55,292,28,06,42,060,25,12,23,262,41,13,28,184,28*77,1594023186187
NMEA,$GPGSV,4,2,13,15,06,208,29,19,43,144,24,25,10,291,25,02,52,358,*76,1594023186187
NMEA,$GPGSV,4,3,13,07,04,091,,09,18,043,,17,23,147,,29,02,323,*7E,1594023186187
NMEA,$GPGSV,4,4,13,30,07,120,*4C,1594023186187
NMEA,$GLGSV,2,1,06,68,75,341,31,82,51,094,,84,03,326,,83,49,004,*61,1594023186188
NMEA,$GLGSV,2,2,06,81,10,127,,67,25,025,*6E,1594023186188
NMEA,$GAGSV,1,1,0,*74,1594023186188
NMEA,$PQGSV,1,1,03,193,70,059,,194,11,161,,195,71,137,,0,5*6D,1594023186188
NMEA,$PQGSV,1,1,0,*73,1594023186188
NMEA,$GNGSA,A,3,05,12,13,15,19,25,,,,,,,1.6,1.4,0.9,1*35,1594023186189
NMEA,$GNGSA,A,2,68,,,,,,,,,,,,1.6,1.4,0.9,2*36,1594023186189
NMEA,$GNVTG,,T,,M,0.0,N,0.0,K,A*3D,1594023186189
NMEA,$GNRMC,081307.00,A,2255.521988,N,12017.677759,E,0.0,,060720,2.8,W,A*14,1594023186189
NMEA,$GNGGA,081307.00,2255.521988,N,12017.677759,E,1,07,1.4,27.8,M,17.5,M,,*44,1594023186189
Raw,2315393,2319232000000,,,-1278056086528155392,0.0,4173.005931079388,19.512808949002675,10.28038741591646,331,5,0.0,207,40387690779404,40,21.7,-488.7034912109375,0.9864999651908875,0,0.0,0.0,,,,,0,,3,,
Raw,2315394,2319232000000,,,-1278056086528155392,0.0,4173.005931079388,19.512808949002675,10.28038741591646,331,4,0.0,207,40387695787547,13,31.2,206.68373107910156,0.24630001187324524,0,0.0,0.0,,,,,0,,3,,
Raw,2315395,2319232000000,,,-1278056086528155392,0.0,4173.005931079388,19.512808949002675,10.28038741591646,331,5,0.0,15,116005690462050,16,29.1,-47.378116607666016,0.04470000043511391,0,0.0,0.0,,,,,0,,1,,
Raw,2315395,2319232000000,,,-1278056086528155392,0.0,4173.005931079388,19.512808949002675,10.28038741591646,331,6,0.0,15,116005687042524,31,23.8,109.71381378173828,0.6620000004768372,0,0.0,0.0,,,,,0,,1,,
Raw,2315396,2319232000000,,,-1278056086528155392,0.0,4173.005931079388,19.512808949002675,10.28038741591646,331,12,0.0,15,116005682258721,5,40.6,250.85244750976562,0.0422000028192997,0,0.0,0.0,,,,,0,,1,,
Raw,2315397,2319232000000,,,-1278056086528155392,0.0,4173.005931079388,19.512808949002675,10.28038741591646,331,13,0.0,15,116005684157837,19,27.5,-647.2632446289062,0.06960000097751617,0,0.0,0.0,,,,,0,,1,,
Raw,2315398,2319232000000,,,-1278056086528155392,0.0,4173.005931079388,19.512808949002675,10.28038741591646,331,15,0.0,15,116005676426938,17,28.9,-721.8514404296875,0.06480000168085098,0,0.0,0.0,,,,,0,,1,,
Raw,2315399,2319232000000,,,-1278056086528155392,0.0,4173.005931079388,19.512808949002675,10.28038741591646,331,19,0.0,15,116005687317657,27,24.3,543.8688354492188,0.6620000004768372,0,0.0,0.0,,,,,0,,1,,
Raw,2315400,2319232000000,,,-1278056086528155392,0.0,4173.005931079388,19.512808949002675,10.28038741591646,331,25,0.0,15,116005678071765,27,24.6,37.18338394165039,0.6285000443458557,0,0.0,0.0,,,,,0,,1,,
Fix,gps,22.925367,120.294630,45.226746,0.000000,4.288000,1594023188000
NMEA,$GPGSV,4,1,13,05,55,292,29,06,42,060,24,12,23,262,41,13,28,184,28*77,1594023187195
NMEA,$GPGSV,4,2,13,15,06,208,29,19,43,144,24,25,10,291,25,02,52,358,*76,1594023187196
NMEA,$GPGSV,4,3,13,07,04,091,,09,18,043,,17,23,147,,29,02,323,*7E,1594023187197
NMEA,$GPGSV,4,4,13,30,07,120,*4C,1594023187199
NMEA,$GLGSV,2,1,07,69,40,220,22,68,75,341,31,82,51,094,,84,03,326,*69,1594023187201
NMEA,$GLGSV,2,2,07,83,49,004,,81,10,127,,67,25,025,*5D,1594023187202
NMEA,$GAGSV,1,1,0,*74,1594023187202
NMEA,$PQGSV,1,1,03,195,71,137,21,193,70,059,,194,11,161,,0,5*6E,1594023187203
NMEA,$PQGSV,1,1,0,*73,1594023187203
NMEA,$GNGSA,A,3,05,12,13,15,19,25,,,,,,,1.6,1.4,0.9,1*35,1594023187206
NMEA,$GNGSA,A,2,68,69,,,,,,,,,,,1.6,1.4,0.9,2*39,1594023187206
NMEA,$GNVTG,,T,,M,0.0,N,0.0,K,A*3D,1594023187207
NMEA,$GNRMC,081308.00,A,2255.522001,N,12017.677799,E,0.0,,060720,2.8,W,A*1C,1594023187207
NMEA,$GNGGA,081308.00,2255.522001,N,12017.677799,E,1,08,1.4,27.8,M,17.5,M,,*43,1594023187207
NMEA,$GPGSV,4,1,13,05,55,292,29,06,42,060,23,12,23,262,40,13,28,184,30*78,1594023188189
Raw,2316375,2320246000000,,,-1278056086527544320,0.0,4180.104471743107,16.43590717517359,11.31132240375514,332,5,0.0,207,40388704169696,46,20.5,-488.5257263183594,1.0674999952316284,0,0.0,0.0,,,,,0,,3,,
Raw,2316376,2320246000000,,,-1278056086527544320,0.0,4180.104471743107,16.43590717517359,11.31132240375514,332,4,0.0,207,40388709175537,14,30.5,207.41830444335938,0.2402999997138977,0,0.0,0.0,,,,,0,,3,,
Raw,2316376,2320246000000,,,-1278056086527544320,0.0,4180.104471743107,16.43590717517359,11.31132240375514,332,5,0.0,15,116006703850928,17,28.5,-46.692378997802734,0.07530000060796738,0,0.0,0.0,,,,,0,,1,,
Raw,2316376,2320246000000,,,-1278056086527544320,0.0,4180.104471743107,16.43590717517359,11.31132240375514,332,6,0.0,15,116006700430686,31,23.1,110.49402618408203,0.7414999604225159,0,0.0,0.0,,,,,0,,1,,
Raw,2316377,2320246000000,,,-1278056086527544320,0.0,4180.104471743107,16.43590717517359,11.31132240375514,332,12,0.0,15,116006695646548,5,40.1,251.58497619628906,0.031700000166893005,0,0.0,0.0,,,,,0,,1,,
Raw,2316377,2320246000000,,,-1278056086527544320,0.0,4180.104471743107,16.43590717517359,11.31132240375514,332,13,0.0,15,116006697548723,16,29.9,-646.6328735351562,0.0552000030875206,0,0.0,0.0,,,,,0,,1,,
Raw,2316378,2320246000000,,,-1278056086527544320,0.0,4180.104471743107,16.43590717517359,11.31132240375514,332,15,0.0,15,116006689818085,17,28.7,-721.4699096679688,0.45500001311302185,0,0.0,0.0,,,,,0,,1,,
Raw,2316378,2320246000000,,,-1278056086527544320,0.0,4180.104471743107,16.43590717517359,11.31132240375514,332,19,0.0,15,116006700704456,27,24.8,543.6975708007812,0.6315000057220459,0,0.0,0.0,,,,,0,,1,,
Raw,2316378,2320246000000,,,-1278056086527544320,0.0,4180.104471743107,16.43590717517359,11.31132240375514,332,25,0.0,15,116006691460300,31,23.9,37.15483856201172,0.6679999828338623,0,0.0,0.0,,,,,0,,1,,
Raw,2316379,2320246000000,,,-1278056086527544320,0.0,4180.104471743107,16.43590717517359,11.31132240375514,332,29,0.0,15,116006688932143,35,22.5,-672.3075561523438,0.7234999537467957,0,0.0,0.0,,,,,0,,1,,
Fix,gps,22.925367,120.294630,45.227295,0.000000,4.288000,1594023189000
NMEA,$GPGSV,4,2,13,15,06,208,29,19,43,144,25,25,10,291,24,29,02,323,23*77,1594023188191
NMEA,$GPGSV,4,3,13,02,52,358,,07,04,091,,09,18,043,,17,23,147,*7E,1594023188192
NMEA,$GPGSV,4,4,13,30,07,120,*4C,1594023188193
NMEA,$GLGSV,2,1,07,69,40,220,21,68,75,341,31,82,51,094,,84,03,326,*6A,1594023188193
NMEA,$GLGSV,2,2,07,83,49,004,,81,10,127,,67,25,025,*5D,1594023188195
NMEA,$GAGSV,1,1,0,*74,1594023188196
NMEA,$PQGSV,1,1,03,195,71,137,21,193,70,059,,194,11,161,,0,5*6E,1594023188196
NMEA,$PQGSV,1,1,0,*73,1594023188197
NMEA,$GNGSA,A,3,05,12,13,15,19,25,,,,,,,1.6,1.4,0.9,1*35,1594023188200
NMEA,$GNGSA,A,2,68,69,,,,,,,,,,,1.6,1.4,0.9,2*39,1594023188200
NMEA,$GNVTG,,T,,M,0.0,N,0.0,K,A*3D,1594023188201
NMEA,$GNRMC,081309.00,A,2255.522009,N,12017.677820,E,0.0,,060720,2.8,W,A*18,1594023188202
NMEA,$GNGGA,081309.00,2255.522009,N,12017.677820,E,1,08,1.4,27.8,M,17.5,M,,*47,1594023188203
Raw,2317390,2321237000000,,,-1278056086527355136,0.0,4181.486554443836,18.54151112130979,13.195391108166648,333,5,0.0,207,40389694982136,40,21.0,-487.9458312988281,0.9924999475479126,0,0.0,0.0,,,,,0,,3,,
Raw,2317392,2321237000000,,,-1278056086527355136,0.0,4181.486554443836,18.54151112130979,13.195391108166648,333,4,0.0,207,40389699985889,12,32.0,209.2166290283203,0.2498999983072281,0,0.0,0.0,,,,,0,,3,,
Raw,2317393,2321237000000,,,-1278056086527355136,0.0,4181.486554443836,18.54151112130979,13.195391108166648,333,5,0.0,15,116007694662136,17,28.5,-44.93831253051758,0.061799999326467514,0,0.0,0.0,,,,,0,,1,,
Raw,2317394,2321237000000,,,-1278056086527355136,0.0,4181.486554443836,18.54151112130979,13.195391108166648,333,6,0.0,15,116007691241446,27,24.0,111.4930648803711,0.6679999828338623,0,0.0,0.0,,,,,0,,1,,
Raw,2317395,2321237000000,,,-1278056086527355136,0.0,4181.486554443836,18.54151112130979,13.195391108166648,333,12,0.0,15,116007686456768,5,40.1,253.3203582763672,0.018200000748038292,0,0.0,0.0,,,,,0,,1,,
Raw,2317396,2321237000000,,,-1278056086527355136,0.0,4181.486554443836,18.54151112130979,13.195391108166648,333,13,0.0,15,116007688361910,17,28.7,-644.9801635742188,0.052799999713897705,0,0.0,0.0,,,,,0,,1,,
Raw,2317397,2321237000000,,,-1278056086527355136,0.0,4181.486554443836,18.54151112130979,13.195391108166648,333,15,0.0,15,116007680631530,17,28.7,-719.7667846679688,0.4715000092983246,0,0.0,0.0,,,,,0,,1,,
Raw,2317399,2321237000000,,,-1278056086527355136,0.0,4181.486554443836,18.54151112130979,13.195391108166648,333,19,0.0,15,116007691513735,31,23.3,545.6671142578125,0.7279999852180481,0,0.0,0.0,,,,,0,,1,,
Raw,2317400,2321237000000,,,-1278056086527355136,0.0,4181.486554443836,18.54151112130979,13.195391108166648,333,25,0.0,15,116007682271227,31,23.5,38.65816116333008,0.684499979019165,0,0.0,0.0,,,,,0,,1,,
Fix,gps,22.925367,120.294631,45.226807,0.000000,4.288000,1594023190000
NMEA,$GPGSV,3,1,12,05,55,292,29,06,42,060,24,12,23,262,40,13,28,184,29*71,1594023189192
NMEA,$GPGSV,3,2,12,15,06,208,29,19,43,144,23,25,10,291,24,02,52,358,*76,1594023189195
NMEA,$GPGSV,3,3,12,07,04,091,,09,18,043,,17,23,147,,30,07,120,*74,1594023189196
NMEA,$GLGSV,2,1,07,69,40,220,21,68,75,341,32,82,51,094,,84,03,326,*69,1594023189197
NMEA,$GLGSV,2,2,07,83,49,004,,81,10,127,,67,25,025,*5D,1594023189200
NMEA,$GAGSV,1,1,0,*74,1594023189201
NMEA,$PQGSV,1,1,03,195,71,137,21,193,70,059,,194,11,161,,0,5*6E,1594023189203
NMEA,$PQGSV,1,1,0,*73,1594023189205
NMEA,$GNGSA,A,3,05,12,13,15,19,25,,,,,,,1.6,1.4,0.9,1*35,1594023189207
NMEA,$GNGSA,A,2,68,69,,,,,,,,,,,1.6,1.4,0.9,2*39,1594023189207
NMEA,$GNVTG,,T,,M,0.0,N,0.0,K,A*3D,1594023189208
NMEA,$GNRMC,081310.00,A,2255.522012,N,12017.677831,E,0.0,,060720,2.8,W,A*1A,1594023189208
NMEA,$GNGGA,081310.00,2255.522012,N,12017.677831,E,1,08,1.4,27.8,M,17.5,M,,*45,1594023189208
Raw,2318381,2322252000000,,,-1278056086526731008,0.0,4180.359188467264,24.1212283693757,13.943045410099236,334,4,0.0,207,40390714360945,14,30.7,208.39199829101562,0.24780000746250153,0,0.0,0.0,,,,,0,,3,,
Raw,2318381,2322252000000,,,-1278056086526731008,0.0,4180.359188467264,24.1212283693757,13.943045410099236,334,5,0.0,15,116008709038117,19,27.5,-45.88949966430664,0.0771000012755394,0,0.0,0.0,,,,,0,,1,,
Raw,2318381,2322252000000,,,-1278056086526731008,0.0,4180.359188467264,24.1212283693757,13.943045410099236,334,6,0.0,15,116008705616850,27,24.0,111.72142028808594,0.6589999794960022,0,0.0,0.0,,,,,0,,1,,
Raw,2318382,2322252000000,,,-1278056086526731008,0.0,4180.359188467264,24.1212283693757,13.943045410099236,334,12,0.0,15,116008700831754,6,39.9,252.47337341308594,0.040300000458955765,0,0.0,0.0,,,,,0,,1,,
Raw,2318382,2322252000000,,,-1278056086526731008,0.0,4180.359188467264,24.1212283693757,13.943045410099236,334,13,0.0,15,116008702739932,17,28.2,-645.8424072265625,0.0737999975681305,0,0.0,0.0,,,,,0,,1,,
Raw,2318382,2322252000000,,,-1278056086526731008,0.0,4180.359188467264,24.1212283693757,13.943045410099236,334,15,0.0,15,116008695009785,17,28.3,-720.5826416015625,0.0632999986410141,0,0.0,0.0,,,,,0,,1,,
Raw,2318382,2322252000000,,,-1278056086526731008,0.0,4180.359188467264,24.1212283693757,13.943045410099236,334,19,0.0,15,116008705887781,35,22.3,544.3160400390625,0.7789999842643738,0,0.0,0.0,,,,,0,,1,,
Raw,2318383,2322252000000,,,-1278056086526731008,0.0,4180.359188467264,24.1212283693757,13.943045410099236,334,25,0.0,15,116008696646954,35,22.3,38.601070404052734,0.7954999804496765,0,0.0,0.0,,,,,0,,1,,
Fix,gps,22.925367,120.294631,45.223999,0.000000,4.288000,1594023191000
NMEA,$GPGSV,4,1,13,05,55,292,28,06,42,060,24,12,23,262,40,13,28,184,28*77,1594023190190
NMEA,$GPGSV,4,2,13,15,06,208,28,19,43,144,22,25,10,291,22,02,52,358,*76,1594023190193
NMEA,$GPGSV,4,3,13,07,04,091,,09,18,043,,17,23,147,,29,02,323,*7E,1594023190193
NMEA,$GPGSV,4,4,13,30,07,120,*4C,1594023190194
NMEA,$GLGSV,2,1,06,68,75,341,31,82,51,094,,84,03,326,,83,49,004,*61,1594023190194
NMEA,$GLGSV,2,2,06,81,10,127,,67,25,025,*6E,1594023190195
NMEA,$GAGSV,1,1,0,*74,1594023190205
NMEA,$PQGSV,1,1,02,193,70,059,,194,11,161,,0,5*62,1594023190207
NMEA,$PQGSV,1,1,0,*73,1594023190208
NMEA,$GNGSA,A,3,05,12,13,15,19,25,,,,,,,1.6,1.4,0.9,1*35,1594023190209
NMEA,$GNGSA,A,2,68,,,,,,,,,,,,1.6,1.4,0.9,2*36,1594023190209
NMEA,$GNVTG,,T,,M,0.0,N,0.0,K,A*3D,1594023190209
NMEA,$GNRMC,081311.00,A,2255.522013,N,12017.677837,E,0.0,,060720,2.8,W,A*1C,1594023190209
NMEA,$GNGGA,081311.00,2255.522013,N,12017.677837,E,1,07,1.4,27.8,M,17.5,M,,*4C,1594023190209
Fix,gps,22.925367,120.294631,45.225647,0.000000,4.288000,1594023192000
Raw,2319383,2323242000000,,,-1278056086526037504,0.0,4191.12341478467,19.56507307961465,11.717029895021538,335,5,0.0,207,40391698668345,40,21.2,-488.6941223144531,0.9984999895095825,0,0.0,0.0,,,,,0,,3,,
Raw,2319383,2323242000000,,,-1278056086526037504,0.0,4191.12341478467,19.56507307961465,11.717029895021538,335,4,0.0,207,40391703666985,14,30.7,207.669921875,0.2612999975681305,0,0.0,0.0,,,,,0,,3,,
Raw,2319383,2323242000000,,,-1278056086526037504,0.0,4191.12341478467,19.56507307961465,11.717029895021538,335,5,0.0,15,116009698344940,19,27.9,-46.729705810546875,0.09059999883174896,0,0.0,0.0,,,,,0,,1,,
Raw,2319384,2323242000000,,,-1278056086526037504,0.0,4191.12341478467,19.56507307961465,11.717029895021538,335,6,0.0,15,116009694923343,24,25.2,110.13813018798828,0.20040000975131989,0,0.0,0.0,,,,,0,,1,,
Raw,2319384,2323242000000,,,-1278056086526037504,0.0,4191.12341478467,19.56507307961465,11.717029895021538,335,12,0.0,15,116009690137613,5,40.1,251.5859375,0.02419999986886978,0,0.0,0.0,,,,,0,,1,,
Raw,2319384,2323242000000,,,-1278056086526037504,0.0,4191.12341478467,19.56507307961465,11.717029895021538,335,13,0.0,15,116009692048740,19,27.8,-646.7573852539062,0.08160000294446945,0,0.0,0.0,,,,,0,,1,,
Raw,2319384,2323242000000,,,-1278056086526037504,0.0,4191.12341478467,19.56507307961465,11.717029895021538,335,15,0.0,15,116009684318832,16,29.1,-721.4707641601562,0.065700002014637,0,0.0,0.0,,,,,0,,1,,
Raw,2319385,2323242000000,,,-1278056086526037504,0.0,4191.12341478467,19.56507307961465,11.717029895021538,335,19,0.0,15,116009695192632,31,23.2,544.144775390625,0.7339999675750732,0,0.0,0.0,,,,,0,,1,,
Raw,2319385,2323242000000,,,-1278056086526037504,0.0,4191.12341478467,19.56507307961465,11.717029895021538,335,25,0.0,15,116009685953485,31,23.8,36.641048431396484,0.6589999794960022,0,0.0,0.0,,,,,0,,1,,
NMEA,$GPGSV,4,1,13,05,55,292,28,06,42,060,25,12,23,262,40,13,28,184,28*76,1594023191192
NMEA,$GPGSV,4,2,13,15,06,208,29,19,43,144,23,25,10,291,24,02,52,358,*70,1594023191193
NMEA,$GPGSV,4,3,13,07,04,091,,09,18,043,,17,23,147,,29,02,323,*7E,1594023191193
NMEA,$GPGSV,4,4,13,30,07,120,*4C,1594023191194
NMEA,$GLGSV,2,1,07,69,40,220,21,68,75,341,31,82,51,094,,84,03,326,*6A,1594023191195
NMEA,$GLGSV,2,2,07,83,49,004,,81,10,127,,67,25,025,*5D,1594023191196
NMEA,$GAGSV,1,1,0,*74,1594023191197
NMEA,$PQGSV,1,1,03,193,70,059,,194,11,161,,195,71,137,,0,5*6D,1594023191199
NMEA,$PQGSV,1,1,0,*73,1594023191199
NMEA,$GNGSA,A,3,05,12,13,15,19,25,,,,,,,1.6,1.4,0.9,1*35,1594023191204
NMEA,$GNGSA,A,2,68,69,,,,,,,,,,,1.6,1.4,0.9,2*39,1594023191205
NMEA,$GNVTG,,T,,M,0.0,N,0.0,K,A*3D,1594023191205
NMEA,$GNRMC,081312.00,A,2255.522013,N,12017.677839,E,0.0,,060720,2.8,W,A*11,1594023191205
NMEA,$GNGGA,081312.00,2255.522013,N,12017.677839,E,1,08,1.4,27.8,M,17.5,M,,*4E,1594023191205
Raw,2320388,2324238000000,,,-1278056086525308928,0.0,4203.0783370137215,17.30370583237889,11.5514663735633,336,5,0.0,207,40392693941173,40,21.0,-489.7229919433594,0.9909999966621399,0,0.0,0.0,,,,,0,,3,,
Raw,2320388,2324238000000,,,-1278056086525308928,0.0,4203.0783370137215,17.30370583237889,11.5514663735633,336,4,0.0,207,40392698937570,16,29.8,206.9460906982422,0.2567000091075897,0,0.0,0.0,,,,,0,,3,,
Raw,2320388,2324238000000,,,-1278056086525308928,0.0,4203.0783370137215,17.30370583237889,11.5514663735633,336,5,0.0,15,116010693616429,21,26.9,-47.732337951660156,0.11719999462366104,0,0.0,0.0,,,,,0,,1,,
Raw,2320388,2324238000000,,,-1278056086525308928,0.0,4203.0783370137215,17.30370583237889,11.5514663735633,336,6,0.0,15,116010690194099,31,23.2,108.83847045898438,0.7264999747276306,0,0.0,0.0,,,,,0,,1,,
Raw,2320389,2324238000000,,,-1278056086525308928,0.0,4203.0783370137215,17.30370583237889,11.5514663735633,336,12,0.0,15,116010685408060,6,39.8,250.8392333984375,0.04780000075697899,0,0.0,0.0,,,,,0,,1,,
Raw,2320389,2324238000000,,,-1278056086525308928,0.0,4203.0783370137215,17.30370583237889,11.5514663735633,336,13,0.0,15,116010687322210,19,27.2,-647.5122680664062,0.5220000147819519,0,0.0,0.0,,,,,0,,1,,
Raw,2320389,2324238000000,,,-1278056086525308928,0.0,4203.0783370137215,17.30370583237889,11.5514663735633,336,15,0.0,15,116010679592527,17,28.7,-722.1835327148438,0.4699999988079071,0,0.0,0.0,,,,,0,,1,,
Raw,2320389,2324238000000,,,-1278056086525308928,0.0,4203.0783370137215,17.30370583237889,11.5514663735633,336,19,0.0,15,116010690462207,31,23.7,542.375,0.6664999723434448,0,0.0,0.0,,,,,0,,1,,
Raw,2320390,2324238000000,,,-1278056086525308928,0.0,4203.0783370137215,17.30370583237889,11.5514663735633,336,25,0.0,15,116010681224671,35,22.4,36.15579605102539,0.8029999732971191,0,0.0,0.0,,,,,0,,1,,
Fix,gps,22.925367,120.294631,45.225464,0.000000,4.288000,1594023193000
NMEA,$GPGSV,4,1,13,05,55,292,27,06,42,060,23,12,23,262,40,13,28,184,27*70,1594023192194
NMEA,$GPGSV,4,2,13,15,06,208,29,19,43,144,24,25,10,291,22,02,52,358,*71,1594023192195
NMEA,$GPGSV,4,3,13,07,04,091,,09,18,043,,17,23,147,,29,02,323,*7E,1594023192196
NMEA,$GPGSV,4,4,13,30,07,120,*4C,1594023192196
NMEA,$GLGSV,2,1,07,69,40,220,21,68,75,341,30,82,51,094,,84,03,326,*6B,1594023192197
NMEA,$GLGSV,2,2,07,83,49,004,,81,10,127,,67,25,025,*5D,1594023192198
NMEA,$GAGSV,1,1,0,*74,1594023192198
NMEA,$PQGSV,1,1,03,193,70,059,,194,11,161,,195,71,137,,0,5*6D,1594023192199
NMEA,$PQGSV,1,1,0,*73,1594023192200
NMEA,$GNGSA,A,3,05,12,13,15,19,25,,,,,,,1.6,1.4,0.9,1*35,1594023192203
NMEA,$GNGSA,A,2,68,69,,,,,,,,,,,1.6,1.4,0.9,2*39,1594023192206
NMEA,$GNVTG,,T,,M,0.0,N,0.0,K,A*3D,1594023192206
NMEA,$GNRMC,081313.00,A,2255.522013,N,12017.677840,E,0.0,,060720,2.8,W,A*1E,1594023192206
NMEA,$GNGGA,081313.00,2255.522013,N,12017.677840,E,1,08,1.4,27.8,M,17.5,M,,*41,1594023192207
Raw,2321400,2325249000000,,,-1278056086525027072,0.0,4217.192996293306,14.581929433815816,14.006561144836384,337,5,0.0,207,40393704660882,35,22.3,-490.33099365234375,0.9174999594688416,0,0.0,0.0,,,,,0,,3,,
Raw,2321401,2325249000000,,,-1278056086525027072,0.0,4217.192996293306,14.581929433815816,14.006561144836384,337,4,0.0,207,40393709655018,13,31.5,206.30833435058594,0.23730000853538513,0,0.0,0.0,,,,,0,,3,,
Raw,2321402,2325249000000,,,-1278056086525027072,0.0,4217.192996293306,14.581929433815816,14.006561144836384,337,5,0.0,15,116011704334660,19,27.3,-48.13087844848633,0.09960000216960907,0,0.0,0.0,,,,,0,,1,,
Raw,2321402,2325249000000,,,-1278056086525027072,0.0,4217.192996293306,14.581929433815816,14.006561144836384,337,6,0.0,15,116011700911885,40,21.9,108.4769058227539,0.8014999628067017,0,0.0,0.0,,,,,0,,1,,
Raw,2321402,2325249000000,,,-1278056086525027072,0.0,4217.192996293306,14.581929433815816,14.006561144836384,337,12,0.0,15,116011696125329,5,40.1,250.146484375,0.03319999948143959,0,0.0,0.0,,,,,0,,1,,
Raw,2321403,2325249000000,,,-1278056086525027072,0.0,4217.192996293306,14.581929433815816,14.006561144836384,337,13,0.0,15,116011698042480,19,27.7,-648.3026123046875,0.09059999883174896,0,0.0,0.0,,,,,0,,1,,
Raw,2321403,2325249000000,,,-1278056086525027072,0.0,4217.192996293306,14.581929433815816,14.006561144836384,337,15,0.0,15,116011690313087,16,29.1,-723.2301635742188,0.45649999380111694,0,0.0,0.0,,,,,0,,1,,
Raw,2321403,2325249000000,,,-1278056086525027072,0.0,4217.192996293306,14.581929433815816,14.006561144836384,337,19,0.0,15,116011701178330,27,24.4,542.384521484375,0.6829999685287476,0,0.0,0.0,,,,,0,,1,,
Raw,2321403,2325249000000,,,-1278056086525027072,0.0,4217.192996293306,14.581929433815816,14.006561144836384,337,25,0.0,15,116011691942685,24,25.0,35.677032470703125,0.19590000808238983,0,0.0,0.0,,,,,0,,1,,
Fix,gps,22.925367,120.294631,45.224548,0.000000,4.288000,1594023194000
NMEA,$GPGSV,4,1,13,05,55,292,27,06,42,060,22,12,23,262,40,13,28,184,28*7E,1594023193192
NMEA,$GPGSV,4,2,13,15,06,208,29,19,43,144,24,25,10,291,25,02,52,358,*76,1594023193194
NMEA,$GPGSV,4,3,13,07,04,091,,09,18,043,,17,23,147,,29,02,323,*7E,1594023193197
NMEA,$GPGSV,4,4,13,30,07,120,*4C,1594023193200
NMEA,$GLGSV,2,1,07,69,40,220,22,68,75,341,32,82,51,094,,84,03,326,*6A,1594023193201
NMEA,$GLGSV,2,2,07,83,49,004,,81,10,127,,67,25,025,*5D,1594023193202
NMEA,$GAGSV,1,1,0,*74,1594023193202
NMEA,$PQGSV,1,1,03,193,70,059,,194,11,161,,195,71,137,,0,5*6D,1594023193203
NMEA,$PQGSV,1,1,0,*73,1594023193204
NMEA,$GNGSA,A,3,05,12,13,15,19,25,,,,,,,1.6,1.4,0.9,1*35,1594023193206
NMEA,$GNGSA,A,2,68,69,,,,,,,,,,,1.6,1.4,0.9,2*39,1594023193206
NMEA,$GNVTG,,T,,M,0.0,N,0.0,K,A*3D,1594023193207
NMEA,$GNRMC,081314.00,A,2255.522013,N,12017.677841,E,0.0,,060720,2.8,W,A*18,1594023193207
NMEA,$GNGGA,081314.00,2255.522013,N,12017.677841,E,1,08,1.4,27.8,M,17.5,M,,*47,1594023193208
Raw,2322384,2326243000000,,,-1278056086524175616,0.0,4216.555505990982,12.387628045774003,14.144134829767514,338,5,0.0,207,40394697811132,35,22.0,-489.1991882324219,0.9369999766349792,0,0.0,0.0,,,,,0,,3,,
Raw,2322385,2326243000000,,,-1278056086524175616,0.0,4216.555505990982,12.387628045774003,14.144134829767514,338,4,0.0,207,40394702802955,13,31.2,207.49266052246094,0.25679999589920044,0,0.0,0.0,,,,,0,,3,,
Raw,2322386,2326243000000,,,-1278056086524175616,0.0,4216.555505990982,12.387628045774003,14.144134829767514,338,5,0.0,15,116012697483463,19,27.4,-47.02931213378906,0.08910000324249268,0,0.0,0.0,,,,,0,,1,,
Raw,2322387,2326243000000,,,-1278056086524175616,0.0,4216.555505990982,12.387628045774003,14.144134829767514,338,6,0.0,15,116012694060099,40,21.3,109.61866760253906,0.8524999618530273,0,0.0,0.0,,,,,0,,1,,
Raw,2322387,2326243000000,,,-1278056086524175616,0.0,4216.555505990982,12.387628045774003,14.144134829767514,338,12,0.0,15,116012689273123,5,40.0,251.23719787597656,0.022700000554323196,0,0.0,0.0,,,,,0,,1,,
Raw,2322388,2326243000000,,,-1278056086524175616,0.0,4216.555505990982,12.387628045774003,14.144134829767514,338,13,0.0,15,116012691193192,21,26.8,-647.2916259765625,0.11419999599456787,0,0.0,0.0,,,,,0,,1,,
Raw,2322389,2326243000000,,,-1278056086524175616,0.0,4216.555505990982,12.387628045774003,14.144134829767514,338,15,0.0,15,116012683464093,17,28.9,-722.0057373046875,0.07530000060796738,0,0.0,0.0,,,,,0,,1,,
Raw,2322389,2326243000000,,,-1278056086524175616,0.0,4216.555505990982,12.387628045774003,14.144134829767514,338,19,0.0,15,116012694325163,27,24.7,544.0591430664062,0.6225000023841858,0,0.0,0.0,,,,,0,,1,,
Raw,2322390,2326243000000,,,-1278056086524175616,0.0,4216.555505990982,12.387628045774003,14.144134829767514,338,25,0.0,15,116012685091146,31,23.5,36.67910385131836,0.6889999508857727,0,0.0,0.0,,,,,0,,1,,
Fix,gps,22.925367,120.294631,45.228760,0.000000,5.360000,1594023195000
NMEA,$GPGSV,4,1,13,05,55,292,27,06,42,060,21,12,23,262,40,13,28,184,27*72,1594023194192
NMEA,$GPGSV,4,2,13,15,06,208,29,19,43,144,25,25,10,291,24,02,52,358,*76,1594023194196
NMEA,$GPGSV,4,3,13,07,04,091,,09,18,043,,17,23,147,,29,02,323,*7E,1594023194197
NMEA,$GPGSV,4,4,13,30,07,120,*4C,1594023194198
NMEA,$GLGSV,2,1,07,69,40,220,22,68,75,341,31,82,51,094,,84,03,326,*69,1594023194202
NMEA,$GLGSV,2,2,07,83,49,004,,81,10,127,,67,25,025,*5D,1594023194204
NMEA,$GAGSV,1,1,0,*74,1594023194204
NMEA,$PQGSV,1,1,03,193,70,059,,194,11,161,,195,71,137,,0,5*6D,1594023194205
NMEA,$PQGSV,1,1,0,*73,1594023194205
NMEA,$GNGSA,A,3,05,12,13,15,19,25,,,,,,,1.6,1.4,0.9,1*35,1594023194206
NMEA,$GNGSA,A,2,68,69,,,,,,,,,,,1.6,1.4,0.9,2*39,1594023194206
NMEA,$GNVTG,,T,,M,0.0,N,0.0,K,A*3D,1594023194206
NMEA,$GNRMC,081315.00,A,2255.522013,N,12017.677840,E,0.0,,060720,2.8,W,A*18,1594023194211
NMEA,$GNGGA,081315.00,2255.522013,N,12017.677840,E,1,08,1.4,27.8,M,17.5,M,,*47,1594023194211
Raw,2323385,2327255000000,,,-1278056086523454208,0.0,4222.2063057124615,17.11375349669202,12.214573793523073,339,5,0.0,207,40395709091538,35,22.4,-489.891357421875,0.9249999523162842,0,0.0,0.0,,,,,0,,3,,
Raw,2323387,2327255000000,,,-1278056086523454208,0.0,4222.2063057124615,17.11375349669202,12.214573793523073,339,4,0.0,207,40395714081120,13,31.1,206.248291015625,0.24480001628398895,0,0.0,0.0,,,,,0,,3,,
Raw,2323388,2327255000000,,,-1278056086523454208,0.0,4222.2063057124615,17.11375349669202,12.214573793523073,339,5,0.0,15,116013708762451,21,26.6,-48.361427307128906,0.10969999432563782,0,0.0,0.0,,,,,0,,1,,
Raw,2323389,2327255000000,,,-1278056086523454208,0.0,4222.2063057124615,17.11375349669202,12.214573793523073,339,6,0.0,15,116013705338689,46,20.9,109.20954132080078,0.8389999866485596,0,0.0,0.0,,,,,0,,1,,
Raw,2323391,2327255000000,,,-1278056086523454208,0.0,4222.2063057124615,17.11375349669202,12.214573793523073,339,12,0.0,15,116013700551125,5,40.2,249.95440673828125,0.03920000046491623,0,0.0,0.0,,,,,0,,1,,
Raw,2323392,2327255000000,,,-1278056086523454208,0.0,4222.2063057124615,17.11375349669202,12.214573793523073,339,13,0.0,15,116013702474303,21,26.9,-648.5979614257812,0.1306999921798706,0,0.0,0.0,,,,,0,,1,,
Raw,2323393,2327255000000,,,-1278056086523454208,0.0,4222.2063057124615,17.11375349669202,12.214573793523073,339,15,0.0,15,116013694745378,17,28.6,-723.3963012695312,0.061799999326467514,0,0.0,0.0,,,,,0,,1,,
Raw,2323395,2327255000000,,,-1278056086523454208,0.0,4222.2063057124615,17.11375349669202,12.214573793523073,339,19,0.0,15,116013705602176,35,22.9,542.0039672851562,0.718999981880188,0,0.0,0.0,,,,,0,,1,,
Raw,2323396,2327255000000,,,-1278056086523454208,0.0,4222.2063057124615,17.11375349669202,12.214573793523073,339,25,0.0,15,116013696369866,27,24.3,35.5088005065918,0.6754999756813049,0,0.0,0.0,,,,,0,,1,,
