# 
# Header Description:
# 
# Version: v2.0.0.1 Platform: 8.0.0 Manufacturer: Sony Model: G8142
# 
# Raw,ElapsedRealtimeMillis,TimeNanos,LeapSecond,TimeUncertaintyNanos,FullBiasNanos,BiasNanos,BiasUncertaintyNanos,DriftNanosPerSecond,DriftUncertaintyNanosPerSecond,HardwareClockDiscontinuityCount,Svid,TimeOffsetNanos,State,ReceivedSvTimeNanos,ReceivedSvTimeUncertaintyNanos,Cn0DbHz,PseudorangeRateMetersPerSecond,PseudorangeRateUncertaintyMetersPerSecond,AccumulatedDeltaRangeState,AccumulatedDeltaRangeMeters,AccumulatedDeltaRangeUncertaintyMeters,CarrierFrequencyHz,CarrierCycles,CarrierPhase,CarrierPhaseUncertainty,MultipathIndicator,SnrInDb,ConstellationType,AgcDb,CarrierFrequencyHz
# 
# Fix,Provider,Latitude,Longitude,Altitude,Speed,Accuracy,(UTC)TimeInMs
# 
# Nav,Svid,Type,Status,MessageId,Sub-messageId,Data(Bytes)
# 
Raw,2569367,2573442000000,,,-1278056086418383360,0.0,4310.131072998047,12.573252474360986,9.528317726218607,537,5,0.0,207,40641791414277,11,33.2,-464.41644287109375,0.2597000002861023,0,0.0,0.0,,,,,0,,3,,
Raw,2569368,2573442000000,,,-1278056086418383360,0.0,4310.131072998047,12.573252474360986,9.528317726218607,537,4,0.0,207,40641795830308,12,32.4,236.02423095703125,0.2709999978542328,0,0.0,0.0,,,,,0,,3,,
Raw,2569368,2573442000000,,,-1278056086418383360,0.0,4310.131072998047,12.573252474360986,9.528317726218607,537,5,0.0,15,116259790727694,11,33.4,-35.44755172729492,0.20000000298023224,0,0.0,0.0,,,,,0,,1,,
Raw,2569368,2573442000000,,,-1278056086418383360,0.0,4310.131072998047,12.573252474360986,9.528317726218607,537,12,0.0,15,116259782270568,6,38.8,264.99542236328125,0.20000000298023224,0,0.0,0.0,,,,,0,,1,,
Raw,2569368,2573442000000,,,-1278056086418383360,0.0,4310.131072998047,12.573252474360986,9.528317726218607,537,13,0.0,15,116259784935211,16,29.2,-642.847900390625,0.20000000298023224,0,0.0,0.0,,,,,0,,1,,
Raw,2569369,2573442000000,,,-1278056086418383360,0.0,4310.131072998047,12.573252474360986,9.528317726218607,537,15,0.0,15,116259777271411,13,31.7,-726.5272216796875,0.20000000298023224,0,0.0,0.0,,,,,0,,1,,
Raw,2569369,2573442000000,,,-1278056086418383360,0.0,4310.131072998047,12.573252474360986,9.528317726218607,537,19,0.0,15,116259787081311,24,25.0,558.5546264648438,1.1710000038146973,0,0.0,0.0,,,,,0,,1,,
Raw,2569369,2573442000000,,,-1278056086418383360,0.0,4310.131072998047,12.573252474360986,9.528317726218607,537,25,0.0,15,116259778263382,14,30.9,55.012332916259766,0.20000000298023224,0,0.0,0.0,,,,,0,,1,,
Fix,gps,22.925369,120.294639,44.707153,0.000000,6.432000,1594023442000
NMEA,$GPGSV,3,1,12,05,55,295,33,12,23,261,39,13,30,184,29,15,07,208,32*71,1594023441186
NMEA,$GPGSV,3,2,12,19,42,146,25,25,10,289,31,02,00,000,,06,42,063,*71,1594023441186
NMEA,$GPGSV,3,3,12,07,04,088,,09,16,042,,17,22,147,,30,08,119,*77,1594023441186
NMEA,$GLGSV,2,1,07,69,42,223,33,68,73,345,32,82,51,097,,84,04,327,*6C,1594023441187
NMEA,$GLGSV,2,2,07,83,52,005,,81,09,129,,67,23,025,*56,1594023441187
NMEA,$GAGSV,1,1,0,*74,1594023441187
NMEA,$PQGSV,1,1,03,193,69,057,,194,11,160,,195,70,139,,0,5*65,1594023441187
NMEA,$PQGSV,1,1,0,*73,1594023441187
NMEA,$GNGSA,A,3,05,12,13,15,19,25,,,,,,,1.6,1.3,0.9,1*32,1594023441189
NMEA,$GNGSA,A,2,68,69,,,,,,,,,,,1.6,1.3,0.9,2*3E,1594023441189
NMEA,$GNVTG,,T,,M,0.0,N,0.0,K,A*3D,1594023441189
NMEA,$GNRMC,081722.00,A,2255.522135,N,12017.678350,E,0.0,,060720,2.8,W,A*18,1594023441190
NMEA,$GNGGA,081722.00,2255.522135,N,12017.678350,E,1,08,1.3,27.2,M,17.5,M,,*4A,1594023441190
NMEA,$GPGSV,4,1,13,05,55,295,34,12,23,261,39,13,30,184,32,15,07,208,33*7B,1594023442185
Raw,2570387,2574458000000,,,-1278056086417498624,0.0,4315.04612788558,1.9547143121966635,9.66428176690678,538,5,0.0,207,40642806530935,16,29.5,-464.6059265136719,0.2833999991416931,0,0.0,0.0,,,,,0,,3,,
Raw,2570388,2574458000000,,,-1278056086417498624,0.0,4315.04612788558,1.9547143121966635,9.66428176690678,538,4,0.0,207,40642810944493,12,32.6,235.9686279296875,0.26350000500679016,0,0.0,0.0,,,,,0,,3,,
Raw,2570388,2574458000000,,,-1278056086417498624,0.0,4315.04612788558,1.9547143121966635,9.66428176690678,538,5,0.0,15,116260805842809,11,33.6,-35.55571365356445,0.20000000298023224,0,0.0,0.0,,,,,0,,1,,
Raw,2570388,2574458000000,,,-1278056086417498624,0.0,4315.04612788558,1.9547143121966635,9.66428176690678,538,12,0.0,15,116260797384654,6,38.5,264.8328857421875,0.20000000298023224,0,0.0,0.0,,,,,0,,1,,
Raw,2570388,2574458000000,,,-1278056086417498624,0.0,4315.04612788558,1.9547143121966635,9.66428176690678,538,13,0.0,15,116260800052328,13,31.5,-642.9337158203125,0.20000000298023224,0,0.0,0.0,,,,,0,,1,,
Raw,2570388,2574458000000,,,-1278056086417498624,0.0,4315.04612788558,1.9547143121966635,9.66428176690678,538,15,0.0,15,116260792388860,11,33.1,-726.7657470703125,0.20000000298023224,0,0.0,0.0,,,,,0,,1,,
Raw,2570389,2574458000000,,,-1278056086417498624,0.0,4315.04612788558,1.9547143121966635,9.66428176690678,538,19,0.0,15,116260802194416,17,28.6,558.275146484375,0.20000000298023224,0,0.0,0.0,,,,,0,,1,,
Raw,2570389,2574458000000,,,-1278056086417498624,0.0,4315.04612788558,1.9547143121966635,9.66428176690678,538,25,0.0,15,116260793378264,14,30.8,54.86677169799805,0.20000000298023224,0,0.0,0.0,,,,,0,,1,,
Raw,2570389,2574458000000,,,-1278056086417498624,0.0,4315.04612788558,1.9547143121966635,9.66428176690678,538,29,0.0,15,116260791461001,31,23.4,-675.4093017578125,0.7279999852180481,0,0.0,0.0,,,,,0,,1,,
Fix,gps,22.925369,120.294639,44.763489,0.000000,7.504000,1594023443000
NMEA,$GPGSV,4,2,13,19,42,146,29,25,10,289,31,29,04,323,23,02,00,000,*72,1594023442186
NMEA,$GPGSV,4,3,13,06,42,063,,07,04,088,,09,16,042,,17,22,147,*76,1594023442186
NMEA,$GPGSV,4,4,13,30,08,119,*49,1594023442186
NMEA,$GLGSV,2,1,07,69,42,223,30,68,73,345,33,82,51,097,,84,04,327,*6E,1594023442186
NMEA,$GLGSV,2,2,07,83,52,005,,81,09,129,,67,23,025,*56,1594023442187
NMEA,$GAGSV,1,1,0,*74,1594023442195
NMEA,$PQGSV,1,1,03,193,69,057,,194,11,160,,195,70,139,,0,5*65,1594023442195
NMEA,$PQGSV,1,1,0,*73,1594023442195
NMEA,$GNGSA,A,3,05,12,13,15,19,25,,,,,,,1.6,1.3,0.9,1*32,1594023442196
NMEA,$GNGSA,A,2,68,69,,,,,,,,,,,1.6,1.3,0.9,2*3E,1594023442196
NMEA,$GNVTG,,T,,M,0.0,N,0.0,K,A*3D,1594023442197
NMEA,$GNRMC,081723.00,A,2255.522136,N,12017.678347,E,0.0,,060720,2.8,W,A*1C,1594023442197
NMEA,$GNGGA,081723.00,2255.522136,N,12017.678347,E,1,08,1.3,27.3,M,17.5,M,,*4F,1594023442197
Raw,2571376,2575449000000,,,-1278056086417462016,0.0,4334.185272455215,1.3795227739252331,10.698529090848186,539,5,0.0,207,40643797495894,17,28.3,-463.49322509765625,0.3228999972343445,0,0.0,0.0,,,,,0,,3,,
Raw,2571376,2575449000000,,,-1278056086417462016,0.0,4334.185272455215,1.3795227739252331,10.698529090848186,539,4,0.0,207,40643801907398,12,32.6,237.233154296875,0.2800000011920929,0,0.0,0.0,,,,,0,,3,,
Raw,2571376,2575449000000,,,-1278056086417462016,0.0,4334.185272455215,1.3795227739252331,10.698529090848186,539,5,0.0,15,116261796806521,12,32.4,-34.455772399902344,0.20000000298023224,0,0.0,0.0,,,,,0,,1,,
Raw,2571377,2575449000000,,,-1278056086417462016,0.0,4334.185272455215,1.3795227739252331,10.698529090848186,539,12,0.0,15,116261788347400,6,39.7,266.0099792480469,0.20000000298023224,0,0.0,0.0,,,,,0,,1,,
Raw,2571377,2575449000000,,,-1278056086417462016,0.0,4334.185272455215,1.3795227739252331,10.698529090848186,539,13,0.0,15,116261791018173,16,29.4,-641.7947998046875,0.20000000298023224,0,0.0,0.0,,,,,0,,1,,
Raw,2571377,2575449000000,,,-1278056086417462016,0.0,4334.185272455215,1.3795227739252331,10.698529090848186,539,15,0.0,15,116261783354753,16,29.0,-725.5997924804688,0.20000000298023224,0,0.0,0.0,,,,,0,,1,,
Raw,2571378,2575449000000,,,-1278056086417462016,0.0,4334.185272455215,1.3795227739252331,10.698529090848186,539,19,0.0,15,116261793156185,21,26.7,559.5419311523438,0.2702000141143799,0,0.0,0.0,,,,,0,,1,,
Raw,2571378,2575449000000,,,-1278056086417462016,0.0,4334.185272455215,1.3795227739252331,10.698529090848186,539,25,0.0,15,116261784341663,16,29.9,56.13588333129883,0.20000000298023224,0,0.0,0.0,,,,,0,,1,,
Raw,2571378,2575449000000,,,-1278056086417462016,0.0,4334.185272455215,1.3795227739252331,10.698529090848186,539,29,0.0,15,116261782426753,31,23.9,-674.924072265625,0.684499979019165,0,0.0,0.0,,,,,0,,1,,
Fix,gps,22.925369,120.294639,44.699341,0.000000,7.504000,1594023444000
NMEA,$GPGSV,4,1,13,05,55,295,32,12,23,261,40,13,30,184,29,15,07,208,29*72,1594023443184
NMEA,$GPGSV,4,2,13,19,42,146,27,25,10,289,30,29,04,323,24,02,00,000,*7A,1594023443185
NMEA,$GPGSV,4,3,13,06,42,063,,07,04,088,,09,16,042,,17,22,147,*76,1594023443187
NMEA,$GPGSV,4,4,13,30,08,119,*49,1594023443188
NMEA,$GLGSV,2,1,07,69,42,223,28,68,73,345,33,82,51,097,,84,04,327,*67,1594023443189
NMEA,$GLGSV,2,2,07,83,52,005,,81,09,129,,67,23,025,*56,1594023443189
NMEA,$GAGSV,1,1,0,*74,1594023443190
NMEA,$PQGSV,1,1,03,193,69,057,,194,11,160,,195,70,139,,0,5*65,1594023443190
NMEA,$PQGSV,1,1,0,*73,1594023443190
NMEA,$GNGSA,A,3,05,12,13,15,19,25,,,,,,,1.6,1.3,0.9,1*32,1594023443191
NMEA,$GNGSA,A,2,68,69,,,,,,,,,,,1.6,1.3,0.9,2*3E,1594023443192
NMEA,$GNVTG,,T,,M,0.0,N,0.0,K,A*3D,1594023443192
NMEA,$GNRMC,081724.00,A,2255.522136,N,12017.678347,E,0.0,,060720,2.8,W,A*1B,1594023443192
NMEA,$GNGGA,081724.00,2255.522136,N,12017.678347,E,1,08,1.3,27.2,M,17.5,M,,*49,1594023443192
Raw,2572386,2576464000000,,,-1278056086416555776,0.0,4344.76463124156,5.636473113205663,9.940057407002211,540,5,0.0,207,40644811591102,14,30.1,-462.1354675292969,0.2800000011920929,0,0.0,0.0,,,,,0,,3,,
Raw,2572386,2576464000000,,,-1278056086416555776,0.0,4344.76463124156,5.636473113205663,9.940057407002211,540,4,0.0,207,40644816000099,10,34.6,238.4348907470703,0.26260000467300415,0,0.0,0.0,,,,,0,,3,,
Raw,2572387,2576464000000,,,-1278056086416555776,0.0,4344.76463124156,5.636473113205663,9.940057407002211,540,5,0.0,15,116262810900249,11,33.0,-33.22566223144531,0.20000000298023224,0,0.0,0.0,,,,,0,,1,,
Raw,2572387,2576464000000,,,-1278056086416555776,0.0,4344.76463124156,5.636473113205663,9.940057407002211,540,12,0.0,15,116262802440098,5,40.2,267.1839599609375,0.20000000298023224,0,0.0,0.0,,,,,0,,1,,
Raw,2572387,2576464000000,,,-1278056086416555776,0.0,4344.76463124156,5.636473113205663,9.940057407002211,540,13,0.0,15,116262805113836,17,28.0,-640.7698364257812,0.20000000298023224,0,0.0,0.0,,,,,0,,1,,
Raw,2572387,2576464000000,,,-1278056086416555776,0.0,4344.76463124156,5.636473113205663,9.940057407002211,540,15,0.0,15,116262797450926,16,29.4,-724.4690551757812,0.20000000298023224,0,0.0,0.0,,,,,0,,1,,
Raw,2572388,2576464000000,,,-1278056086416555776,0.0,4344.76463124156,5.636473113205663,9.940057407002211,540,19,0.0,15,116262807247855,17,28.5,560.6270141601562,0.20000000298023224,0,0.0,0.0,,,,,0,,1,,
Raw,2572388,2576464000000,,,-1278056086416555776,0.0,4344.76463124156,5.636473113205663,9.940057407002211,540,25,0.0,15,116262798435071,19,27.9,57.324058532714844,0.20000000298023224,0,0.0,0.0,,,,,0,,1,,
Raw,2572389,2576464000000,,,-1278056086416555776,0.0,4344.76463124156,5.636473113205663,9.940057407002211,540,29,0.0,15,116262796522889,24,25.5,-673.6905517578125,1.1845000982284546,0,0.0,0.0,,,,,0,,1,,
Fix,gps,22.925369,120.294639,44.756165,0.000000,8.576000,1594023445000
NMEA,$GPGSV,4,1,13,05,55,295,33,12,23,261,40,13,30,184,28,15,07,208,29*72,1594023444189
NMEA,$GPGSV,4,2,13,19,42,146,29,25,10,289,28,29,04,323,26,02,00,000,*7F,1594023444191
NMEA,$GPGSV,4,3,13,06,42,063,,07,04,088,,09,16,042,,17,22,147,*76,1594023444191
NMEA,$GPGSV,4,4,13,30,08,119,*49,1594023444192
NMEA,$GLGSV,2,1,07,69,42,223,30,68,73,345,35,82,51,097,,84,04,327,*68,1594023444193
NMEA,$GLGSV,2,2,07,83,52,005,,81,09,129,,67,23,025,*56,1594023444194
NMEA,$GAGSV,1,1,0,*74,1594023444195
NMEA,$PQGSV,1,1,03,193,69,057,,194,11,160,,195,70,139,,0,5*65,1594023444197
NMEA,$PQGSV,1,1,0,*73,1594023444198
NMEA,$GNGSA,A,3,05,12,13,15,19,25,,,,,,,1.6,1.3,0.9,1*32,1594023444200
NMEA,$GNGSA,A,2,68,69,,,,,,,,,,,1.6,1.3,0.9,2*3E,1594023444200
NMEA,$GNVTG,,T,,M,0.0,N,0.0,K,A*3D,1594023444201
NMEA,$GNRMC,081725.00,A,2255.522137,N,12017.678346,E,0.0,,060720,2.8,W,A*1A,1594023444201
NMEA,$GNGGA,081725.00,2255.522137,N,12017.678346,E,1,08,1.3,27.3,M,17.5,M,,*49,1594023444202
Raw,2573369,2577453000000,,,-1278056086416139776,0.0,4380.774684250355,9.335557261173099,10.33392081145519,541,5,0.0,207,40645800176778,16,29.9,-462.0884704589844,0.3043999969959259,0,0.0,0.0,,,,,0,,3,,
Raw,2573370,2577453000000,,,-1278056086416139776,0.0,4380.774684250355,9.335557261173099,10.33392081145519,541,4,0.0,207,40645804583465,11,33.2,238.4575958251953,0.27920001745224,0,0.0,0.0,,,,,0,,3,,
Raw,2573370,2577453000000,,,-1278056086416139776,0.0,4380.774684250355,9.335557261173099,10.33392081145519,541,5,0.0,15,116263799484430,11,33.4,-33.36672592163086,0.20000000298023224,0,0.0,0.0,,,,,0,,1,,
Raw,2573371,2577453000000,,,-1278056086416139776,0.0,4380.774684250355,9.335557261173099,10.33392081145519,541,12,0.0,15,116263791023290,5,40.5,267.09088134765625,0.20000000298023224,0,0.0,0.0,,,,,0,,1,,
Raw,2573372,2577453000000,,,-1278056086416139776,0.0,4380.774684250355,9.335557261173099,10.33392081145519,541,13,0.0,15,116263793699957,19,27.9,-640.8325805664062,0.20000000298023224,0,0.0,0.0,,,,,0,,1,,
Raw,2573372,2577453000000,,,-1278056086416139776,0.0,4380.774684250355,9.335557261173099,10.33392081145519,541,15,0.0,15,116263786037371,16,29.5,-724.66748046875,0.20000000298023224,0,0.0,0.0,,,,,0,,1,,
Raw,2573373,2577453000000,,,-1278056086416139776,0.0,4380.774684250355,9.335557261173099,10.33392081145519,541,19,0.0,15,116263795830085,21,26.7,560.5765380859375,0.27320000529289246,0,0.0,0.0,,,,,0,,1,,
Raw,2573373,2577453000000,,,-1278056086416139776,0.0,4380.774684250355,9.335557261173099,10.33392081145519,541,25,0.0,15,116263787019002,17,28.9,57.19111251831055,0.20000000298023224,0,0.0,0.0,,,,,0,,1,,
Raw,2573374,2577453000000,,,-1278056086416139776,0.0,4380.774684250355,9.335557261173099,10.33392081145519,541,29,0.0,15,116263785109086,21,26.2,-673.8145141601562,0.2881999909877777,0,0.0,0.0,,,,,0,,1,,
Fix,gps,22.925369,120.294639,44.695862,0.000000,8.576000,1594023446000
NMEA,$GPGSV,4,1,13,05,55,295,33,12,23,261,41,13,30,184,28,15,07,208,30*7B,1594023445186
NMEA,$GPGSV,4,2,13,19,42,146,27,25,10,289,29,29,04,323,26,02,00,000,*70,1594023445190
NMEA,$GPGSV,4,3,13,06,42,063,,07,04,088,,09,16,042,,17,22,147,*76,1594023445191
NMEA,$GPGSV,4,4,13,30,08,119,*49,1594023445191
NMEA,$GLGSV,2,1,07,69,42,223,30,68,73,345,33,82,51,097,,84,04,327,*6E,1594023445191
NMEA,$GLGSV,2,2,07,83,52,005,,81,09,129,,67,23,025,*56,1594023445192
NMEA,$GAGSV,1,1,0,*74,1594023445192
NMEA,$PQGSV,1,1,03,193,69,057,,194,11,160,,195,70,139,,0,5*65,1594023445192
NMEA,$PQGSV,1,1,0,*73,1594023445192
NMEA,$GNGSA,A,3,05,12,13,15,19,25,,,,,,,1.6,1.3,0.9,1*32,1594023445195
NMEA,$GNGSA,A,2,68,69,,,,,,,,,,,1.6,1.3,0.9,2*3E,1594023445195
NMEA,$GNVTG,,T,,M,0.0,N,0.0,K,A*3D,1594023445196
NMEA,$GNRMC,081726.00,A,2255.522138,N,12017.678345,E,0.0,,060720,2.8,W,A*15,1594023445196
NMEA,$GNGGA,081726.00,2255.522138,N,12017.678345,E,1,08,1.3,27.2,M,17.5,M,,*47,1594023445196
Fix,gps,22.925369,120.294639,44.670105,0.000000,8.576000,1594023447000
NMEA,$GPGSA,A,1,,,,,,,,,,,,,1.6,1.3,0.9,1*21,1594023446182
NMEA,$GPVTG,,T,,M,0.0,N,0.0,K,A*23,1594023446183
NMEA,$GPRMC,081727.00,A,2255.522138,N,12017.678345,E,0.0,,060720,2.8,W,A*0A,1594023446184
NMEA,$GPGGA,081727.00,2255.522138,N,12017.678345,E,1,00,1.3,27.2,M,17.5,M,,*50,1594023446185
Raw,2575576,2579015000000,,,-1278056086415276544,0.0,110.89780309703201,2.9270762228920595,16.930061595531114,542,5,0.0,207,40647361315833,17,28.6,-465.30133056640625,0.2587999999523163,0,0.0,0.0,,,,,0,,3,,
Raw,2575576,2579015000000,,,-1278056086415276544,0.0,110.89780309703201,2.9270762228920595,16.930061595531114,542,4,0.0,207,40647365718894,11,33.6,235.33226013183594,0.24240000545978546,0,0.0,0.0,,,,,0,,3,,
Raw,2575577,2579015000000,,,-1278056086415276544,0.0,110.89780309703201,2.9270762228920595,16.930061595531114,542,5,0.0,15,116265360621287,12,32.9,-36.370670318603516,0.20000000298023224,0,0.0,0.0,,,,,0,,1,,
Raw,2575577,2579015000000,,,-1278056086415276544,0.0,110.89780309703201,2.9270762228920595,16.930061595531114,542,6,0.0,15,116265357068942,649,18.8,114.2808609008789,1.6820000410079956,0,0.0,0.0,,,,,0,,1,,
Raw,2575577,2579015000000,,,-1278056086415276544,0.0,110.89780309703201,2.9270762228920595,16.930061595531114,542,12,0.0,15,116265352158578,6,39.1,264.0782470703125,0.20000000298023224,0,0.0,0.0,,,,,0,,1,,
Raw,2575577,2579015000000,,,-1278056086415276544,0.0,110.89780309703201,2.9270762228920595,16.930061595531114,542,13,0.0,15,116265354840071,24,25.9,-643.907470703125,0.387800008058548,0,0.0,0.0,,,,,0,,1,,
Raw,2575578,2579015000000,,,-1278056086415276544,0.0,110.89780309703201,2.9270762228920595,16.930061595531114,542,15,0.0,15,116265347177822,17,28.6,-727.7936401367188,0.20000000298023224,0,0.0,0.0,,,,,0,,1,,
Raw,2575578,2579015000000,,,-1278056086415276544,0.0,110.89780309703201,2.9270762228920595,16.930061595531114,542,19,0.0,15,116265356963826,21,26.1,557.673095703125,0.20000000298023224,0,0.0,0.0,,,,,0,,1,,
Raw,2575578,2579015000000,,,-1278056086415276544,0.0,110.89780309703201,2.9270762228920595,16.930061595531114,542,25,0.0,15,116265348155353,17,28.0,54.19846725463867,0.20000000298023224,0,0.0,0.0,,,,,0,,1,,
Raw,2575579,2579015000000,,,-1278056086415276544,0.0,110.89780309703201,2.9270762228920595,16.930061595531114,542,29,0.0,15,116265346249273,24,25.1,-677.0071411132812,0.39980000257492065,0,0.0,0.0,,,,,0,,1,,
Raw,2575579,2579015000000,,,-1278056086415276544,0.0,110.89780309703201,2.9270762228920595,16.930061595531114,542,1,0.0,783,116251306575908,157,26.8,-0.9601974487304688,0.9785000085830688,0,0.0,0.0,,,,,0,,5,,
Raw,2575579,2579015000000,,,-1278056086415276544,0.0,110.89780309703201,2.9270762228920595,16.930061595531114,542,3,0.0,783,116251309734966,12,32.7,-2.131638526916504,0.33500000834465027,0,0.0,0.0,,,,,0,,5,,
Raw,2575579,2579015000000,,,-1278056086415276544,0.0,110.89780309703201,2.9270762228920595,16.930061595531114,542,5,0.0,783,116251297146999,13,31.8,-6.174069881439209,0.3050000071525574,0,0.0,0.0,,,,,0,,5,,
Raw,2575579,2579015000000,,,-1278056086415276544,0.0,110.89780309703201,2.9270762228920595,16.930061595531114,542,6,0.0,15,116251306631168,22,26.4,-226.33773803710938,0.9794999957084656,0,0.0,0.0,,,,,0,,5,,
Raw,2575580,2579015000000,,,-1278056086415276544,0.0,110.89780309703201,2.9270762228920595,16.930061595531114,542,10,0.0,15,116251301491104,21,26.7,308.8475036621094,0.6119999885559082,0,0.0,0.0,,,,,0,,5,,
Raw,2575580,2579015000000,,,-1278056086415276544,0.0,110.89780309703201,2.9270762228920595,16.930061595531114,542,12,0.0,15,116251357450174,13,31.3,-267.4726257324219,0.42800000309944153,0,0.0,0.0,,,,,0,,5,,
Raw,2575580,2579015000000,,,-1278056086415276544,0.0,110.89780309703201,2.9270762228920595,16.930061595531114,542,13,0.0,15,116251304847990,16,29.2,-73.45510864257812,0.4975000023841858,0,0.0,0.0,,,,,0,,5,,
Raw,2575580,2579015000000,,,-1278056086415276544,0.0,110.89780309703201,2.9270762228920595,16.930061595531114,542,14,0.0,15,116251341729246,13,32.3,-523.7196655273438,10.351499557495117,0,0.0,0.0,,,,,0,,5,,
Raw,2575581,2579015000000,,,-1278056086415276544,0.0,110.89780309703201,2.9270762228920595,16.930061595531114,542,16,0.0,15,116251304542634,17,29.8,-258.3795471191406,0.8525000214576721,0,0.0,0.0,,,,,0,,5,,
Raw,2575581,2579015000000,,,-1278056086415276544,0.0,110.89780309703201,2.9270762228920595,16.930061595531114,542,21,0.0,15,116251357153318,19,27.5,6.884616374969482,0.5479999780654907,0,0.0,0.0,,,,,0,,5,,
Raw,2575581,2579015000000,,,-1278056086415276544,0.0,110.89780309703201,2.9270762228920595,16.930061595531114,542,22,0.0,15,116251351428113,62,18.6,459.7233581542969,1.4279999732971191,0,0.0,0.0,,,,,0,,5,,
Fix,gps,22.925369,120.294639,44.596436,0.000000,7.504000,1594023448000
NMEA,$GPGSV,4,1,13,05,55,295,33,06,42,063,19,12,23,261,39,13,30,184,26*7D,1594023447185
NMEA,$GPGSV,4,2,13,15,07,208,29,19,42,146,26,25,10,289,28,29,04,323,25*73,1594023447186
NMEA,$GPGSV,4,3,13,02,00,000,,07,04,088,,09,16,042,,17,22,147,*71,1594023447186
NMEA,$GPGSV,4,4,13,30,08,119,*49,1594023447186
NMEA,$GLGSV,2,1,07,69,42,223,29,68,73,345,34,82,51,097,,84,04,327,*61,1594023447186
NMEA,$GLGSV,2,2,07,83,52,005,,81,09,129,,67,23,025,*56,1594023447186
NMEA,$GAGSV,1,1,02,01,07,205,,19,54,201,*61,1594023447186
NMEA,$PQGSV,1,1,03,193,69,057,20,194,11,160,,195,70,139,,0,5*67,1594023447187
NMEA,$PQGSV,4,1,16,01,50,130,27,03,62,203,33,05,17,258,32,06,47,171,26,0,4*67,1594023447187
NMEA,$PQGSV,4,2,16,10,27,220,27,12,65,341,31,13,41,330,29,14,02,227,32,0,4*62,1594023447187
NMEA,$PQGSV,4,3,16,16,44,178,30,21,73,285,28,22,40,030,19,02,42,243,,0,4*6D,1594023447187
NMEA,$PQGSV,4,4,16,04,37,113,,07,21,195,,08,49,007,,09,25,191,,0,4*63,1594023447187
NMEA,$GNGSA,A,3,05,12,13,15,19,25,,,,,,,1.4,1.1,0.9,1*32,1594023447188
NMEA,$GNGSA,A,2,68,69,,,,,,,,,,,1.4,1.1,0.9,2*3E,1594023447188
NMEA,$GNVTG,,T,,M,0.0,N,0.0,K,A*3D,1594023447188
NMEA,$GNRMC,081728.00,A,2255.522138,N,12017.678345,E,0.0,,060720,2.8,W,A*1B,1594023447188
NMEA,$GNGGA,081728.00,2255.522138,N,12017.678345,E,1,08,1.1,27.1,M,17.5,M,,*48,1594023447189
Fix,gps,22.925369,120.294639,44.574829,0.000000,7.504000,1594023449000
Raw,2576381,2580015000000,,,-1278056086415276544,0.0,98.80524157779291,-1.5525818972586667,18.675380397701545,542,5,0.0,207,40648361317428,17,28.5,-463.8992004394531,0.23480001091957092,0,0.0,0.0,,,,,0,,3,,
Raw,2576381,2580015000000,,,-1278056086415276544,0.0,98.80524157779291,-1.5525818972586667,18.675380397701545,542,4,0.0,207,40648365718079,10,34.7,236.91973876953125,0.22960001230239868,0,0.0,0.0,,,,,0,,3,,
Raw,2576381,2580015000000,,,-1278056086415276544,0.0,98.80524157779291,-1.5525818972586667,18.675380397701545,542,5,0.0,15,116266360621411,11,33.7,-35.13563537597656,0.20000000298023224,0,0.0,0.0,,,,,0,,1,,
Raw,2576382,2580015000000,,,-1278056086415276544,0.0,98.80524157779291,-1.5525818972586667,18.675380397701545,542,6,0.0,15,116266357068600,655,18.5,114.43310546875,2.432000160217285,0,0.0,0.0,,,,,0,,1,,
Raw,2576382,2580015000000,,,-1278056086415276544,0.0,98.80524157779291,-1.5525818972586667,18.675380397701545,542,9,0.0,15,116266350117095,999,16.4,558.3977661132812,2.681500196456909,0,0.0,0.0,,,,,0,,1,,
Raw,2576383,2580015000000,,,-1278056086415276544,0.0,98.80524157779291,-1.5525818972586667,18.675380397701545,542,12,0.0,15,116266352157688,5,40.0,265.3533630371094,0.20000000298023224,0,0.0,0.0,,,,,0,,1,,
Raw,2576383,2580015000000,,,-1278056086415276544,0.0,98.80524157779291,-1.5525818972586667,18.675380397701545,542,13,0.0,15,116266354842204,21,26.7,-642.6522216796875,0.20000000298023224,0,0.0,0.0,,,,,0,,1,,
Raw,2576383,2580015000000,,,-1278056086415276544,0.0,98.80524157779291,-1.5525818972586667,18.675380397701545,542,15,0.0,15,116266347180268,16,29.3,-726.5875244140625,0.20000000298023224,0,0.0,0.0,,,,,0,,1,,
Raw,2576384,2580015000000,,,-1278056086415276544,0.0,98.80524157779291,-1.5525818972586667,18.675380397701545,542,19,0.0,15,116266356961975,21,26.9,558.8382568359375,0.20000000298023224,0,0.0,0.0,,,,,0,,1,,
Raw,2576384,2580015000000,,,-1278056086415276544,0.0,98.80524157779291,-1.5525818972586667,18.675380397701545,542,25,0.0,15,116266348155158,16,29.4,55.48873519897461,0.20000000298023224,0,0.0,0.0,,,,,0,,1,,
Raw,2576385,2580015000000,,,-1278056086415276544,0.0,98.80524157779291,-1.5525818972586667,18.675380397701545,542,29,0.0,15,116266346251510,27,24.7,-676.1990356445312,0.6255000233650208,0,0.0,0.0,,,,,0,,1,,
Raw,2576385,2580015000000,,,-1278056086415276544,0.0,98.80524157779291,-1.5525818972586667,18.675380397701545,542,1,0.0,783,116252306575913,26,26.2,0.82576984167099,1.7685000896453857,0,0.0,0.0,,,,,0,,5,,
Raw,2576385,2580015000000,,,-1278056086415276544,0.0,98.80524157779291,-1.5525818972586667,18.675380397701545,542,2,0.0,783,116252305091933,20,27.0,-2.8613884449005127,0.9200000166893005,0,0.0,0.0,,,,,0,,5,,
Raw,2576386,2580015000000,,,-1278056086415276544,0.0,98.80524157779291,-1.5525818972586667,18.675380397701545,542,3,0.0,783,116252309734950,11,33.1,2.227658271789551,0.2850000262260437,0,0.0,0.0,,,,,0,,5,,
Raw,2576386,2580015000000,,,-1278056086415276544,0.0,98.80524157779291,-1.5525818972586667,18.675380397701545,542,5,0.0,783,116252297147005,11,33.1,-1.574723720550537,0.3150000274181366,0,0.0,0.0,,,,,0,,5,,
Raw,2576387,2580015000000,,,-1278056086415276544,0.0,98.80524157779291,-1.5525818972586667,18.675380397701545,542,6,0.0,15,116252306631932,27,24.8,-226.5489959716797,0.5354999899864197,0,0.0,0.0,,,,,0,,5,,
Raw,2576387,2580015000000,,,-1278056086415276544,0.0,98.80524157779291,-1.5525818972586667,18.675380397701545,542,7,0.0,15,116252299789931,47,20.9,281.51068115234375,1.2200000286102295,0,0.0,0.0,,,,,0,,5,,
Raw,2576388,2580015000000,,,-1278056086415276544,0.0,98.80524157779291,-1.5525818972586667,18.675380397701545,542,9,0.0,15,116252300792023,25,25.8,-258.2066955566406,0.9884999990463257,0,0.0,0.0,,,,,0,,5,,
Raw,2576388,2580015000000,,,-1278056086415276544,0.0,98.80524157779291,-1.5525818972586667,18.675380397701545,542,10,0.0,15,116252301490082,21,26.6,309.39501953125,0.20000000298023224,0,0.0,0.0,,,,,0,,5,,
Raw,2576388,2580015000000,,,-1278056086415276544,0.0,98.80524157779291,-1.5525818972586667,18.675380397701545,542,11,0.0,15,116252344377844,54,19.3,-572.940185546875,1.347499966621399,0,0.0,0.0,,,,,0,,5,,
Raw,2576389,2580015000000,,,-1278056086415276544,0.0,98.80524157779291,-1.5525818972586667,18.675380397701545,542,12,0.0,15,116252357451067,12,32.0,-266.4246520996094,0.20000000298023224,0,0.0,0.0,,,,,0,,5,,
Raw,2576389,2580015000000,,,-1278056086415276544,0.0,98.80524157779291,-1.5525818972586667,18.675380397701545,542,13,0.0,15,116252304848235,16,29.3,-72.74375915527344,0.20000000298023224,0,0.0,0.0,,,,,0,,5,,
Raw,2576390,2580015000000,,,-1278056086415276544,0.0,98.80524157779291,-1.5525818972586667,18.675380397701545,542,14,0.0,15,116252341730981,13,31.8,-519.7132568359375,0.20000000298023224,0,0.0,0.0,,,,,0,,5,,
Raw,2576390,2580015000000,,,-1278056086415276544,0.0,98.80524157779291,-1.5525818972586667,18.675380397701545,542,16,0.0,15,116252304543517,16,29.7,-258.5716552734375,0.20000000298023224,0,0.0,0.0,,,,,0,,5,,
Raw,2576390,2580015000000,,,-1278056086415276544,0.0,98.80524157779291,-1.5525818972586667,18.675380397701545,542,21,0.0,15,116252357153289,19,27.7,8.110786437988281,0.20000000298023224,0,0.0,0.0,,,,,0,,5,,
Raw,2576391,2580015000000,,,-1278056086415276544,0.0,98.80524157779291,-1.5525818972586667,18.675380397701545,542,22,0.0,15,116252351426589,61,18.7,461.5669250488281,1.1579999923706055,0,0.0,0.0,,,,,0,,5,,
NMEA,$GPGSV,4,1,13,05,55,295,34,06,42,063,19,09,16,042,16,12,23,261,40*73,1594023448188
NMEA,$GPGSV,4,2,13,13,30,184,27,15,07,208,29,19,42,146,27,25,10,289,29*70,1594023448188
NMEA,$GPGSV,4,3,13,29,04,323,25,02,00,000,,07,04,088,,17,22,147,*73,1594023448189
NMEA,$GPGSV,4,4,13,30,08,119,*49,1594023448189
NMEA,$GLGSV,2,1,07,69,42,223,29,68,73,345,35,82,51,097,,84,04,327,*60,1594023448189
NMEA,$GLGSV,2,2,07,83,52,005,,81,09,129,,67,23,025,*56,1594023448190
NMEA,$GAGSV,1,1,02,01,07,205,,19,54,201,*61,1594023448190
NMEA,$PQGSV,1,1,03,193,69,057,20,194,11,160,,195,70,139,,0,5*67,1594023448190
NMEA,$PQGSV,4,1,16,01,50,130,26,02,42,243,27,03,62,203,33,05,17,258,33,0,4*65,1594023448192
NMEA,$PQGSV,4,2,16,06,47,171,25,07,21,195,21,09,25,191,26,10,27,220,27,0,4*67,1594023448192
NMEA,$PQGSV,4,3,16,11,14,322,19,12,65,341,32,13,41,330,29,14,02,227,32,0,4*6F,1594023448193
NMEA,$PQGSV,4,4,16,16,44,178,30,21,73,285,28,22,40,030,19,04,37,113,,0,4*68,1594023448193
NMEA,$GNGSA,A,3,05,12,13,15,19,25,,,,,,,1.4,1.1,0.9,1*32,1594023448194
NMEA,$GNGSA,A,2,68,69,,,,,,,,,,,1.4,1.1,0.9,2*3E,1594023448195
NMEA,$PQGSA,A,3,05,10,12,13,21,,,,,,,,1.4,1.1,0.9,4*36,1594023448198
NMEA,$GNVTG,,T,,M,0.0,N,0.0,K,A*3D,1594023448202
NMEA,$GNRMC,081729.00,A,2255.522138,N,12017.678345,E,0.0,,060720,2.8,W,A*1A,1594023448202
NMEA,$GNGGA,081729.00,2255.522138,N,12017.678345,E,1,12,1.1,27.1,M,17.5,M,,*42,1594023448202
Raw,2577373,2581015000000,,,-1278056086415276544,0.0,93.4719864744693,2.8835528024892154,17.448896697428122,542,18,0.0,207,40649362735042,1008,15.8,173.33987426757812,3.5895001888275146,0,0.0,0.0,,,,,0,,3,,
Raw,2577374,2581015000000,,,-1278056086415276544,0.0,93.4719864744693,2.8835528024892154,17.448896697428122,542,5,0.0,207,40649361318979,17,28.8,-462.6589050292969,0.23480001091957092,0,0.0,0.0,,,,,0,,3,,
Raw,2577375,2581015000000,,,-1278056086415276544,0.0,93.4719864744693,2.8835528024892154,17.448896697428122,542,4,0.0,207,40649365717298,9,35.0,237.93814086914062,0.22910000383853912,0,0.0,0.0,,,,,0,,3,,
Raw,2577375,2581015000000,,,-1278056086415276544,0.0,93.4719864744693,2.8835528024892154,17.448896697428122,542,2,0.0,15,116267357559790,1159,15.0,-216.68740844726562,3.5420000553131104,0,0.0,0.0,,,,,0,,1,,
Raw,2577376,2581015000000,,,-1278056086415276544,0.0,93.4719864744693,2.8835528024892154,17.448896697428122,542,5,0.0,15,116267360621512,11,33.3,-34.071754455566406,0.20000000298023224,0,0.0,0.0,,,,,0,,1,,
Raw,2577376,2581015000000,,,-1278056086415276544,0.0,93.4719864744693,2.8835528024892154,17.448896697428122,542,6,0.0,15,116267357068260,662,18.5,114.61387634277344,3.182000160217285,0,0.0,0.0,,,,,0,,1,,
Raw,2577377,2581015000000,,,-1278056086415276544,0.0,93.4719864744693,2.8835528024892154,17.448896697428122,542,9,0.0,15,116267350115268,876,16.7,558.3692016601562,3.3415000438690186,0,0.0,0.0,,,,,0,,1,,
Raw,2577377,2581015000000,,,-1278056086415276544,0.0,93.4719864744693,2.8835528024892154,17.448896697428122,542,12,0.0,15,116267352156809,5,40.1,266.3884582519531,0.20000000298023224,0,0.0,0.0,,,,,0,,1,,
Raw,2577377,2581015000000,,,-1278056086415276544,0.0,93.4719864744693,2.8835528024892154,17.448896697428122,542,13,0.0,15,116267354844360,24,25.8,-641.6685791015625,0.4027999937534332,0,0.0,0.0,,,,,0,,1,,
Raw,2577378,2581015000000,,,-1278056086415276544,0.0,93.4719864744693,2.8835528024892154,17.448896697428122,542,15,0.0,15,116267347182722,16,29.1,-725.6220703125,0.20000000298023224,0,0.0,0.0,,,,,0,,1,,
Raw,2577378,2581015000000,,,-1278056086415276544,0.0,93.4719864744693,2.8835528024892154,17.448896697428122,542,19,0.0,15,116267356960110,21,26.9,559.876953125,0.20000000298023224,0,0.0,0.0,,,,,0,,1,,
Raw,2577379,2581015000000,,,-1278056086415276544,0.0,93.4719864744693,2.8835528024892154,17.448896697428122,542,25,0.0,15,116267348154965,17,28.9,56.54677200317383,0.20000000298023224,0,0.0,0.0,,,,,0,,1,,
Raw,2577379,2581015000000,,,-1278056086415276544,0.0,93.4719864744693,2.8835528024892154,17.448896697428122,542,29,0.0,15,116267346253849,27,24.6,-674.7337646484375,0.6255000233650208,0,0.0,0.0,,,,,0,,1,,
Raw,2577380,2581015000000,,,-1278056086415276544,0.0,93.4719864744693,2.8835528024892154,17.448896697428122,542,1,0.0,783,116253306575910,42,26.2,0.82576984167099,3.2685000896453857,0,0.0,0.0,,,,,0,,5,,
Raw,2577380,2581015000000,,,-1278056086415276544,0.0,93.4719864744693,2.8835528024892154,17.448896697428122,542,2,0.0,783,116253305091926,19,27.6,-0.8545758128166199,0.6800000071525574,0,0.0,0.0,,,,,0,,5,,
Raw,2577381,2581015000000,,,-1278056086415276544,0.0,93.4719864744693,2.8835528024892154,17.448896697428122,542,3,0.0,783,116253309734949,11,33.3,4.138451099395752,0.2850000262260437,0,0.0,0.0,,,,,0,,5,,
Raw,2577381,2581015000000,,,-1278056086415276544,0.0,93.4719864744693,2.8835528024892154,17.448896697428122,542,5,0.0,783,116253297147011,12,32.9,-1.037013292312622,0.3150000274181366,0,0.0,0.0,,,,,0,,5,,
Raw,2577382,2581015000000,,,-1278056086415276544,0.0,93.4719864744693,2.8835528024892154,17.448896697428122,542,6,0.0,15,116253306632678,24,25.3,-225.64649963378906,0.39079999923706055,0,0.0,0.0,,,,,0,,5,,
Raw,2577382,2581015000000,,,-1278056086415276544,0.0,93.4719864744693,2.8835528024892154,17.448896697428122,542,7,0.0,15,116253299789003,31,23.0,283.25823974609375,0.6150000095367432,0,0.0,0.0,,,,,0,,5,,
Raw,2577382,2581015000000,,,-1278056086415276544,0.0,93.4719864744693,2.8835528024892154,17.448896697428122,542,9,0.0,15,116253300792864,24,25.2,-257.3343200683594,0.38179999589920044,0,0.0,0.0,,,,,0,,5,,
Raw,2577383,2581015000000,,,-1278056086415276544,0.0,93.4719864744693,2.8835528024892154,17.448896697428122,542,10,0.0,15,116253301489018,21,26.7,310.3943786621094,0.20000000298023224,0,0.0,0.0,,,,,0,,5,,
Raw,2577383,2581015000000,,,-1278056086415276544,0.0,93.4719864744693,2.8835528024892154,17.448896697428122,542,11,0.0,15,116253344379782,53,19.4,-572.9882202148438,1.0774999856948853,0,0.0,0.0,,,,,0,,5,,
Raw,2577384,2581015000000,,,-1278056086415276544,0.0,93.4719864744693,2.8835528024892154,17.448896697428122,542,12,0.0,15,116253357451942,12,32.0,-265.3951721191406,0.20000000298023224,0,0.0,0.0,,,,,0,,5,,
Raw,2577384,2581015000000,,,-1278056086415276544,0.0,93.4719864744693,2.8835528024892154,17.448896697428122,542,13,0.0,15,116253304848488,14,30.0,-71.7656021118164,0.20000000298023224,0,0.0,0.0,,,,,0,,5,,
Raw,2577385,2581015000000,,,-1278056086415276544,0.0,93.4719864744693,2.8835528024892154,17.448896697428122,542,14,0.0,15,116253341732706,12,32.2,-518.611572265625,0.20000000298023224,0,0.0,0.0,,,,,0,,5,,
Raw,2577385,2581015000000,,,-1278056086415276544,0.0,93.4719864744693,2.8835528024892154,17.448896697428122,542,16,0.0,15,116253304544376,16,29.7,-257.5646057128906,0.20000000298023224,0,0.0,0.0,,,,,0,,5,,
Raw,2577386,2581015000000,,,-1278056086415276544,0.0,93.4719864744693,2.8835528024892154,17.448896697428122,542,21,0.0,15,116253357153274,17,28.1,9.14866828918457,0.20000000298023224,0,0.0,0.0,,,,,0,,5,,
Raw,2577386,2581015000000,,,-1278056086415276544,0.0,93.4719864744693,2.8835528024892154,17.448896697428122,542,22,0.0,15,116253351425021,70,17.1,460.9236145019531,1.0130000114440918,0,0.0,0.0,,,,,0,,5,,
Fix,gps,22.925369,120.294639,44.527344,0.000000,6.432000,1594023450000
NMEA,$GPGSV,4,1,13,02,00,000,15,05,55,295,33,06,42,063,19,09,16,042,17*70,1594023449186
NMEA,$GPGSV,4,2,13,12,23,261,40,13,30,184,26,15,07,208,29,19,42,146,27*7C,1594023449186
NMEA,$GPGSV,4,3,13,25,10,289,29,29,04,323,25,07,04,088,,17,22,147,*7F,1594023449186
NMEA,$GPGSV,4,4,13,30,08,119,*49,1594023449187
NMEA,$GLGSV,2,1,07,82,51,097,16,69,42,223,29,68,73,345,35,84,04,327,*67,1594023449187
NMEA,$GLGSV,2,2,07,83,52,005,,81,09,129,,67,23,025,*56,1594023449187
NMEA,$GAGSV,1,1,02,01,07,205,,19,54,201,*61,1594023449187
NMEA,$PQGSV,1,1,03,193,69,057,20,194,11,160,,195,70,139,,0,5*67,1594023449187
NMEA,$PQGSV,4,1,16,01,50,130,26,02,42,243,28,03,62,203,33,05,17,258,33,0,4*6A,1594023449187
NMEA,$PQGSV,4,2,16,06,47,171,25,07,21,195,23,09,25,191,25,10,27,220,27,0,4*66,1594023449188
NMEA,$PQGSV,4,3,16,11,14,322,19,12,65,341,32,13,41,330,30,14,02,227,32,0,4*67,1594023449188
NMEA,$PQGSV,4,4,16,16,44,178,30,21,73,285,28,22,40,030,17,04,37,113,,0,4*66,1594023449188
NMEA,$GNGSA,A,3,05,12,13,15,19,25,,,,,,,1.4,1.1,0.9,1*32,1594023449189
NMEA,$GNGSA,A,2,68,69,,,,,,,,,,,1.4,1.1,0.9,2*3E,1594023449189
NMEA,$PQGSA,A,3,05,10,12,13,21,,,,,,,,1.4,1.1,0.9,4*36,1594023449189
NMEA,$GNVTG,,T,,M,0.0,N,0.0,K,A*3D,1594023449189
NMEA,$GNRMC,081730.00,A,2255.522138,N,12017.678345,E,0.0,,060720,2.8,W,A*12,1594023449189
NMEA,$GNGGA,081730.00,2255.522138,N,12017.678345,E,1,12,1.1,27.1,M,17.5,M,,*4A,1594023449189
Raw,2578500,2582015000000,,,-1278056086415276544,0.0,83.45227979589254,5.269579202609971,15.195467922936036,542,18,0.0,207,40650362734508,1018,15.9,173.79884338378906,4.339500427246094,0,0.0,0.0,,,,,0,,3,,
Raw,2578500,2582015000000,,,-1278056086415276544,0.0,83.45227979589254,5.269579202609971,15.195467922936036,542,5,0.0,207,40650361320562,17,28.3,-461.4612121582031,0.23480001091957092,0,0.0,0.0,,,,,0,,3,,
Raw,2578501,2582015000000,,,-1278056086415276544,0.0,83.45227979589254,5.269579202609971,15.195467922936036,542,3,0.0,207,40650355667300,1171,14.5,713.1971435546875,4.459000110626221,0,0.0,0.0,,,,,0,,3,,
Raw,2578501,2582015000000,,,-1278056086415276544,0.0,83.45227979589254,5.269579202609971,15.195467922936036,542,4,0.0,207,40650365716489,10,34.0,239.1219940185547,0.22960001230239868,0,0.0,0.0,,,,,0,,3,,
Raw,2578501,2582015000000,,,-1278056086415276544,0.0,83.45227979589254,5.269579202609971,15.195467922936036,542,2,0.0,15,116268357560505,1170,15.1,-216.44955444335938,4.2920002937316895,0,0.0,0.0,,,,,0,,1,,
Raw,2578501,2582015000000,,,-1278056086415276544,0.0,83.45227979589254,5.269579202609971,15.195467922936036,542,5,0.0,15,116268360621639,11,33.4,-32.95413589477539,0.20000000298023224,0,0.0,0.0,,,,,0,,1,,
Raw,2578501,2582015000000,,,-1278056086415276544,0.0,83.45227979589254,5.269579202609971,15.195467922936036,542,6,0.0,15,116268357067864,772,18.3,114.84223175048828,4.01200008392334,0,0.0,0.0,,,,,0,,1,,
Raw,2578502,2582015000000,,,-1278056086415276544,0.0,83.45227979589254,5.269579202609971,15.195467922936036,542,9,0.0,15,116268350113414,886,16.5,558.3026123046875,4.091500282287598,0,0.0,0.0,,,,,0,,1,,
Raw,2578502,2582015000000,,,-1278056086415276544,0.0,83.45227979589254,5.269579202609971,15.195467922936036,542,12,0.0,15,116268352155910,5,40.0,267.52020263671875,0.20000000298023224,0,0.0,0.0,,,,,0,,1,,
Raw,2578502,2582015000000,,,-1278056086415276544,0.0,83.45227979589254,5.269579202609971,15.195467922936036,542,13,0.0,15,116268354846504,21,26.0,-640.5700073242188,0.20000000298023224,0,0.0,0.0,,,,,0,,1,,
Raw,2578502,2582015000000,,,-1278056086415276544,0.0,83.45227979589254,5.269579202609971,15.195467922936036,542,15,0.0,15,116268347185108,16,29.4,-724.546630859375,0.20000000298023224,0,0.0,0.0,,,,,0,,1,,
Raw,2578503,2582015000000,,,-1278056086415276544,0.0,83.45227979589254,5.269579202609971,15.195467922936036,542,19,0.0,15,116268356958247,24,25.5,561.0073852539062,0.4058000147342682,0,0.0,0.0,,,,,0,,1,,
Raw,2578503,2582015000000,,,-1278056086415276544,0.0,83.45227979589254,5.269579202609971,15.195467922936036,542,25,0.0,15,116268348154756,16,29.2,57.692596435546875,0.20000000298023224,0,0.0,0.0,,,,,0,,1,,
Raw,2578503,2582015000000,,,-1278056086415276544,0.0,83.45227979589254,5.269579202609971,15.195467922936036,542,29,0.0,15,116268346256072,24,25.3,-673.7369384765625,0.39079999923706055,0,0.0,0.0,,,,,0,,1,,
Raw,2578503,2582015000000,,,-1278056086415276544,0.0,83.45227979589254,5.269579202609971,15.195467922936036,542,1,0.0,783,116254306575892,25,26.3,3.2550694942474365,1.4984999895095825,0,0.0,0.0,,,,,0,,5,,
Raw,2578504,2582015000000,,,-1278056086415276544,0.0,83.45227979589254,5.269579202609971,15.195467922936036,542,2,0.0,783,116254305091929,28,27.6,-0.8545758128166199,2.180000066757202,0,0.0,0.0,,,,,0,,5,,
Raw,2578504,2582015000000,,,-1278056086415276544,0.0,83.45227979589254,5.269579202609971,15.195467922936036,542,3,0.0,783,116254309734925,11,33.1,6.80780029296875,0.2850000262260437,0,0.0,0.0,,,,,0,,5,,
Raw,2578504,2582015000000,,,-1278056086415276544,0.0,83.45227979589254,5.269579202609971,15.195467922936036,542,5,0.0,783,116254297147014,11,33.1,0.4704967737197876,0.3150000274181366,0,0.0,0.0,,,,,0,,5,,
Raw,2578504,2582015000000,,,-1278056086415276544,0.0,83.45227979589254,5.269579202609971,15.195467922936036,542,6,0.0,15,116254306633428,24,25.1,-224.3021240234375,0.5354999899864197,0,0.0,0.0,,,,,0,,5,,
Raw,2578504,2582015000000,,,-1278056086415276544,0.0,83.45227979589254,5.269579202609971,15.195467922936036,542,7,0.0,15,116254299788056,35,22.6,284.75616455078125,0.6649999618530273,0,0.0,0.0,,,,,0,,5,,
Raw,2578505,2582015000000,,,-1278056086415276544,0.0,83.45227979589254,5.269579202609971,15.195467922936036,542,9,0.0,15,116254300793722,24,25.1,-256.782470703125,0.38179999589920044,0,0.0,0.0,,,,,0,,5,,
Raw,2578505,2582015000000,,,-1278056086415276544,0.0,83.45227979589254,5.269579202609971,15.195467922936036,542,10,0.0,15,116254301487998,21,26.5,311.4175109863281,0.20000000298023224,0,0.0,0.0,,,,,0,,5,,
Raw,2578505,2582015000000,,,-1278056086415276544,0.0,83.45227979589254,5.269579202609971,15.195467922936036,542,11,0.0,15,116254344381664,53,19.5,-570.89501953125,0.8524999618530273,0,0.0,0.0,,,,,0,,5,,
Raw,2578505,2582015000000,,,-1278056086415276544,0.0,83.45227979589254,5.269579202609971,15.195467922936036,542,12,0.0,15,116254357452833,13,31.8,-264.2632751464844,0.20000000298023224,0,0.0,0.0,,,,,0,,5,,
Raw,2578506,2582015000000,,,-1278056086415276544,0.0,83.45227979589254,5.269579202609971,15.195467922936036,542,13,0.0,15,116254304848703,16,29.1,-70.72489166259766,0.20000000298023224,0,0.0,0.0,,,,,0,,5,,
Raw,2578506,2582015000000,,,-1278056086415276544,0.0,83.45227979589254,5.269579202609971,15.195467922936036,542,14,0.0,15,116254341734444,13,31.4,-517.5263061523438,0.20000000298023224,0,0.0,0.0,,,,,0,,5,,
Raw,2578506,2582015000000,,,-1278056086415276544,0.0,83.45227979589254,5.269579202609971,15.195467922936036,542,16,0.0,15,116254304545232,16,29.6,-256.49481201171875,0.20000000298023224,0,0.0,0.0,,,,,0,,5,,
Raw,2578506,2582015000000,,,-1278056086415276544,0.0,83.45227979589254,5.269579202609971,15.195467922936036,542,21,0.0,15,116254357153225,19,27.8,10.281450271606445,0.20000000298023224,0,0.0,0.0,,,,,0,,5,,
Raw,2578507,2582015000000,,,-1278056086415276544,0.0,83.45227979589254,5.269579202609971,15.195467922936036,542,22,0.0,15,116254351423495,53,19.2,463.74658203125,0.8629999756813049,0,0.0,0.0,,,,,0,,5,,
Fix,gps,22.925369,120.294639,44.509827,0.000000,6.432000,1594023451000
NMEA,$GPGSV,4,1,13,02,00,000,15,05,55,295,33,06,42,063,18,09,16,042,17*71,1594023450202
NMEA,$GPGSV,4,2,13,12,23,261,40,13,30,184,26,15,07,208,29,19,42,146,26*7D,1594023450206
NMEA,$GPGSV,4,3,13,25,10,289,29,29,04,323,25,07,04,088,,17,22,147,*7F,1594023450207
NMEA,$GPGSV,4,4,13,30,08,119,*49,1594023450207
NMEA,$GLGSV,2,1,07,82,51,097,16,69,42,223,28,67,23,025,15,68,73,345,34*6A,1594023450207
NMEA,$GLGSV,2,2,07,84,04,327,,83,52,005,,81,09,129,*5F,1594023450207
NMEA,$GAGSV,1,1,02,01,07,205,,19,54,201,*61,1594023450207
NMEA,$PQGSV,1,1,03,193,69,057,20,195,70,139,15,194,11,160,,0,5*63,1594023450207
NMEA,$PQGSV,4,1,16,01,50,130,26,02,42,243,28,03,62,203,33,05,17,258,33,0,4*6A,1594023450207
NMEA,$PQGSV,4,2,16,06,47,171,25,07,21,195,23,09,25,191,25,10,27,220,27,0,4*66,1594023450208
NMEA,$PQGSV,4,3,16,11,14,322,20,12,65,341,32,13,41,330,29,14,02,227,31,0,4*66,1594023450208
NMEA,$PQGSV,4,4,16,16,44,178,30,21,73,285,28,22,40,030,19,04,37,113,,0,4*68,1594023450208
NMEA,$GNGSA,A,3,05,12,13,15,19,25,,,,,,,1.4,1.1,0.9,1*32,1594023450209
NMEA,$GNGSA,A,2,68,69,,,,,,,,,,,1.4,1.1,0.9,2*3E,1594023450209
NMEA,$PQGSA,A,3,05,10,12,13,21,,,,,,,,1.4,1.1,0.9,4*36,1594023450210
NMEA,$GNVTG,,T,,M,0.0,N,0.0,K,A*3D,1594023450210
NMEA,$GNRMC,081731.00,A,2255.522137,N,12017.678344,E,0.0,,060720,2.8,W,A*1D,1594023450210
NMEA,$GNGGA,081731.00,2255.522137,N,12017.678344,E,1,12,1.1,27.0,M,17.5,M,,*44,1594023450210
Raw,2579414,2583015000000,,,-1278056086415276544,0.0,82.36310532083735,9.0944303267976,14.339606400160966,542,18,0.0,207,40651362733872,900,16.8,174.0517578125,4.999500274658203,0,0.0,0.0,,,,,0,,3,,
Raw,2579414,2583015000000,,,-1278056086415276544,0.0,82.36310532083735,9.0944303267976,14.339606400160966,542,5,0.0,207,40651361322071,17,28.2,-460.9766540527344,0.23480001091957092,0,0.0,0.0,,,,,0,,3,,
Raw,2579415,2583015000000,,,-1278056086415276544,0.0,82.36310532083735,9.0944303267976,14.339606400160966,542,3,0.0,207,40651355664992,1032,15.3,713.5333862304688,5.109000205993652,0,0.0,0.0,,,,,0,,3,,
Raw,2579415,2583015000000,,,-1278056086415276544,0.0,82.36310532083735,9.0944303267976,14.339606400160966,542,4,0.0,207,40651365715702,10,34.1,239.6419677734375,0.22960001230239868,0,0.0,0.0,,,,,0,,3,,
Raw,2579415,2583015000000,,,-1278056086415276544,0.0,82.36310532083735,9.0944303267976,14.339606400160966,542,2,0.0,15,116269357561230,1183,15.4,-215.91671752929688,5.0420002937316895,0,0.0,0.0,,,,,0,,1,,
Raw,2579416,2583015000000,,,-1278056086415276544,0.0,82.36310532083735,9.0944303267976,14.339606400160966,542,5,0.0,15,116269360621740,10,34.0,-32.51237869262695,0.20000000298023224,0,0.0,0.0,,,,,0,,1,,
Raw,2579417,2583015000000,,,-1278056086415276544,0.0,82.36310532083735,9.0944303267976,14.339606400160966,542,6,0.0,15,116269357067479,785,17.6,115.08009338378906,4.76200008392334,0,0.0,0.0,,,,,0,,1,,
Raw,2579417,2583015000000,,,-1278056086415276544,0.0,82.36310532083735,9.0944303267976,14.339606400160966,542,9,0.0,15,116269350111585,1031,16.0,559.3872680664062,4.93149995803833,0,0.0,0.0,,,,,0,,1,,
Raw,2579417,2583015000000,,,-1278056086415276544,0.0,82.36310532083735,9.0944303267976,14.339606400160966,542,12,0.0,15,116269352155019,5,40.3,267.9737548828125,0.20000000298023224,0,0.0,0.0,,,,,0,,1,,
Raw,2579418,2583015000000,,,-1278056086415276544,0.0,82.36310532083735,9.0944303267976,14.339606400160966,542,13,0.0,15,116269354848591,21,26.0,-640.127197265625,0.20000000298023224,0,0.0,0.0,,,,,0,,1,,
Raw,2579418,2583015000000,,,-1278056086415276544,0.0,82.36310532083735,9.0944303267976,14.339606400160966,542,15,0.0,15,116269347187514,14,30.1,-724.1759643554688,0.20000000298023224,0,0.0,0.0,,,,,0,,1,,
Raw,2579419,2583015000000,,,-1278056086415276544,0.0,82.36310532083735,9.0944303267976,14.339606400160966,542,19,0.0,15,116269356956344,21,26.1,561.4741821289062,0.20000000298023224,0,0.0,0.0,,,,,0,,1,,
Raw,2579419,2583015000000,,,-1278056086415276544,0.0,82.36310532083735,9.0944303267976,14.339606400160966,542,25,0.0,15,116269348154563,16,29.2,58.15669631958008,0.20000000298023224,0,0.0,0.0,,,,,0,,1,,
Raw,2579419,2583015000000,,,-1278056086415276544,0.0,82.36310532083735,9.0944303267976,14.339606400160966,542,29,0.0,15,116269346258377,31,23.4,-673.21142578125,0.7354999780654907,0,0.0,0.0,,,,,0,,1,,
Raw,2579420,2583015000000,,,-1278056086415276544,0.0,82.36310532083735,9.0944303267976,14.339606400160966,542,1,0.0,783,116255306575881,38,26.3,3.2550694942474365,2.998500108718872,0,0.0,0.0,,,,,0,,5,,
Raw,2579420,2583015000000,,,-1278056086415276544,0.0,82.36310532083735,9.0944303267976,14.339606400160966,542,2,0.0,783,116255305091961,21,27.4,-2.8805923461914062,1.2350000143051147,0,0.0,0.0,,,,,0,,5,,
Raw,2579421,2583015000000,,,-1278056086415276544,0.0,82.36310532083735,9.0944303267976,14.339606400160966,542,3,0.0,783,116255309734909,11,33.3,6.586954116821289,0.2850000262260437,0,0.0,0.0,,,,,0,,5,,
Raw,2579421,2583015000000,,,-1278056086415276544,0.0,82.36310532083735,9.0944303267976,14.339606400160966,542,5,0.0,783,116255297147015,12,32.7,-1.2770626544952393,0.33500000834465027,0,0.0,0.0,,,,,0,,5,,
Raw,2579421,2583015000000,,,-1278056086415276544,0.0,82.36310532083735,9.0944303267976,14.339606400160966,542,6,0.0,15,116255306634167,27,24.8,-223.93724060058594,0.5354999899864197,0,0.0,0.0,,,,,0,,5,,
Raw,2579422,2583015000000,,,-1278056086415276544,0.0,82.36310532083735,9.0944303267976,14.339606400160966,542,7,0.0,15,116255299787126,35,22.9,285.0154113769531,0.6150000095367432,0,0.0,0.0,,,,,0,,5,,
Raw,2579422,2583015000000,,,-1278056086415276544,0.0,82.36310532083735,9.0944303267976,14.339606400160966,542,9,0.0,15,116255300794570,24,25.7,-255.8726043701172,0.38179999589920044,0,0.0,0.0,,,,,0,,5,,
Raw,2579423,2583015000000,,,-1278056086415276544,0.0,82.36310532083735,9.0944303267976,14.339606400160966,542,10,0.0,15,116255301486967,19,27.0,311.7952575683594,0.20000000298023224,0,0.0,0.0,,,,,0,,5,,
Raw,2579423,2583015000000,,,-1278056086415276544,0.0,82.36310532083735,9.0944303267976,14.339606400160966,542,11,0.0,15,116255344383616,61,18.5,-570.1844482421875,0.92249995470047,0,0.0,0.0,,,,,0,,5,,
Raw,2579423,2583015000000,,,-1278056086415276544,0.0,82.36310532083735,9.0944303267976,14.339606400160966,542,12,0.0,15,116255357453711,13,31.9,-263.8052673339844,0.20000000298023224,0,0.0,0.0,,,,,0,,5,,
Raw,2579424,2583015000000,,,-1278056086415276544,0.0,82.36310532083735,9.0944303267976,14.339606400160966,542,13,0.0,15,116255304848945,16,29.6,-70.3895263671875,0.20000000298023224,0,0.0,0.0,,,,,0,,5,,
Raw,2579424,2583015000000,,,-1278056086415276544,0.0,82.36310532083735,9.0944303267976,14.339606400160966,542,14,0.0,15,116255341736173,12,32.1,-517.1289672851562,0.20000000298023224,0,0.0,0.0,,,,,0,,5,,
Raw,2579424,2583015000000,,,-1278056086415276544,0.0,82.36310532083735,9.0944303267976,14.339606400160966,542,16,0.0,15,116255304546090,16,29.8,-256.0958557128906,0.20000000298023224,0,0.0,0.0,,,,,0,,5,,
Raw,2579424,2583015000000,,,-1278056086415276544,0.0,82.36310532083735,9.0944303267976,14.339606400160966,542,21,0.0,15,116255357153184,19,27.8,10.757164001464844,0.20000000298023224,0,0.0,0.0,,,,,0,,5,,
Raw,2579424,2583015000000,,,-1278056086415276544,0.0,82.36310532083735,9.0944303267976,14.339606400160966,542,22,0.0,15,116255351421836,70,17.0,463.50653076171875,1.0130000114440918,0,0.0,0.0,,,,,0,,5,,
Fix,gps,22.925369,120.294639,44.477356,0.000000,6.432000,1594023452000
NMEA,$GPGSV,4,1,13,02,00,000,15,05,55,295,34,06,42,063,18,09,16,042,16*77,1594023451200
NMEA,$GPGSV,4,2,13,12,23,261,40,13,30,184,26,15,07,208,30,19,42,146,26*75,1594023451201
NMEA,$GPGSV,4,3,13,25,10,289,29,29,04,323,23,07,04,088,,17,22,147,*79,1594023451201
NMEA,$GPGSV,4,4,13,30,08,119,*49,1594023451202
NMEA,$GLGSV,2,1,07,82,51,097,17,69,42,223,28,67,23,025,15,68,73,345,34*6B,1594023451202
NMEA,$GLGSV,2,2,07,84,04,327,,83,52,005,,81,09,129,*5F,1594023451203
NMEA,$GAGSV,1,1,02,01,07,205,,19,54,201,*61,1594023451206
NMEA,$PQGSV,1,1,03,193,69,057,22,195,70,139,14,194,11,160,,0,5*60,1594023451209
NMEA,$PQGSV,4,1,16,01,50,130,26,02,42,243,27,03,62,203,33,05,17,258,33,0,4*65,1594023451211
NMEA,$PQGSV,4,2,16,06,47,171,25,07,21,195,23,09,25,191,26,10,27,220,27,0,4*65,1594023451212
NMEA,$PQGSV,4,3,16,11,14,322,19,12,65,341,32,13,41,330,30,14,02,227,32,0,4*67,1594023451212
NMEA,$PQGSV,4,4,16,16,44,178,30,21,73,285,28,22,40,030,17,04,37,113,,0,4*66,1594023451213
NMEA,$GNGSA,A,3,05,12,13,15,19,25,,,,,,,1.4,1.1,0.9,1*32,1594023451215
NMEA,$GNGSA,A,2,68,69,,,,,,,,,,,1.4,1.1,0.9,2*3E,1594023451216
NMEA,$PQGSA,A,3,05,10,12,13,21,,,,,,,,1.4,1.1,0.9,4*36,1594023451217
NMEA,$GNVTG,,T,,M,0.0,N,0.0,K,A*3D,1594023451218
NMEA,$GNRMC,081732.00,A,2255.522137,N,12017.678344,E,0.0,,060720,2.8,W,A*1E,1594023451218
NMEA,$GNGGA,081732.00,2255.522137,N,12017.678344,E,1,12,1.1,27.0,M,17.5,M,,*47,1594023451218
Raw,2580404,2584015000000,,,-1278056086415276544,0.0,77.03350274823606,9.836263188088664,15.338180699318741,542,18,0.0,207,40652362733285,916,16.9,174.4451446533203,5.749500274658203,0,0.0,0.0,,,,,0,,3,,
Raw,2580404,2584015000000,,,-1278056086415276544,0.0,77.03350274823606,9.836263188088664,15.338180699318741,542,5,0.0,207,40652361323650,19,27.7,-460.7104797363281,0.2428000122308731,0,0.0,0.0,,,,,0,,3,,
Raw,2580405,2584015000000,,,-1278056086415276544,0.0,77.03350274823606,9.836263188088664,15.338180699318741,542,3,0.0,207,40652355662596,1048,15.1,713.9163818359375,5.859000205993652,0,0.0,0.0,,,,,0,,3,,
Raw,2580405,2584015000000,,,-1278056086415276544,0.0,77.03350274823606,9.836263188088664,15.338180699318741,542,4,0.0,207,40652365714915,10,34.2,239.9219207763672,0.22960001230239868,0,0.0,0.0,,,,,0,,3,,
Raw,2580405,2584015000000,,,-1278056086415276544,0.0,77.03350274823606,9.836263188088664,15.338180699318741,542,2,0.0,15,116270357561971,1199,15.4,-215.6217498779297,5.7920002937316895,0,0.0,0.0,,,,,0,,1,,
Raw,2580405,2584015000000,,,-1278056086415276544,0.0,77.03350274823606,9.836263188088664,15.338180699318741,542,5,0.0,15,116270360621851,11,33.5,-32.31193542480469,0.20000000298023224,0,0.0,0.0,,,,,0,,1,,
Raw,2580406,2584015000000,,,-1278056086415276544,0.0,77.03350274823606,9.836263188088664,15.338180699318741,542,6,0.0,15,116270357067083,800,17.5,115.4131088256836,5.51200008392334,0,0.0,0.0,,,,,0,,1,,
Raw,2580406,2584015000000,,,-1278056086415276544,0.0,77.03350274823606,9.836263188088664,15.338180699318741,542,9,0.0,15,116270350109693,1047,16.0,558.9495849609375,5.681500434875488,0,0.0,0.0,,,,,0,,1,,
Raw,2580406,2584015000000,,,-1278056086415276544,0.0,77.03350274823606,9.836263188088664,15.338180699318741,542,12,0.0,15,116270352154127,5,40.3,268.2132568359375,0.20000000298023224,0,0.0,0.0,,,,,0,,1,,
Raw,2580406,2584015000000,,,-1278056086415276544,0.0,77.03350274823606,9.836263188088664,15.338180699318741,542,13,0.0,15,116270354850789,24,25.1,-639.84033203125,0.4027999937534332,0,0.0,0.0,,,,,0,,1,,
Raw,2580407,2584015000000,,,-1278056086415276544,0.0,77.03350274823606,9.836263188088664,15.338180699318741,542,15,0.0,15,116270347189944,14,30.6,-723.9954833984375,0.20000000298023224,0,0.0,0.0,,,,,0,,1,,
Raw,2580407,2584015000000,,,-1278056086415276544,0.0,77.03350274823606,9.836263188088664,15.338180699318741,542,19,0.0,15,116270356954509,21,26.6,561.7567138671875,0.20000000298023224,0,0.0,0.0,,,,,0,,1,,
Raw,2580407,2584015000000,,,-1278056086415276544,0.0,77.03350274823606,9.836263188088664,15.338180699318741,542,25,0.0,15,116270348154381,16,29.3,58.418704986572266,0.20000000298023224,0,0.0,0.0,,,,,0,,1,,
Raw,2580407,2584015000000,,,-1278056086415276544,0.0,77.03350274823606,9.836263188088664,15.338180699318741,542,29,0.0,15,116270346260569,31,23.8,-673.572998046875,0.6754999756813049,0,0.0,0.0,,,,,0,,1,,
Raw,2580408,2584015000000,,,-1278056086415276544,0.0,77.03350274823606,9.836263188088664,15.338180699318741,542,1,0.0,783,116256306575875,24,26.3,5.146658420562744,1.2735000848770142,0,0.0,0.0,,,,,0,,5,,
Raw,2580408,2584015000000,,,-1278056086415276544,0.0,77.03350274823606,9.836263188088664,15.338180699318741,542,2,0.0,783,116256305091971,33,27.4,-2.8805923461914062,2.7350001335144043,0,0.0,0.0,,,,,0,,5,,
Raw,2580408,2584015000000,,,-1278056086415276544,0.0,77.03350274823606,9.836263188088664,15.338180699318741,542,3,0.0,783,116256309734879,11,33.2,6.586954116821289,0.2850000262260437,0,0.0,0.0,,,,,0,,5,,
Raw,2580408,2584015000000,,,-1278056086415276544,0.0,77.03350274823606,9.836263188088664,15.338180699318741,542,5,0.0,783,116256297147022,12,32.5,0.6625362634658813,0.33500000834465027,0,0.0,0.0,,,,,0,,5,,
Raw,2580408,2584015000000,,,-1278056086415276544,0.0,77.03350274823606,9.836263188088664,15.338180699318741,542,6,0.0,15,116256306634896,27,24.7,-223.96604919433594,0.5855000019073486,0,0.0,0.0,,,,,0,,5,,
Raw,2580409,2584015000000,,,-1278056086415276544,0.0,77.03350274823606,9.836263188088664,15.338180699318741,542,7,0.0,15,116256299786161,31,23.7,285.03460693359375,0.6150000095367432,0,0.0,0.0,,,,,0,,5,,
Raw,2580409,2584015000000,,,-1278056086415276544,0.0,77.03350274823606,9.836263188088664,15.338180699318741,542,9,0.0,15,116256300795411,24,25.2,-255.64019775390625,0.38179999589920044,0,0.0,0.0,,,,,0,,5,,
Raw,2580409,2584015000000,,,-1278056086415276544,0.0,77.03350274823606,9.836263188088664,15.338180699318741,542,10,0.0,15,116256301485916,21,26.8,311.9779052734375,0.20000000298023224,0,0.0,0.0,,,,,0,,5,,
Raw,2580409,2584015000000,,,-1278056086415276544,0.0,77.03350274823606,9.836263188088664,15.338180699318741,542,11,0.0,15,116256344385500,46,20.2,-569.5123291015625,0.7924999594688416,0,0.0,0.0,,,,,0,,5,,
Raw,2580410,2584015000000,,,-1278056086415276544,0.0,77.03350274823606,9.836263188088664,15.338180699318741,542,12,0.0,15,116256357454581,13,31.6,-263.53961181640625,0.20000000298023224,0,0.0,0.0,,,,,0,,5,,
Raw,2580410,2584015000000,,,-1278056086415276544,0.0,77.03350274823606,9.836263188088664,15.338180699318741,542,13,0.0,15,116256304849190,16,29.2,-70.25150299072266,0.20000000298023224,0,0.0,0.0,,,,,0,,5,,
Raw,2580410,2584015000000,,,-1278056086415276544,0.0,77.03350274823606,9.836263188088664,15.338180699318741,542,14,0.0,15,116256341737886,12,32.5,-516.9405517578125,0.20000000298023224,0,0.0,0.0,,,,,0,,5,,
Raw,2580411,2584015000000,,,-1278056086415276544,0.0,77.03350274823606,9.836263188088664,15.338180699318741,542,16,0.0,15,116256304546942,16,29.8,-255.90997314453125,0.20000000298023224,0,0.0,0.0,,,,,0,,5,,
Raw,2580411,2584015000000,,,-1278056086415276544,0.0,77.03350274823606,9.836263188088664,15.338180699318741,542,21,0.0,15,116256357153168,19,27.9,11.00213623046875,0.20000000298023224,0,0.0,0.0,,,,,0,,5,,
Raw,2580411,2584015000000,,,-1278056086415276544,0.0,77.03350274823606,9.836263188088664,15.338180699318741,542,22,0.0,15,116256351420407,61,18.5,463.7177429199219,0.9329999685287476,0,0.0,0.0,,,,,0,,5,,
Fix,gps,22.925369,120.294639,44.452393,0.000000,5.360000,1594023453000
NMEA,$GPGSV,4,1,13,02,00,000,15,05,55,295,34,06,42,063,18,09,16,042,16*77,1594023452204
NMEA,$GPGSV,4,2,13,12,23,261,40,13,30,184,25,15,07,208,31,19,42,146,27*76,1594023452205
NMEA,$GPGSV,4,3,13,25,10,289,29,29,04,323,24,07,04,088,,17,22,147,*7E,1594023452205
NMEA,$GPGSV,4,4,13,30,08,119,*49,1594023452205
NMEA,$GLGSV,2,1,07,82,51,097,17,69,42,223,28,67,23,025,15,68,73,345,34*6B,1594023452205
NMEA,$GLGSV,2,2,07,84,04,327,,83,52,005,,81,09,129,*5F,1594023452205
NMEA,$GAGSV,1,1,02,01,07,205,,19,54,201,*61,1594023452206
NMEA,$PQGSV,1,1,03,193,69,057,22,194,11,160,14,195,70,139,14,0,5*65,1594023452206
NMEA,$PQGSV,4,1,16,01,50,130,26,02,42,243,27,03,62,203,33,05,17,258,33,0,4*65,1594023452206
NMEA,$PQGSV,4,2,16,06,47,171,25,07,21,195,24,09,25,191,25,10,27,220,27,0,4*61,1594023452206
NMEA,$PQGSV,4,3,16,11,14,322,20,12,65,341,32,13,41,330,29,14,02,227,33,0,4*64,1594023452206
NMEA,$PQGSV,4,4,16,16,44,178,30,21,73,285,28,22,40,030,19,04,37,113,,0,4*68,1594023452206
NMEA,$GNGSA,A,3,05,12,13,15,19,25,,,,,,,1.4,1.1,0.9,1*32,1594023452207
NMEA,$GNGSA,A,2,68,69,,,,,,,,,,,1.4,1.1,0.9,2*3E,1594023452207
NMEA,$PQGSA,A,3,05,10,12,13,21,,,,,,,,1.4,1.1,0.9,4*36,1594023452208
NMEA,$GNVTG,,T,,M,0.0,N,0.0,K,A*3D,1594023452208
NMEA,$GNRMC,081733.00,A,2255.522137,N,12017.678343,E,0.0,,060720,2.8,W,A*18,1594023452208
NMEA,$GNGGA,081733.00,2255.522137,N,12017.678343,E,1,12,1.1,27.0,M,17.5,M,,*41,1594023452208
Raw,2581487,2585015000000,,,-1278056086415276544,0.0,71.16976485121995,10.784148803890048,14.019338093654241,542,18,0.0,207,40653362732708,819,17.4,174.76361083984375,6.4095001220703125,0,0.0,0.0,,,,,0,,3,,
Raw,2581487,2585015000000,,,-1278056086415276544,0.0,71.16976485121995,10.784148803890048,14.019338093654241,542,5,0.0,207,40653361325144,19,27.7,-460.25,0.2428000122308731,0,0.0,0.0,,,,,0,,3,,
Raw,2581488,2585015000000,,,-1278056086415276544,0.0,71.16976485121995,10.784148803890048,14.019338093654241,542,3,0.0,207,40653355660207,1219,14.3,714.121826171875,6.709000110626221,0,0.0,0.0,,,,,0,,3,,
Raw,2581488,2585015000000,,,-1278056086415276544,0.0,71.16976485121995,10.784148803890048,14.019338093654241,542,4,0.0,207,40653365714100,10,34.2,240.3719940185547,0.22960001230239868,0,0.0,0.0,,,,,0,,3,,
Raw,2581488,2585015000000,,,-1278056086415276544,0.0,71.16976485121995,10.784148803890048,14.019338093654241,542,2,0.0,15,116271357562714,1217,15.4,-215.33631896972656,6.5420002937316895,0,0.0,0.0,,,,,0,,1,,
Raw,2581488,2585015000000,,,-1278056086415276544,0.0,71.16976485121995,10.784148803890048,14.019338093654241,542,5,0.0,15,116271360621967,11,33.5,-31.90628433227539,0.20000000298023224,0,0.0,0.0,,,,,0,,1,,
Raw,2581489,2585015000000,,,-1278056086415276544,0.0,71.16976485121995,10.784148803890048,14.019338093654241,542,6,0.0,15,116271357066694,818,17.5,115.46068572998047,6.26200008392334,0,0.0,0.0,,,,,0,,1,,
Raw,2581489,2585015000000,,,-1278056086415276544,0.0,71.16976485121995,10.784148803890048,14.019338093654241,542,9,0.0,15,116271350107817,1065,16.1,559.2255249023438,6.431500434875488,0,0.0,0.0,,,,,0,,1,,
Raw,2581489,2585015000000,,,-1278056086415276544,0.0,71.16976485121995,10.784148803890048,14.019338093654241,542,12,0.0,15,116271352153224,5,40.3,268.5867614746094,0.20000000298023224,0,0.0,0.0,,,,,0,,1,,
Raw,2581489,2585015000000,,,-1278056086415276544,0.0,71.16976485121995,10.784148803890048,14.019338093654241,542,13,0.0,15,116271354852929,24,25.4,-639.5690307617188,0.4027999937534332,0,0.0,0.0,,,,,0,,1,,
Raw,2581490,2585015000000,,,-1278056086415276544,0.0,71.16976485121995,10.784148803890048,14.019338093654241,542,15,0.0,15,116271347192357,14,30.5,-723.6954956054688,0.20000000298023224,0,0.0,0.0,,,,,0,,1,,
Raw,2581490,2585015000000,,,-1278056086415276544,0.0,71.16976485121995,10.784148803890048,14.019338093654241,542,19,0.0,15,116271356952652,21,26.8,562.1021728515625,0.20000000298023224,0,0.0,0.0,,,,,0,,1,,
Raw,2581490,2585015000000,,,-1278056086415276544,0.0,71.16976485121995,10.784148803890048,14.019338093654241,542,25,0.0,15,116271348154179,17,28.6,58.811004638671875,0.20000000298023224,0,0.0,0.0,,,,,0,,1,,
