# 
# Header Description:
# 
# Version: v2.0.0.1 Platform: 8.0.0 Manufacturer: Sony Model: G8142
# 
# Raw,ElapsedRealtimeMillis,TimeNanos,LeapSecond,TimeUncertaintyNanos,FullBiasNanos,BiasNanos,BiasUncertaintyNanos,DriftNanosPerSecond,DriftUncertaintyNanosPerSecond,HardwareClockDiscontinuityCount,Svid,TimeOffsetNanos,State,ReceivedSvTimeNanos,ReceivedSvTimeUncertaintyNanos,Cn0DbHz,PseudorangeRateMetersPerSecond,PseudorangeRateUncertaintyMetersPerSecond,AccumulatedDeltaRangeState,AccumulatedDeltaRangeMeters,AccumulatedDeltaRangeUncertaintyMeters,CarrierFrequencyHz,CarrierCycles,CarrierPhase,CarrierPhaseUncertainty,MultipathIndicator,SnrInDb,ConstellationType,AgcDb,CarrierFrequencyHz
# 
# Fix,Provider,Latitude,Longitude,Altitude,Speed,Accuracy,(UTC)TimeInMs
# 
# Nav,Svid,Type,Status,MessageId,Sub-messageId,Data(Bytes)
# 
Fix,gps,22.925354,120.294686,44.915222,0.000000,3.216000,1594023707000
NMEA,$GPGSA,A,1,,,,,,,,,,,,,1.6,1.3,0.9,1*21,1594023706179
NMEA,$GPVTG,,T,,M,0.0,N,0.0,K,A*23,1594023706180
NMEA,$GPRMC,082147.00,A,2255.521256,N,12017.681140,E,0.0,,060720,2.8,W,A*00,1594023706180
NMEA,$GPGGA,082147.00,2255.521256,N,12017.681140,E,1,00,1.3,27.4,M,17.5,M,,*5C,1594023706187
Raw,2835384,2839346000000,,,-1278056086328122368,0.0,4129.535984247923,-6.184482221727488,8.581141499085561,699,5,0.0,207,40907605551789,12,32.9,-435.5854187011719,0.25600001215934753,0,0.0,0.0,,,,,0,,3,,
Raw,2835385,2839346000000,,,-1278056086328122368,0.0,4129.535984247923,-6.184482221727488,8.581141499085561,699,5,0.0,15,116525604491500,7,37.5,-21.954578399658203,0.03350000083446503,0,0.0,0.0,,,,,0,,1,,
Raw,2835385,2839346000000,,,-1278056086328122368,0.0,4129.535984247923,-6.184482221727488,8.581141499085561,699,12,0.0,15,116525595767188,5,40.0,280.1891784667969,0.04240000247955322,0,0.0,0.0,,,,,0,,1,,
Raw,2835386,2839346000000,,,-1278056086328122368,0.0,4129.535984247923,-6.184482221727488,8.581141499085561,699,13,0.0,15,116525599240163,21,26.5,-635.3984375,0.27920001745224,0,0.0,0.0,,,,,0,,1,,
Raw,2835386,2839346000000,,,-1278056086328122368,0.0,4129.535984247923,-6.184482221727488,8.581141499085561,699,15,0.0,15,116525591654929,12,32.8,-728.3673095703125,0.06499999761581421,0,0.0,0.0,,,,,0,,1,,
Raw,2835386,2839346000000,,,-1278056086328122368,0.0,4129.535984247923,-6.184482221727488,8.581141499085561,699,19,0.0,15,116525600317050,17,28.8,575.2391967773438,0.1273999959230423,0,0.0,0.0,,,,,0,,1,,
Raw,2835387,2839346000000,,,-1278056086328122368,0.0,4129.535984247923,-6.184482221727488,8.581141499085561,699,25,0.0,15,116525591943995,13,31.7,75.28691101074219,0.07159999758005142,0,0.0,0.0,,,,,0,,1,,
Fix,gps,22.925353,120.294683,45.531494,0.000000,3.216000,1594023708000
NMEA,$GPGSV,4,1,13,05,55,302,38,12,22,258,40,13,33,182,27,15,09,208,33*72,1594023707185
NMEA,$GPGSV,4,2,13,19,39,147,29,25,10,286,32,02,54,004,,06,42,066,*7A,1594023707185
NMEA,$GPGSV,4,3,13,07,04,087,,09,16,040,,17,20,149,,29,07,323,*7C,1594023707185
NMEA,$GPGSV,4,4,13,30,09,118,*49,1594023707185
NMEA,$GLGSV,2,1,07,69,45,226,33,82,49,101,,84,06,327,,83,54,008,*60,1594023707188
NMEA,$GLGSV,2,2,07,81,07,132,,67,21,025,,68,71,348,*5E,1594023707189
NMEA,$GAGSV,1,1,0,*74,1594023707189
NMEA,$PQGSV,1,1,03,193,69,056,,194,11,160,,195,70,142,,0,5*68,1594023707189
NMEA,$PQGSV,1,1,0,*73,1594023707190
NMEA,$GNGSA,A,3,05,12,13,15,19,25,,,,,,,1.6,1.3,0.9,1*32,1594023707191
NMEA,$GNGSA,A,2,68,69,,,,,,,,,,,1.6,1.3,0.9,2*3E,1594023707191
NMEA,$GNVTG,,T,,M,0.0,N,0.0,K,A*3D,1594023707192
NMEA,$GNRMC,082148.00,A,2255.521178,N,12017.681008,E,0.0,,060720,2.8,W,A*13,1594023707192
NMEA,$GNGGA,082148.00,2255.521178,N,12017.681008,E,1,08,1.3,28.1,M,17.5,M,,*4D,1594023707192
Fix,gps,22.925351,120.294683,44.902649,0.000000,3.216000,1594023709000
Raw,2836385,2840537000000,,,-1278056086327395328,0.0,4208.756145089865,-7.012244159504341,13.788513200545175,700,5,0.0,207,40908795826017,8,36.0,-433.56463623046875,0.2529999911785126,0,0.0,0.0,,,,,0,,3,,
Raw,2836386,2840537000000,,,-1278056086327395328,0.0,4208.756145089865,-7.012244159504341,13.788513200545175,700,5,0.0,15,116526794764098,8,36.8,-20.073192596435547,0.051500000059604645,0,0.0,0.0,,,,,0,,1,,
Raw,2836386,2840537000000,,,-1278056086327395328,0.0,4208.756145089865,-7.012244159504341,13.788513200545175,700,12,0.0,15,116526786038599,6,39.2,281.9429016113281,0.030900001525878906,0,0.0,0.0,,,,,0,,1,,
Raw,2836386,2840537000000,,,-1278056086327395328,0.0,4208.756145089865,-7.012244159504341,13.788513200545175,700,13,0.0,15,116526789515248,14,30.9,-633.0545654296875,0.07699999958276749,0,0.0,0.0,,,,,0,,1,,
Raw,2836386,2840537000000,,,-1278056086327395328,0.0,4208.756145089865,-7.012244159504341,13.788513200545175,700,15,0.0,15,116526781930406,11,33.5,-726.724853515625,0.0747000053524971,0,0.0,0.0,,,,,0,,1,,
Raw,2836387,2840537000000,,,-1278056086327395328,0.0,4208.756145089865,-7.012244159504341,13.788513200545175,700,19,0.0,15,116526790587249,14,30.8,577.046142578125,0.07850000262260437,0,0.0,0.0,,,,,0,,1,,
Raw,2836387,2840537000000,,,-1278056086327395328,0.0,4208.756145089865,-7.012244159504341,13.788513200545175,700,25,0.0,15,116526782216208,12,32.6,77.1722183227539,0.08150000125169754,0,0.0,0.0,,,,,0,,1,,
NMEA,$GPGSV,4,1,13,05,55,302,37,12,22,258,39,13,33,182,31,15,09,208,34*73,1594023708188
NMEA,$GPGSV,4,2,13,19,39,147,31,25,10,286,33,02,54,004,,06,42,066,*72,1594023708188
NMEA,$GPGSV,4,3,13,07,04,087,,09,16,040,,17,20,149,,29,07,323,*7C,1594023708189
NMEA,$GPGSV,4,4,13,30,09,118,*49,1594023708189
NMEA,$GLGSV,2,1,07,69,45,226,36,82,49,101,,84,06,327,,83,54,008,*65,1594023708189
NMEA,$GLGSV,2,2,07,81,07,132,,67,21,025,,68,71,348,*5E,1594023708190
NMEA,$GAGSV,1,1,0,*74,1594023708190
NMEA,$PQGSV,1,1,03,193,69,056,,194,11,160,,195,70,142,,0,5*68,1594023708193
NMEA,$PQGSV,1,1,0,*73,1594023708193
NMEA,$GNGSA,A,3,05,12,13,15,19,25,,,,,,,1.6,1.3,0.9,1*32,1594023708199
NMEA,$GNGSA,A,2,68,69,,,,,,,,,,,1.6,1.3,0.9,2*3E,1594023708200
NMEA,$GNVTG,,T,,M,0.0,N,0.0,K,A*3D,1594023708201
NMEA,$GNRMC,082149.00,A,2255.521089,N,12017.680990,E,0.0,,060720,2.8,W,A*14,1594023708202
NMEA,$GNGGA,082149.00,2255.521089,N,12017.680990,E,1,08,1.3,27.4,M,17.5,M,,*40,1594023708202
Raw,2837637,2841551000000,,,-1278056086327291648,0.0,4185.577388852835,-0.6432693400031213,10.579626165745069,701,5,0.0,207,40909809723945,9,35.4,-431.1956481933594,0.24800001084804535,0,0.0,0.0,,,,,0,,3,,
Raw,2837638,2841551000000,,,-1278056086327291648,0.0,4185.577388852835,-0.6432693400031213,10.579626165745069,701,5,0.0,15,116527808660587,6,38.7,-17.764463424682617,0.03689999878406525,0,0.0,0.0,,,,,0,,1,,
Raw,2837638,2841551000000,,,-1278056086327291648,0.0,4185.577388852835,-0.6432693400031213,10.579626165745069,701,12,0.0,15,116527799934053,5,40.3,284.3580627441406,0.04840000346302986,0,0.0,0.0,,,,,0,,1,,
Raw,2837638,2841551000000,,,-1278056086327291648,0.0,4185.577388852835,-0.6432693400031213,10.579626165745069,701,13,0.0,15,116527803413848,17,28.8,-630.688232421875,0.13189999759197235,0,0.0,0.0,,,,,0,,1,,
Raw,2837639,2841551000000,,,-1278056086327291648,0.0,4185.577388852835,-0.6432693400031213,10.579626165745069,701,15,0.0,15,116527795829233,12,32.5,-724.4271240234375,0.07100000232458115,0,0.0,0.0,,,,,0,,1,,
Raw,2837639,2841551000000,,,-1278056086327291648,0.0,4185.577388852835,-0.6432693400031213,10.579626165745069,701,19,0.0,15,116527804481704,10,34.3,579.3519897460938,0.044599998742341995,0,0.0,0.0,,,,,0,,1,,
Raw,2837639,2841551000000,,,-1278056086327291648,0.0,4185.577388852835,-0.6432693400031213,10.579626165745069,701,25,0.0,15,116527796112423,13,31.2,79.4172134399414,0.07909999787807465,0,0.0,0.0,,,,,0,,1,,
Fix,gps,22.925351,120.294681,45.252747,0.000000,3.216000,1594023710000
NMEA,$GPGSV,4,1,13,05,55,302,39,12,22,258,40,13,33,182,29,15,09,208,33*7D,1594023709188
NMEA,$GPGSV,4,2,13,19,39,147,34,25,10,286,31,02,54,004,,06,42,066,*75,1594023709189
NMEA,$GPGSV,4,3,13,07,04,087,,09,16,040,,17,20,149,,29,07,323,*7C,1594023709194
NMEA,$GPGSV,4,4,13,30,09,118,*49,1594023709199
NMEA,$GLGSV,2,1,07,69,45,226,35,82,49,101,,84,06,327,,83,54,008,*66,1594023709202
NMEA,$GLGSV,2,2,07,81,07,132,,67,21,025,,68,71,348,*5E,1594023709203
NMEA,$GAGSV,1,1,0,*74,1594023709204
NMEA,$PQGSV,1,1,03,193,69,056,,194,11,160,,195,70,142,,0,5*68,1594023709205
NMEA,$PQGSV,1,1,0,*73,1594023709206
NMEA,$GNGSA,A,3,05,12,13,15,19,25,,,,,,,1.6,1.3,0.9,1*32,1594023709209
NMEA,$GNGSA,A,2,68,69,,,,,,,,,,,1.6,1.3,0.9,2*3E,1594023709209
NMEA,$GNVTG,,T,,M,0.0,N,0.0,K,A*3D,1594023709210
NMEA,$GNRMC,082150.00,A,2255.521037,N,12017.680879,E,0.0,,060720,2.8,W,A*1F,1594023709210
NMEA,$GNGGA,082150.00,2255.521037,N,12017.680879,E,1,08,1.3,27.8,M,17.5,M,,*47,1594023709210
Raw,2838372,2842544000000,,,-1278056086326369280,0.0,4185.596480965614,6.136176988863261,9.49011651020555,702,5,0.0,207,40910801802873,9,35.3,-431.97735595703125,0.26600000262260437,0,0.0,0.0,,,,,0,,3,,
Raw,2838372,2842544000000,,,-1278056086326369280,0.0,4185.596480965614,6.136176988863261,9.49011651020555,702,5,0.0,15,116528800738147,7,37.7,-18.569229125976562,0.057500001043081284,0,0.0,0.0,,,,,0,,1,,
Raw,2838373,2842544000000,,,-1278056086326369280,0.0,4185.596480965614,6.136176988863261,9.49011651020555,702,12,0.0,15,116528792010644,5,40.5,283.54876708984375,0.03790000081062317,0,0.0,0.0,,,,,0,,1,,
Raw,2838373,2842544000000,,,-1278056086326369280,0.0,4185.596480965614,6.136176988863261,9.49011651020555,702,13,0.0,15,116528795493436,17,28.0,-631.6871948242188,0.11990000307559967,0,0.0,0.0,,,,,0,,1,,
Raw,2838373,2842544000000,,,-1278056086326369280,0.0,4185.596480965614,6.136176988863261,9.49011651020555,702,15,0.0,15,116528787909155,12,32.4,-725.2803344726562,0.05900000035762787,0,0.0,0.0,,,,,0,,1,,
Raw,2838373,2842544000000,,,-1278056086326369280,0.0,4185.596480965614,6.136176988863261,9.49011651020555,702,19,0.0,15,116528796557307,11,33.7,578.5614624023438,0.06720000505447388,0,0.0,0.0,,,,,0,,1,,
Raw,2838374,2842544000000,,,-1278056086326369280,0.0,4185.596480965614,6.136176988863261,9.49011651020555,702,25,0.0,15,116528788189641,13,31.1,78.67559814453125,0.06709999591112137,0,0.0,0.0,,,,,0,,1,,
Fix,gps,22.925349,120.294679,45.511292,0.000000,3.216000,1594023711000
NMEA,$GPGSV,4,1,13,05,55,302,38,12,22,258,41,13,33,182,28,15,09,208,32*7D,1594023710184
NMEA,$GPGSV,4,2,13,19,39,147,34,25,10,286,31,02,54,004,,06,42,066,*75,1594023710185
NMEA,$GPGSV,4,3,13,07,04,087,,09,16,040,,17,20,149,,29,07,323,*7C,1594023710186
NMEA,$GPGSV,4,4,13,30,09,118,*49,1594023710186
NMEA,$GLGSV,2,1,07,69,45,226,35,82,49,101,,84,06,327,,83,54,008,*66,1594023710187
NMEA,$GLGSV,2,2,07,81,07,132,,67,21,025,,68,71,348,*5E,1594023710187
NMEA,$GAGSV,1,1,0,*74,1594023710187
NMEA,$PQGSV,1,1,03,193,69,056,,194,11,160,,195,70,142,,0,5*68,1594023710187
NMEA,$PQGSV,1,1,0,*73,1594023710187
NMEA,$GNGSA,A,3,05,12,13,15,19,25,,,,,,,1.6,1.3,0.9,1*32,1594023710188
NMEA,$GNGSA,A,2,68,69,,,,,,,,,,,1.6,1.3,0.9,2*3E,1594023710188
NMEA,$GNVTG,,T,,M,0.0,N,0.0,K,A*3D,1594023710188
NMEA,$GNRMC,082151.00,A,2255.520969,N,12017.680726,E,0.0,,060720,2.8,W,A*18,1594023710189
NMEA,$GNGGA,082151.00,2255.520969,N,12017.680726,E,1,08,1.3,28.0,M,17.5,M,,*47,1594023710189
Raw,2839382,2843537000000,,,-1278056086325638144,0.0,4187.678452581167,3.444981842719426,9.397915070012152,703,5,0.0,207,40911794073328,9,35.2,-429.9272155761719,0.25550001859664917,0,0.0,0.0,,,,,0,,3,,
Raw,2839383,2843537000000,,,-1278056086325638144,0.0,4187.678452581167,3.444981842719426,9.397915070012152,703,5,0.0,15,116529793007261,6,38.2,-16.625106811523438,0.04439999908208847,0,0.0,0.0,,,,,0,,1,,
Raw,2839383,2843537000000,,,-1278056086325638144,0.0,4187.678452581167,3.444981842719426,9.397915070012152,703,12,0.0,15,116529784278706,5,40.8,285.5487976074219,0.055900003761053085,0,0.0,0.0,,,,,0,,1,,
Raw,2839383,2843537000000,,,-1278056086325638144,0.0,4187.678452581167,3.444981842719426,9.397915070012152,703,13,0.0,15,116529787764511,19,27.3,-629.8179321289062,0.17419999837875366,0,0.0,0.0,,,,,0,,1,,
Raw,2839384,2843537000000,,,-1278056086325638144,0.0,4187.678452581167,3.444981842719426,9.397915070012152,703,15,0.0,15,116529780180543,12,32.0,-723.2980346679688,0.07850000262260437,0,0.0,0.0,,,,,0,,1,,
Raw,2839384,2843537000000,,,-1278056086325638144,0.0,4187.678452581167,3.444981842719426,9.397915070012152,703,19,0.0,15,116529788824461,10,34.3,580.522705078125,0.050599999725818634,0,0.0,0.0,,,,,0,,1,,
Raw,2839384,2843537000000,,,-1278056086325638144,0.0,4187.678452581167,3.444981842719426,9.397915070012152,703,25,0.0,15,116529780458416,12,32.3,80.66046905517578,0.07850000262260437,0,0.0,0.0,,,,,0,,1,,
Fix,gps,22.925349,120.294677,45.613708,0.000000,3.216000,1594023712000
NMEA,$GPGSV,4,1,13,05,55,302,38,12,22,258,41,13,33,182,27,15,09,208,32*72,1594023711185
NMEA,$GPGSV,4,2,13,19,39,147,34,25,10,286,32,02,54,004,,06,42,066,*76,1594023711185
NMEA,$GPGSV,4,3,13,07,04,087,,09,16,040,,17,20,149,,29,07,323,*7C,1594023711192
NMEA,$GPGSV,4,4,13,30,09,118,*49,1594023711192
NMEA,$GLGSV,2,1,07,69,45,226,35,82,49,101,,84,06,327,,83,54,008,*66,1594023711193
NMEA,$GLGSV,2,2,07,81,07,132,,67,21,025,,68,71,348,*5E,1594023711193
NMEA,$GAGSV,1,1,0,*74,1594023711193
NMEA,$PQGSV,1,1,03,193,69,056,,194,11,160,,195,70,142,,0,5*68,1594023711193
NMEA,$PQGSV,1,1,0,*73,1594023711194
NMEA,$GNGSA,A,3,05,12,13,15,19,25,,,,,,,1.8,1.6,0.9,1*39,1594023711195
NMEA,$GNGSA,A,2,68,69,,,,,,,,,,,1.8,1.6,0.9,2*35,1594023711195
NMEA,$GNVTG,,T,,M,0.0,N,0.0,K,A*3D,1594023711196
NMEA,$GNRMC,082152.00,A,2255.520944,N,12017.680646,E,0.0,,060720,2.8,W,A*13,1594023711196
NMEA,$GNGGA,082152.00,2255.520944,N,12017.680646,E,1,08,1.6,28.1,M,17.5,M,,*48,1594023711196
Raw,2840608,2844547000000,,,-1278056086324702208,0.0,4182.968288660049,9.677360126380805,10.48074040743801,704,5,0.0,207,40912803138970,10,34.4,-430.5118408203125,0.24310000240802765,0,0.0,0.0,,,,,0,,3,,
Raw,2840609,2844547000000,,,-1278056086324702208,0.0,4182.968288660049,9.677360126380805,10.48074040743801,704,5,0.0,15,116530802071491,6,38.4,-17.19048500061035,0.05790000036358833,0,0.0,0.0,,,,,0,,1,,
Raw,2840609,2844547000000,,,-1278056086324702208,0.0,4182.968288660049,9.677360126380805,10.48074040743801,704,12,0.0,15,116530793341937,5,40.2,284.86102294921875,0.039400000125169754,0,0.0,0.0,,,,,0,,1,,
Raw,2840609,2844547000000,,,-1278056086324702208,0.0,4182.968288660049,9.677360126380805,10.48074040743801,704,13,0.0,15,116530796830812,17,28.4,-630.3228149414062,0.12139999866485596,0,0.0,0.0,,,,,0,,1,,
Raw,2840609,2844547000000,,,-1278056086324702208,0.0,4182.968288660049,9.677360126380805,10.48074040743801,704,15,0.0,15,116530789247179,12,32.6,-724.1060791015625,0.06199999898672104,0,0.0,0.0,,,,,0,,1,,
Raw,2840610,2844547000000,,,-1278056086324702208,0.0,4182.968288660049,9.677360126380805,10.48074040743801,704,19,0.0,15,116530797886666,10,34.4,579.9301147460938,0.0640999972820282,0,0.0,0.0,,,,,0,,1,,
Raw,2840610,2844547000000,,,-1278056086324702208,0.0,4182.968288660049,9.677360126380805,10.48074040743801,704,25,0.0,15,116530789522361,12,32.5,80.04483795166016,0.06199999898672104,0,0.0,0.0,,,,,0,,1,,
Fix,gps,22.925349,120.294677,45.657471,0.000000,3.216000,1594023713000
NMEA,$GPGSV,4,1,13,05,55,302,38,12,22,258,40,13,33,182,28,15,09,208,33*7D,1594023712182
NMEA,$GPGSV,4,2,13,19,39,147,34,25,10,286,33,02,54,004,,06,42,066,*77,1594023712182
NMEA,$GPGSV,4,3,13,07,04,087,,09,16,040,,17,20,149,,29,07,323,*7C,1594023712182
NMEA,$GPGSV,4,4,13,30,09,118,*49,1594023712183
NMEA,$GLGSV,2,1,07,69,45,226,34,82,49,101,,84,06,327,,83,54,008,*67,1594023712183
NMEA,$GLGSV,2,2,07,81,07,132,,67,21,025,,68,71,348,*5E,1594023712183
NMEA,$GAGSV,1,1,0,*74,1594023712183
NMEA,$PQGSV,1,1,03,193,69,056,,194,11,160,,195,70,142,,0,5*68,1594023712184
NMEA,$PQGSV,1,1,0,*73,1594023712184
NMEA,$GNGSA,A,3,05,12,13,15,19,25,,,,,,,1.8,1.6,0.9,1*39,1594023712186
NMEA,$GNGSA,A,2,69,,,,,,,,,,,,1.8,1.6,0.9,2*3B,1594023712186
NMEA,$GNVTG,,T,,M,0.0,N,0.0,K,A*3D,1594023712187
NMEA,$GNRMC,082153.00,A,2255.520935,N,12017.680590,E,0.0,,060720,2.8,W,A*1C,1594023712188
NMEA,$GNGGA,082153.00,2255.520935,N,12017.680590,E,1,07,1.6,28.2,M,17.5,M,,*4B,1594023712188
Raw,2841379,2845540000000,,,-1278056086324575232,0.0,4177.962895482779,7.486599319450474,9.354439565155571,705,5,0.0,207,40913796013510,10,34.0,-430.8299865722656,0.26260000467300415,0,0.0,0.0,,,,,0,,3,,
Raw,2841380,2845540000000,,,-1278056086324575232,0.0,4177.962895482779,7.486599319450474,9.354439565155571,705,5,0.0,15,116531794944648,6,38.6,-17.62784767150879,0.045900002121925354,0,0.0,0.0,,,,,0,,1,,
Raw,2841381,2845540000000,,,-1278056086324575232,0.0,4177.962895482779,7.486599319450474,9.354439565155571,705,12,0.0,15,116531786214103,6,38.8,284.4752197265625,0.033900000154972076,0,0.0,0.0,,,,,0,,1,,
Raw,2841381,2845540000000,,,-1278056086324575232,0.0,4177.962895482779,7.486599319450474,9.354439565155571,705,13,0.0,15,116531789706027,13,31.1,-630.637939453125,0.06859999895095825,0,0.0,0.0,,,,,0,,1,,
Raw,2841381,2845540000000,,,-1278056086324575232,0.0,4177.962895482779,7.486599319450474,9.354439565155571,705,15,0.0,15,116531782122691,13,31.4,-724.524658203125,0.08810000121593475,0,0.0,0.0,,,,,0,,1,,
Raw,2841382,2845540000000,,,-1278056086324575232,0.0,4177.962895482779,7.486599319450474,9.354439565155571,705,19,0.0,15,116531790757856,11,33.3,579.5795288085938,0.05820000171661377,0,0.0,0.0,,,,,0,,1,,
Raw,2841382,2845540000000,,,-1278056086324575232,0.0,4177.962895482779,7.486599319450474,9.354439565155571,705,25,0.0,15,116531782395207,14,30.9,79.65248107910156,0.09650000184774399,0,0.0,0.0,,,,,0,,1,,
Fix,gps,22.925349,120.294676,45.673828,0.000000,3.216000,1594023714000
NMEA,$GPGSV,4,1,13,05,55,302,39,12,22,258,39,13,33,182,31,15,09,208,31*78,1594023713181
NMEA,$GPGSV,4,2,13,19,39,147,33,25,10,286,31,02,54,004,,06,42,066,*72,1594023713182
NMEA,$GPGSV,4,3,13,07,04,087,,09,16,040,,17,20,149,,29,07,323,*7C,1594023713182
NMEA,$GPGSV,4,4,13,30,09,118,*49,1594023713183
NMEA,$GLGSV,2,1,07,69,45,226,34,82,49,101,,84,06,327,,83,54,008,*67,1594023713184
NMEA,$GLGSV,2,2,07,81,07,132,,67,21,025,,68,71,348,*5E,1594023713184
NMEA,$GAGSV,1,1,0,*74,1594023713184
NMEA,$PQGSV,1,1,03,193,69,056,,194,11,160,,195,70,142,,0,5*68,1594023713184
NMEA,$PQGSV,1,1,0,*73,1594023713184
NMEA,$GNGSA,A,3,05,12,13,15,19,25,,,,,,,1.8,1.6,0.9,1*39,1594023713185
NMEA,$GNGSA,A,2,69,,,,,,,,,,,,1.8,1.6,0.9,2*3B,1594023713185
NMEA,$GNVTG,,T,,M,0.0,N,0.0,K,A*3D,1594023713185
NMEA,$GNRMC,082154.00,A,2255.520931,N,12017.680555,E,0.0,,060720,2.8,W,A*16,1594023713185
NMEA,$GNGGA,082154.00,2255.520931,N,12017.680555,E,1,07,1.6,28.2,M,17.5,M,,*41,1594023713186
Fix,gps,22.925349,120.294676,45.673462,0.000000,3.216000,1594023715000
NMEA,$GPGSA,A,1,,,,,,,,,,,,,1.8,1.6,0.9,1*2A,1594023714180
NMEA,$GPVTG,,T,,M,0.0,N,0.0,K,A*23,1594023714181
NMEA,$GPRMC,082155.00,A,2255.520929,N,12017.680537,E,0.0,,060720,2.8,W,A*04,1594023714181
NMEA,$GPGGA,082155.00,2255.520929,N,12017.680537,E,1,00,1.6,28.2,M,17.5,M,,*54,1594023714181
Fix,gps,22.925349,120.294675,45.690308,0.000000,3.216000,1594023716000
Raw,2843384,2847445000000,,,-1278056086323352320,0.0,4132.917150855064,5.441397591642741,8.570956363799224,706,5,0.0,207,40915699793259,11,33.9,-431.1397399902344,0.2475000023841858,0,0.0,0.0,,,,,0,,3,,
Raw,2843385,2847445000000,,,-1278056086323352320,0.0,4132.917150855064,5.441397591642741,8.570956363799224,706,5,0.0,15,116533698721785,6,38.1,-18.011249542236328,0.038200002163648605,0,0.0,0.0,,,,,0,,1,,
Raw,2843385,2847445000000,,,-1278056086323352320,0.0,4132.917150855064,5.441397591642741,8.570956363799224,706,12,0.0,15,116533689989322,6,39.9,284.09716796875,0.023800000548362732,0,0.0,0.0,,,,,0,,1,,
Raw,2843385,2847445000000,,,-1278056086323352320,0.0,4132.917150855064,5.441397591642741,8.570956363799224,706,13,0.0,15,116533693487025,17,28.6,-630.9254760742188,0.06030000001192093,0,0.0,0.0,,,,,0,,1,,
Raw,2843386,2847445000000,,,-1278056086323352320,0.0,4132.917150855064,5.441397591642741,8.570956363799224,706,15,0.0,15,116533685904318,12,32.7,-725.041259765625,0.02889999933540821,0,0.0,0.0,,,,,0,,1,,
Raw,2843386,2847445000000,,,-1278056086323352320,0.0,4132.917150855064,5.441397591642741,8.570956363799224,706,19,0.0,15,116533694531190,12,32.1,579.1364135742188,0.04240000247955322,0,0.0,0.0,,,,,0,,1,,
Raw,2843386,2847445000000,,,-1278056086323352320,0.0,4132.917150855064,5.441397591642741,8.570956363799224,706,25,0.0,15,116533686171675,12,32.2,79.30512237548828,0.030400000512599945,0,0.0,0.0,,,,,0,,1,,
NMEA,$GPGSV,3,1,12,05,55,302,38,12,22,258,40,13,33,182,29,15,09,208,33*7A,1594023715189
NMEA,$GPGSV,3,2,12,19,39,147,32,25,10,286,32,02,54,004,,06,42,066,*76,1594023715189
NMEA,$GPGSV,3,3,12,07,04,087,,09,16,040,,17,20,149,,30,09,118,*76,1594023715190
NMEA,$GLGSV,2,1,07,69,45,226,34,82,49,101,,84,06,327,,83,54,008,*67,1594023715190
NMEA,$GLGSV,2,2,07,81,07,132,,67,21,025,,68,71,348,*5E,1594023715191
NMEA,$GAGSV,1,1,0,*74,1594023715192
NMEA,$PQGSV,1,1,03,193,69,056,,194,11,160,,195,70,142,,0,5*68,1594023715193
NMEA,$PQGSV,1,1,0,*73,1594023715193
NMEA,$GNGSA,A,3,05,12,13,15,19,25,,,,,,,1.8,1.6,0.9,1*39,1594023715197
NMEA,$GNGSA,A,2,69,,,,,,,,,,,,1.8,1.6,0.9,2*3B,1594023715197
NMEA,$GNVTG,,T,,M,0.0,N,0.0,K,A*3D,1594023715198
NMEA,$GNRMC,082156.00,A,2255.520928,N,12017.680524,E,0.0,,060720,2.8,W,A*1A,1594023715198
NMEA,$GNGGA,082156.00,2255.520928,N,12017.680524,E,1,07,1.6,28.2,M,17.5,M,,*4D,1594023715198
Raw,2844627,2848337000000,,,-1278056086323320576,0.0,4146.883729845285,4.068407237584922,8.19394253077684,707,5,0.0,207,40916591762595,10,34.4,-430.0596618652344,0.2551000118255615,0,0.0,0.0,,,,,0,,3,,
Raw,2844628,2848337000000,,,-1278056086323320576,0.0,4146.883729845285,4.068407237584922,8.19394253077684,707,5,0.0,15,116534590689884,6,39.0,-17.07381248474121,0.036900002509355545,0,0.0,0.0,,,,,0,,1,,
Raw,2844628,2848337000000,,,-1278056086323320576,0.0,4146.883729845285,4.068407237584922,8.19394253077684,707,12,0.0,15,116534581956513,6,39.0,285.0520324707031,0.05340000241994858,0,0.0,0.0,,,,,0,,1,,
Raw,2844628,2848337000000,,,-1278056086323320576,0.0,4146.883729845285,4.068407237584922,8.19394253077684,707,13,0.0,15,116534585456941,14,30.3,-630.16845703125,0.07100000232458115,0,0.0,0.0,,,,,0,,1,,
Raw,2844629,2848337000000,,,-1278056086323320576,0.0,4146.883729845285,4.068407237584922,8.19394253077684,707,15,0.0,15,116534577874502,9,35.8,-724.0166625976562,0.06000000238418579,0,0.0,0.0,,,,,0,,1,,
Raw,2844629,2848337000000,,,-1278056086323320576,0.0,4146.883729845285,4.068407237584922,8.19394253077684,707,19,0.0,15,116534586497522,12,32.0,580.2146606445312,0.057499997317790985,0,0.0,0.0,,,,,0,,1,,
Raw,2844629,2848337000000,,,-1278056086323320576,0.0,4146.883729845285,4.068407237584922,8.19394253077684,707,25,0.0,15,116534578139501,11,33.7,80.36808776855469,0.07020000368356705,0,0.0,0.0,,,,,0,,1,,
Raw,2844629,2848337000000,,,-1278056086323320576,0.0,4146.883729845285,4.068407237584922,8.19394253077684,707,29,0.0,15,116534576898819,24,25.4,-669.7327270507812,1.1845000982284546,0,0.0,0.0,,,,,0,,1,,
Fix,gps,22.925349,120.294675,45.700073,0.000000,3.216000,1594023717000
NMEA,$GPGSV,4,1,13,05,55,302,39,12,22,258,39,13,33,182,30,15,09,208,36*7E,1594023716183
NMEA,$GPGSV,4,2,13,19,39,147,32,25,10,286,34,29,07,323,25,02,54,004,*7F,1594023716183
NMEA,$GPGSV,4,3,13,06,42,066,,07,04,087,,09,16,040,,17,20,149,*72,1594023716184
NMEA,$GPGSV,4,4,13,30,09,118,*49,1594023716185
NMEA,$GLGSV,2,1,07,69,45,226,34,82,49,101,,84,06,327,,83,54,008,*67,1594023716185
NMEA,$GLGSV,2,2,07,81,07,132,,67,21,025,,68,71,348,*5E,1594023716185
NMEA,$GAGSV,1,1,0,*74,1594023716185
NMEA,$PQGSV,1,1,03,193,69,056,,194,11,160,,195,70,142,,0,5*68,1594023716186
NMEA,$PQGSV,1,1,0,*73,1594023716188
NMEA,$GNGSA,A,3,05,12,13,15,19,25,,,,,,,1.6,1.3,0.9,1*32,1594023716189
NMEA,$GNGSA,A,2,69,,,,,,,,,,,,1.6,1.3,0.9,2*30,1594023716189
NMEA,$GNVTG,,T,,M,0.0,N,0.0,K,A*3D,1594023716190
NMEA,$GNRMC,082157.00,A,2255.520927,N,12017.680515,E,0.0,,060720,2.8,W,A*16,1594023716190
NMEA,$GNGGA,082157.00,2255.520927,N,12017.680515,E,1,07,1.3,28.2,M,17.5,M,,*44,1594023716190
Fix,gps,22.925349,120.294675,45.699829,0.000000,3.216000,1594023718000
NMEA,$GPGSA,A,1,,,,,,,,,,,,,1.6,1.3,0.9,1*21,1594023717186
NMEA,$GPVTG,,T,,M,0.0,N,0.0,K,A*23,1594023717187
NMEA,$GPRMC,082158.00,A,2255.520927,N,12017.680511,E,0.0,,060720,2.8,W,A*03,1594023717188
NMEA,$GPGGA,082158.00,2255.520927,N,12017.680511,E,1,00,1.3,28.2,M,17.5,M,,*56,1594023717189
Raw,2846405,2850344000000,,,-1278056086322460416,0.0,4123.107995837927,2.870424141632599,5.284881956820927,708,5,0.0,207,40918597905704,8,36.4,-430.39361572265625,0.25600001215934753,0,0.0,0.0,,,,,0,,3,,
Raw,2846405,2850344000000,,,-1278056086322460416,0.0,4123.107995837927,2.870424141632599,5.284881956820927,708,5,0.0,15,116536596830206,6,38.6,-17.4425048828125,0.048900000751018524,0,0.0,0.0,,,,,0,,1,,
Raw,2846406,2850344000000,,,-1278056086322460416,0.0,4123.107995837927,2.870424141632599,5.284881956820927,708,12,0.0,15,116536588094823,5,40.4,284.69146728515625,0.03189999982714653,0,0.0,0.0,,,,,0,,1,,
Raw,2846406,2850344000000,,,-1278056086322460416,0.0,4123.107995837927,2.870424141632599,5.284881956820927,708,13,0.0,15,116536591601461,21,26.5,-630.6847534179688,0.2671999931335449,0,0.0,0.0,,,,,0,,1,,
Raw,2846407,2850344000000,,,-1278056086322460416,0.0,4123.107995837927,2.870424141632599,5.284881956820927,708,15,0.0,15,116536584019579,11,33.8,-724.6429443359375,0.07920000702142715,0,0.0,0.0,,,,,0,,1,,
Raw,2846407,2850344000000,,,-1278056086322460416,0.0,4123.107995837927,2.870424141632599,5.284881956820927,708,19,0.0,15,116536592633842,13,31.5,579.8078002929688,0.0731000006198883,0,0.0,0.0,,,,,0,,1,,
Raw,2846407,2850344000000,,,-1278056086322460416,0.0,4123.107995837927,2.870424141632599,5.284881956820927,708,25,0.0,15,116536584279151,13,31.5,79.99703216552734,0.09109999984502792,0,0.0,0.0,,,,,0,,1,,
Fix,gps,22.925349,120.294675,45.710022,0.000000,3.216000,1594023719000
NMEA,$GPGSV,3,1,12,05,55,302,39,12,22,258,40,13,33,182,27,15,09,208,34*72,1594023718188
NMEA,$GPGSV,3,2,12,19,39,147,32,25,10,286,32,02,54,004,,06,42,066,*76,1594023718188
NMEA,$GPGSV,3,3,12,07,04,087,,09,15,040,,17,19,149,,30,09,116,*71,1594023718189
NMEA,$GLGSV,2,1,07,69,45,226,36,82,49,101,,84,06,327,,83,54,008,*65,1594023718190
NMEA,$GLGSV,2,2,07,81,07,132,,67,21,025,,68,71,348,*5E,1594023718190
NMEA,$GAGSV,1,1,0,*74,1594023718191
NMEA,$PQGSV,1,1,03,193,69,054,,194,11,160,,195,69,142,,0,5*62,1594023718192
NMEA,$PQGSV,1,1,0,*73,1594023718192
NMEA,$GNGSA,A,3,05,12,13,15,19,25,,,,,,,1.6,1.3,0.9,1*32,1594023718196
NMEA,$GNGSA,A,2,69,,,,,,,,,,,,1.6,1.3,0.9,2*30,1594023718197
NMEA,$GNVTG,,T,,M,0.0,N,0.0,K,A*3D,1594023718198
NMEA,$GNRMC,082159.00,A,2255.520926,N,12017.680506,E,0.0,,060720,2.8,W,A*1B,1594023718198
NMEA,$GNGGA,082159.00,2255.520926,N,12017.680506,E,1,07,1.3,28.2,M,17.5,M,,*49,1594023718199
NMEA,$GPGSV,4,1,13,05,55,302,38,12,22,258,38,13,33,182,28,15,09,208,32*73,1594023719190
Raw,2847381,2851557000000,,,-1278056086321786368,0.0,4206.517711281776,5.816068931029934,12.591446862202076,709,5,0.0,207,40919810232988,10,34.2,-429.7417297363281,0.25360000133514404,0,0.0,0.0,,,,,0,,3,,
Raw,2847381,2851557000000,,,-1278056086321786368,0.0,4206.517711281776,5.816068931029934,12.591446862202076,709,5,0.0,15,116537809155896,6,38.2,-16.82271957397461,0.03840000182390213,0,0.0,0.0,,,,,0,,1,,
Raw,2847381,2851557000000,,,-1278056086321786368,0.0,4206.517711281776,5.816068931029934,12.591446862202076,709,12,0.0,15,116537800419327,7,37.6,285.3700256347656,0.057500001043081284,0,0.0,0.0,,,,,0,,1,,
Raw,2847382,2851557000000,,,-1278056086321786368,0.0,4206.517711281776,5.816068931029934,12.591446862202076,709,13,0.0,15,116537803929637,19,27.6,-629.961181640625,0.19820000231266022,0,0.0,0.0,,,,,0,,1,,
Raw,2847382,2851557000000,,,-1278056086321786368,0.0,4206.517711281776,5.816068931029934,12.591446862202076,709,15,0.0,15,116537796348166,13,31.6,-724.0409545898438,0.07909999787807465,0,0.0,0.0,,,,,0,,1,,
Raw,2847382,2851557000000,,,-1278056086321786368,0.0,4206.517711281776,5.816068931029934,12.591446862202076,709,19,0.0,15,116537804957121,13,31.2,580.449951171875,0.06109999865293503,0,0.0,0.0,,,,,0,,1,,
Raw,2847382,2851557000000,,,-1278056086321786368,0.0,4206.517711281776,5.816068931029934,12.591446862202076,709,25,0.0,15,116537796604479,12,32.0,80.6674575805664,0.07249999791383743,0,0.0,0.0,,,,,0,,1,,
NMEA,$GPGSV,4,2,13,19,39,147,31,25,10,286,32,02,54,004,,06,42,066,*73,1594023719191
Fix,gps,22.925349,120.294675,45.706421,0.000000,3.216000,1594023720000
NMEA,$GPGSV,4,3,13,07,04,087,,09,15,040,,17,19,149,,29,07,323,*75,1594023719193
NMEA,$GPGSV,4,4,13,30,09,116,*47,1594023719194
NMEA,$GLGSV,2,1,07,69,45,226,34,82,49,101,,84,06,327,,83,54,008,*67,1594023719194
NMEA,$GLGSV,2,2,07,81,07,132,,67,21,025,,68,71,348,*5E,1594023719195
NMEA,$GAGSV,1,1,0,*74,1594023719196
NMEA,$PQGSV,1,1,03,193,69,054,,194,11,160,,195,69,142,,0,5*62,1594023719198
NMEA,$PQGSV,1,1,0,*73,1594023719202
NMEA,$GNGSA,A,3,05,12,13,15,19,25,29,,,,,,1.6,1.3,0.9,1*39,1594023719204
NMEA,$GNGSA,A,2,69,,,,,,,,,,,,1.6,1.3,0.9,2*30,1594023719205
NMEA,$GNVTG,,T,,M,0.0,N,0.0,K,A*3D,1594023719205
NMEA,$GNRMC,082200.00,A,2255.520926,N,12017.680502,E,0.0,,060720,2.8,W,A*10,1594023719205
NMEA,$GNGGA,082200.00,2255.520926,N,12017.680502,E,1,08,1.3,28.2,M,17.5,M,,*4D,1594023719207
Raw,2848620,2852549000000,,,-1278056086321411840,0.0,4175.468813627958,7.693047327512548,9.47764892483162,710,5,0.0,207,40920801859947,8,36.1,-430.8453063964844,0.2619999945163727,0,0.0,0.0,,,,,0,,3,,
Raw,2848621,2852549000000,,,-1278056086321411840,0.0,4175.468813627958,7.693047327512548,9.47764892483162,710,5,0.0,15,116538800781440,7,37.7,-18.09740447998047,0.057500001043081284,0,0.0,0.0,,,,,0,,1,,
Raw,2848621,2852549000000,,,-1278056086321411840,0.0,4175.468813627958,7.693047327512548,9.47764892483162,710,12,0.0,15,116538792043848,6,39.3,284.00439453125,0.039900001138448715,0,0.0,0.0,,,,,0,,1,,
Raw,2848621,2852549000000,,,-1278056086321411840,0.0,4175.468813627958,7.693047327512548,9.47764892483162,710,13,0.0,15,116538795557143,21,26.7,-631.2280883789062,0.27320000529289246,0,0.0,0.0,,,,,0,,1,,
Raw,2848621,2852549000000,,,-1278056086321411840,0.0,4175.468813627958,7.693047327512548,9.47764892483162,710,15,0.0,15,116538787976059,16,29.7,-725.4114379882812,0.08489999920129776,0,0.0,0.0,,,,,0,,1,,
Raw,2848622,2852549000000,,,-1278056086321411840,0.0,4175.468813627958,7.693047327512548,9.47764892483162,710,19,0.0,15,116538796580714,12,32.4,579.0936279296875,0.07249999791383743,0,0.0,0.0,,,,,0,,1,,
Raw,2848622,2852549000000,,,-1278056086321411840,0.0,4175.468813627958,7.693047327512548,9.47764892483162,710,25,0.0,15,116538788229707,12,32.8,79.29969024658203,0.060499999672174454,0,0.0,0.0,,,,,0,,1,,
Fix,gps,22.925349,120.294675,45.706238,0.000000,3.216000,1594023721000
NMEA,$GPGSV,4,1,13,05,55,302,38,12,22,258,39,13,33,182,27,15,09,208,30*7F,1594023720190
NMEA,$GPGSV,4,2,13,19,39,147,32,25,10,286,33,02,54,004,,06,42,066,*71,1594023720190
NMEA,$GPGSV,4,3,13,07,04,087,,09,15,040,,17,19,149,,29,07,323,*75,1594023720191
NMEA,$GPGSV,4,4,13,30,09,116,*47,1594023720191
NMEA,$GLGSV,2,1,07,69,45,226,36,82,49,101,,84,06,327,,83,54,008,*65,1594023720192
NMEA,$GLGSV,2,2,07,81,07,132,,67,21,025,,68,71,348,*5E,1594023720192
NMEA,$GAGSV,1,1,0,*74,1594023720193
NMEA,$PQGSV,1,1,03,193,69,054,,194,11,160,,195,69,142,,0,5*62,1594023720193
NMEA,$PQGSV,1,1,0,*73,1594023720194
NMEA,$GNGSA,A,3,05,12,13,15,19,25,29,,,,,,1.6,1.3,0.9,1*39,1594023720196
NMEA,$GNGSA,A,2,69,,,,,,,,,,,,1.6,1.3,0.9,2*30,1594023720196
NMEA,$GNVTG,,T,,M,0.0,N,0.0,K,A*3D,1594023720199
NMEA,$GNRMC,082201.00,A,2255.520925,N,12017.680501,E,0.0,,060720,2.8,W,A*11,1594023720203
NMEA,$GNGGA,082201.00,2255.520925,N,12017.680501,E,1,08,1.3,28.2,M,17.5,M,,*4C,1594023720204
Fix,gps,22.925349,120.294675,45.706055,0.000000,3.216000,1594023722000
NMEA,$GPGSA,A,1,,,,,,,,,,,,,1.6,1.3,0.9,1*21,1594023721183
NMEA,$GPVTG,,T,,M,0.0,N,0.0,K,A*23,1594023721183
NMEA,$GPRMC,082202.00,A,2255.520925,N,12017.680499,E,0.0,,060720,2.8,W,A*0C,1594023721184
NMEA,$GPGGA,082202.00,2255.520925,N,12017.680499,E,1,00,1.3,28.2,M,17.5,M,,*59,1594023721185
Fix,gps,22.925349,120.294675,45.719482,0.000000,3.216000,1594023723000
Raw,2850413,2854354000000,,,-1278056086320357888,0.0,4128.496628254652,1.054120644688826,4.345344779972329,711,5,0.0,207,40922605808892,8,36.0,-430.72418212890625,0.23800000548362732,0,0.0,0.0,,,,,0,,3,,
Raw,2850414,2854354000000,,,-1278056086320357888,0.0,4128.496628254652,1.054120644688826,4.345344779972329,711,5,0.0,15,116540604727882,6,38.4,-17.84763526916504,0.0609000027179718,0,0.0,0.0,,,,,0,,1,,
Raw,2850414,2854354000000,,,-1278056086320357888,0.0,4128.496628254652,1.054120644688826,4.345344779972329,711,12,0.0,15,116540595988466,6,39.9,284.2090759277344,0.04440000280737877,0,0.0,0.0,,,,,0,,1,,
Raw,2850414,2854354000000,,,-1278056086320357888,0.0,4128.496628254652,1.054120644688826,4.345344779972329,711,13,0.0,15,116540599507282,12,32.6,-631.1568603515625,0.07699999958276749,0,0.0,0.0,,,,,0,,1,,
Raw,2850415,2854354000000,,,-1278056086320357888,0.0,4128.496628254652,1.054120644688826,4.345344779972329,711,15,0.0,15,116540591926692,12,32.0,-725.3387451171875,0.06499999761581421,0,0.0,0.0,,,,,0,,1,,
Raw,2850415,2854354000000,,,-1278056086320357888,0.0,4128.496628254652,1.054120644688826,4.345344779972329,711,19,0.0,15,116540600523528,12,32.4,579.3670043945312,0.07850000262260437,0,0.0,0.0,,,,,0,,1,,
Raw,2850415,2854354000000,,,-1278056086320357888,0.0,4128.496628254652,1.054120644688826,4.345344779972329,711,25,0.0,15,116540592175524,14,30.8,79.5860595703125,0.08150000125169754,0,0.0,0.0,,,,,0,,1,,
NMEA,$GPGSV,4,1,13,05,55,302,38,12,22,258,40,13,33,182,33,15,09,208,32*76,1594023722190
NMEA,$GPGSV,4,2,13,19,39,147,32,25,10,286,31,02,54,004,,06,42,066,*73,1594023722190
NMEA,$GPGSV,4,3,13,07,04,087,,09,15,040,,17,19,149,,29,07,323,*75,1594023722196
NMEA,$GPGSV,4,4,13,30,09,116,*47,1594023722205
NMEA,$GLGSV,2,1,07,69,45,226,36,82,49,101,,84,06,327,,83,54,008,*65,1594023722206
NMEA,$GLGSV,2,2,07,81,07,132,,67,21,025,,68,71,348,*5E,1594023722206
NMEA,$GAGSV,1,1,0,*74,1594023722206
NMEA,$PQGSV,1,1,03,193,69,054,,194,11,160,,195,69,142,,0,5*62,1594023722206
NMEA,$PQGSV,1,1,0,*73,1594023722206
NMEA,$GNGSA,A,3,05,12,13,15,19,25,29,,,,,,1.8,1.6,0.9,1*32,1594023722207
NMEA,$GNGSA,A,2,69,,,,,,,,,,,,1.8,1.6,0.9,2*3B,1594023722207
NMEA,$GNVTG,,T,,M,0.0,N,0.0,K,A*3D,1594023722207
NMEA,$GNRMC,082203.00,A,2255.520924,N,12017.680494,E,0.0,,060720,2.8,W,A*1F,1594023722208
NMEA,$GNGGA,082203.00,2255.520924,N,12017.680494,E,1,08,1.6,28.3,M,17.5,M,,*46,1594023722208
Raw,2851343,2855544000000,,,-1278056086319749888,0.0,4205.601755529642,3.281367748361262,11.469779314069573,712,5,0.0,207,40923795202551,10,34.6,-429.97320556640625,0.26109999418258667,0,0.0,0.0,,,,,0,,3,,
Raw,2851343,2855544000000,,,-1278056086319749888,0.0,4205.601755529642,3.281367748361262,11.469779314069573,712,5,0.0,15,116541794119963,6,39.1,-17.34806251525879,0.042900003492832184,0,0.0,0.0,,,,,0,,1,,
Raw,2851344,2855544000000,,,-1278056086319749888,0.0,4205.601755529642,3.281367748361262,11.469779314069573,712,12,0.0,15,116541785379338,6,39.9,284.7626953125,0.029400000348687172,0,0.0,0.0,,,,,0,,1,,
Raw,2851344,2855544000000,,,-1278056086319749888,0.0,4205.601755529642,3.281367748361262,11.469779314069573,712,13,0.0,15,116541788901787,13,31.7,-630.6520385742188,0.06709999591112137,0,0.0,0.0,,,,,0,,1,,
Raw,2851344,2855544000000,,,-1278056086319749888,0.0,4205.601755529642,3.281367748361262,11.469779314069573,712,15,0.0,15,116541781321572,13,31.4,-724.8042602539062,0.08659999817609787,0,0.0,0.0,,,,,0,,1,,
Raw,2851345,2855544000000,,,-1278056086319749888,0.0,4205.601755529642,3.281367748361262,11.469779314069573,712,19,0.0,15,116541789913234,13,31.6,579.8402099609375,0.06859999895095825,0,0.0,0.0,,,,,0,,1,,
Raw,2851345,2855544000000,,,-1278056086319749888,0.0,4205.601755529642,3.281367748361262,11.469779314069573,712,25,0.0,15,116541781567223,14,30.3,80.27313995361328,0.0949999988079071,0,0.0,0.0,,,,,0,,1,,
Fix,gps,22.925349,120.294675,45.723755,0.000000,3.216000,1594023724000
NMEA,$GPGSV,4,1,13,05,55,302,39,12,22,258,40,13,33,182,32,15,09,208,31*75,1594023723183
NMEA,$GPGSV,4,2,13,19,39,147,32,25,10,286,30,02,54,004,,06,42,066,*72,1594023723183
NMEA,$GPGSV,4,3,13,07,04,087,,09,15,040,,17,19,149,,29,07,323,*75,1594023723183
NMEA,$GPGSV,4,4,13,30,09,116,*47,1594023723183
NMEA,$GLGSV,2,1,07,69,45,226,35,82,49,101,,84,06,327,,83,54,008,*66,1594023723185
NMEA,$GLGSV,2,2,07,81,07,132,,67,21,025,,68,71,348,*5E,1594023723186
NMEA,$GAGSV,1,1,0,*74,1594023723186
NMEA,$PQGSV,1,1,03,193,69,054,,194,11,160,,195,69,142,,0,5*62,1594023723192
NMEA,$PQGSV,1,1,0,*73,1594023723193
NMEA,$GNGSA,A,3,05,12,13,15,19,25,,,,,,,1.8,1.6,0.9,1*39,1594023723194
NMEA,$GNGSA,A,2,69,,,,,,,,,,,,1.8,1.6,0.9,2*3B,1594023723195
NMEA,$GNVTG,,T,,M,0.0,N,0.0,K,A*3D,1594023723195
NMEA,$GNRMC,082204.00,A,2255.520924,N,12017.680490,E,0.0,,060720,2.8,W,A*1C,1594023723195
NMEA,$GNGGA,082204.00,2255.520924,N,12017.680490,E,1,07,1.6,28.3,M,17.5,M,,*4A,1594023723195
Raw,2852629,2856558000000,,,-1278056086319050752,0.0,4167.603794485331,5.068849646587908,9.656399758956216,713,5,0.0,207,40924808504800,10,34.3,-429.80157470703125,0.25060001015663147,0,0.0,0.0,,,,,0,,3,,
Raw,2852629,2856558000000,,,-1278056086319050752,0.0,4167.603794485331,5.068849646587908,9.656399758956216,713,5,0.0,15,116542807420805,7,37.8,-17.257123947143555,0.03800000250339508,0,0.0,0.0,,,,,0,,1,,
Raw,2852629,2856558000000,,,-1278056086319050752,0.0,4167.603794485331,5.068849646587908,9.656399758956216,713,12,0.0,15,116542798679139,6,39.2,284.9635314941406,0.048900000751018524,0,0.0,0.0,,,,,0,,1,,
Raw,2852630,2856558000000,,,-1278056086319050752,0.0,4167.603794485331,5.068849646587908,9.656399758956216,713,13,0.0,15,116542802204715,16,29.5,-630.640625,0.10740000009536743,0,0.0,0.0,,,,,0,,1,,
Raw,2852630,2856558000000,,,-1278056086319050752,0.0,4167.603794485331,5.068849646587908,9.656399758956216,713,15,0.0,15,116542794624836,12,32.3,-724.639892578125,0.06949999928474426,0,0.0,0.0,,,,,0,,1,,
Raw,2852630,2856558000000,,,-1278056086319050752,0.0,4167.603794485331,5.068849646587908,9.656399758956216,713,19,0.0,15,116542803212090,11,33.7,580.0689086914062,0.07770000398159027,0,0.0,0.0,,,,,0,,1,,
Raw,2852630,2856558000000,,,-1278056086319050752,0.0,4167.603794485331,5.068849646587908,9.656399758956216,713,25,0.0,15,116542794867719,12,32.5,80.40349578857422,0.06949999928474426,0,0.0,0.0,,,,,0,,1,,
Fix,gps,22.925349,120.294675,45.723694,0.000000,3.216000,1594023725000
NMEA,$GPGSV,4,1,13,05,55,302,38,12,22,258,39,13,33,182,30,15,09,208,32*7B,1594023724185
NMEA,$GPGSV,4,2,13,19,39,147,34,25,10,286,33,02,54,004,,06,42,066,*77,1594023724185
NMEA,$GPGSV,4,3,13,07,04,087,,09,15,040,,17,19,149,,29,07,323,*75,1594023724187
NMEA,$GPGSV,4,4,13,30,09,116,*47,1594023724187
NMEA,$GLGSV,2,1,07,69,45,226,34,82,49,101,,84,06,327,,83,54,008,*67,1594023724188
NMEA,$GLGSV,2,2,07,81,07,132,,67,21,025,,68,71,348,*5E,1594023724188
NMEA,$GAGSV,1,1,0,*74,1594023724188
NMEA,$PQGSV,1,1,03,193,69,054,,194,11,160,,195,69,142,,0,5*62,1594023724188
NMEA,$PQGSV,1,1,0,*73,1594023724188
NMEA,$GNGSA,A,3,05,12,13,15,19,25,,,,,,,1.8,1.6,0.9,1*39,1594023724189
NMEA,$GNGSA,A,2,69,,,,,,,,,,,,1.8,1.6,0.9,2*3B,1594023724189
NMEA,$GNVTG,,T,,M,0.0,N,0.0,K,A*3D,1594023724189
NMEA,$GNRMC,082205.00,A,2255.520924,N,12017.680489,E,0.0,,060720,2.8,W,A*15,1594023724189
NMEA,$GNGGA,082205.00,2255.520924,N,12017.680489,E,1,07,1.6,28.3,M,17.5,M,,*43,1594023724190
NMEA,$GPGSV,4,1,13,05,55,302,38,12,22,258,38,13,33,182,29,15,09,208,32*72,1594023725187
Raw,2853378,2857550000000,,,-1278056086318096384,0.0,4165.826365351677,5.405533699952831,8.488848601832904,714,5,0.0,207,40925799551970,13,31.5,-431.4039611816406,0.28360000252723694,0,0.0,0.0,,,,,0,,3,,
Raw,2853379,2857550000000,,,-1278056086318096384,0.0,4165.826365351677,5.405533699952831,8.488848601832904,714,5,0.0,15,116543798466666,7,37.5,-18.957719802856445,0.05450000241398811,0,0.0,0.0,,,,,0,,1,,
Raw,2853379,2857550000000,,,-1278056086318096384,0.0,4165.826365351677,5.405533699952831,8.488848601832904,714,12,0.0,15,116543789724046,6,38.4,283.067138671875,0.03840000182390213,0,0.0,0.0,,,,,0,,1,,
Raw,2853380,2857550000000,,,-1278056086318096384,0.0,4165.826365351677,5.405533699952831,8.488848601832904,714,13,0.0,15,116543793252630,16,29.1,-632.4482421875,0.09389999508857727,0,0.0,0.0,,,,,0,,1,,
Raw,2853380,2857550000000,,,-1278056086318096384,0.0,4165.826365351677,5.405533699952831,8.488848601832904,714,15,0.0,15,116543785673037,12,32.4,-726.6982421875,0.0559999980032444,0,0.0,0.0,,,,,0,,1,,
Raw,2853381,2857550000000,,,-1278056086318096384,0.0,4165.826365351677,5.405533699952831,8.488848601832904,714,19,0.0,15,116543794255971,12,32.7,578.2869262695312,0.06949999928474426,0,0.0,0.0,,,,,0,,1,,
Raw,2853381,2857550000000,,,-1278056086318096384,0.0,4165.826365351677,5.405533699952831,8.488848601832904,714,25,0.0,15,116543785913322,13,31.7,78.42154693603516,0.06260000169277191,0,0.0,0.0,,,,,0,,1,,
Raw,2853382,2857550000000,,,-1278056086318096384,0.0,4165.826365351677,5.405533699952831,8.488848601832904,714,29,0.0,15,116543784695724,31,23.8,-673.0782470703125,0.6574999690055847,0,0.0,0.0,,,,,0,,1,,
Fix,gps,22.925349,120.294675,45.716797,0.000000,3.216000,1594023726000
NMEA,$GPGSV,4,2,13,19,39,147,33,25,10,286,32,29,07,323,24,02,54,004,*79,1594023725188
NMEA,$GPGSV,4,3,13,06,42,066,,07,04,087,,09,15,040,,17,19,149,*7B,1594023725190
NMEA,$GPGSV,4,4,13,30,09,116,*47,1594023725191
NMEA,$GLGSV,2,1,07,69,45,226,32,82,49,102,,84,07,329,,83,54,009,*6C,1594023725192
NMEA,$GLGSV,2,2,07,81,07,132,,67,20,025,,68,71,348,*5F,1594023725193
NMEA,$GAGSV,1,1,0,*74,1594023725193
NMEA,$PQGSV,1,1,03,193,69,054,,194,11,160,,195,69,142,,0,5*62,1594023725194
NMEA,$PQGSV,1,1,0,*73,1594023725195
NMEA,$GNGSA,A,3,05,12,13,15,19,25,,,,,,,1.6,1.3,0.9,1*32,1594023725197
NMEA,$GNGSA,A,2,69,,,,,,,,,,,,1.6,1.3,0.9,2*30,1594023725197
NMEA,$GNVTG,,T,,M,0.0,N,0.0,K,A*3D,1594023725198
NMEA,$GNRMC,082206.00,A,2255.520924,N,12017.680489,E,0.0,,060720,2.8,W,A*16,1594023725198
NMEA,$GNGGA,082206.00,2255.520924,N,12017.680489,E,1,07,1.3,28.2,M,17.5,M,,*44,1594023725199
Fix,gps,22.925349,120.294675,46.174988,0.000000,3.216000,1594023727000
NMEA,$GPGSA,A,1,,,,,,,,,,,,,1.6,1.3,0.9,1*21,1594023726181
NMEA,$GPVTG,,T,,M,0.0,N,0.0,K,A*23,1594023726182
NMEA,$GPRMC,082207.00,A,2255.520940,N,12017.680521,E,0.0,,060720,2.8,W,A*08,1594023726182
NMEA,$GPGGA,082207.00,2255.520940,N,12017.680521,E,1,00,1.3,28.7,M,17.5,M,,*58,1594023726182
Fix,gps,22.925349,120.294676,45.927124,0.000000,3.216000,1594023728000
Raw,2855387,2859359000000,,,-1278056086316457728,0.0,4128.275904804468,-3.185522141995785,5.284224261273039,715,5,0.0,207,40927606915628,11,33.5,-430.24493408203125,0.25220000743865967,0,0.0,0.0,,,,,0,,3,,
Raw,2855387,2859359000000,,,-1278056086316457728,0.0,4128.275904804468,-3.185522141995785,5.284224261273039,715,5,0.0,15,116545605827775,6,38.6,-17.879539489746094,0.03240000084042549,0,0.0,0.0,,,,,0,,1,,
Raw,2855387,2859359000000,,,-1278056086316457728,0.0,4128.275904804468,-3.185522141995785,5.284224261273039,715,12,0.0,15,116545597083351,6,38.7,284.3744812011719,0.05040000006556511,0,0.0,0.0,,,,,0,,1,,
Raw,2855387,2859359000000,,,-1278056086316457728,0.0,4128.275904804468,-3.185522141995785,5.284224261273039,715,13,0.0,15,116545600617471,17,28.4,-631.1326904296875,0.1273999959230423,0,0.0,0.0,,,,,0,,1,,
Raw,2855388,2859359000000,,,-1278056086316457728,0.0,4128.275904804468,-3.185522141995785,5.284224261273039,715,15,0.0,15,116545593038421,13,31.1,-725.4732666015625,0.07459999620914459,0,0.0,0.0,,,,,0,,1,,
Raw,2855388,2859359000000,,,-1278056086316457728,0.0,4128.275904804468,-3.185522141995785,5.284224261273039,715,19,0.0,15,116545601613488,12,32.5,579.531005859375,0.07999999821186066,0,0.0,0.0,,,,,0,,1,,
Raw,2855388,2859359000000,,,-1278056086316457728,0.0,4128.275904804468,-3.185522141995785,5.284224261273039,715,25,0.0,15,116545593273817,13,31.5,79.80758666992188,0.07459999620914459,0,0.0,0.0,,,,,0,,1,,
NMEA,$GPGSV,4,1,13,05,55,302,39,12,22,258,39,13,33,182,28,15,09,208,31*70,1594023727190
NMEA,$GPGSV,4,2,13,19,39,147,33,25,10,286,32,02,54,004,,06,42,066,*71,1594023727190
NMEA,$GPGSV,4,3,13,07,04,087,,09,15,040,,17,19,149,,29,07,323,*75,1594023727191
NMEA,$GPGSV,4,4,13,30,09,116,*47,1594023727191
NMEA,$GLGSV,2,1,07,69,45,226,34,82,49,102,,84,07,329,,83,54,009,*6A,1594023727192
NMEA,$GLGSV,2,2,07,81,07,132,,67,20,025,,68,71,348,*5F,1594023727192
NMEA,$GAGSV,1,1,0,*74,1594023727193
NMEA,$PQGSV,1,1,03,193,69,054,,194,11,160,,195,69,142,,0,5*62,1594023727193
NMEA,$PQGSV,1,1,0,*73,1594023727194
NMEA,$GNGSA,A,3,05,12,13,15,19,25,29,,,,,,1.6,1.3,0.9,1*39,1594023727196
NMEA,$GNGSA,A,2,69,,,,,,,,,,,,1.6,1.3,0.9,2*30,1594023727198
NMEA,$GNVTG,,T,,M,0.0,N,0.0,K,A*3D,1594023727199
NMEA,$GNRMC,082208.00,A,2255.520948,N,12017.680536,E,0.0,,060720,2.8,W,A*17,1594023727201
NMEA,$GNGGA,082208.00,2255.520948,N,12017.680536,E,1,08,1.3,28.5,M,17.5,M,,*4D,1594023727202
Raw,2856604,2860550000000,,,-1278056086316174336,0.0,4202.850628644228,2.575364780592428,9.496256062357538,716,5,0.0,207,40928797634235,11,33.1,-428.3481140136719,0.2687000036239624,0,0.0,0.0,,,,,0,,3,,
Raw,2856604,2860550000000,,,-1278056086316174336,0.0,4202.850628644228,2.575364780592428,9.496256062357538,716,5,0.0,15,116546796544664,6,38.1,-15.988245964050293,0.048900000751018524,0,0.0,0.0,,,,,0,,1,,
Raw,2856605,2860550000000,,,-1278056086316174336,0.0,4202.850628644228,2.575364780592428,9.496256062357538,716,12,0.0,15,116546787799031,6,39.0,286.1064758300781,0.03240000084042549,0,0.0,0.0,,,,,0,,1,,
Raw,2856605,2860550000000,,,-1278056086316174336,0.0,4202.850628644228,2.575364780592428,9.496256062357538,716,13,0.0,15,116546791336759,16,29.3,-629.2601928710938,0.0908999964594841,0,0.0,0.0,,,,,0,,1,,
Raw,2856605,2860550000000,,,-1278056086316174336,0.0,4202.850628644228,2.575364780592428,9.496256062357538,716,15,0.0,15,116546783758163,12,32.0,-723.6007080078125,0.08299999684095383,0,0.0,0.0,,,,,0,,1,,
Raw,2856605,2860550000000,,,-1278056086316174336,0.0,4202.850628644228,2.575364780592428,9.496256062357538,716,19,0.0,15,116546792328040,12,32.9,581.322265625,0.06650000065565109,0,0.0,0.0,,,,,0,,1,,
Raw,2856606,2860550000000,,,-1278056086316174336,0.0,4202.850628644228,2.575364780592428,9.496256062357538,716,25,0.0,15,116546783990343,12,32.0,81.79100799560547,0.08299999684095383,0,0.0,0.0,,,,,0,,1,,
Fix,gps,22.925349,120.294676,45.873962,0.000000,3.216000,1594023729000
NMEA,$GPGSV,4,1,13,05,55,302,38,12,22,258,39,13,33,182,29,15,09,208,32*73,1594023728184
NMEA,$GPGSV,4,2,13,19,39,147,33,25,10,286,32,02,54,004,,06,42,066,*71,1594023728184
NMEA,$GPGSV,4,3,13,07,04,087,,09,15,040,,17,19,149,,29,07,323,*75,1594023728185
NMEA,$GPGSV,4,4,13,30,09,116,*47,1594023728185
NMEA,$GLGSV,2,1,07,69,45,226,33,82,49,102,,84,07,329,,83,54,009,*6D,1594023728185
NMEA,$GLGSV,2,2,07,81,07,132,,67,20,025,,68,71,348,*5F,1594023728185
NMEA,$GAGSV,1,1,0,*74,1594023728185
NMEA,$PQGSV,1,1,03,193,69,054,,194,11,160,,195,69,142,,0,5*62,1594023728185
NMEA,$PQGSV,1,1,0,*73,1594023728186
NMEA,$GNGSA,A,3,05,12,13,15,19,25,29,,,,,,1.6,1.3,0.9,1*39,1594023728187
NMEA,$GNGSA,A,2,69,,,,,,,,,,,,1.6,1.3,0.9,2*30,1594023728188
NMEA,$GNVTG,,T,,M,0.0,N,0.0,K,A*3D,1594023728188
NMEA,$GNRMC,082209.00,A,2255.520950,N,12017.680544,E,0.0,,060720,2.8,W,A*1A,1594023728188
NMEA,$GNGGA,082209.00,2255.520950,N,12017.680544,E,1,08,1.3,28.4,M,17.5,M,,*41,1594023728188
Fix,gps,22.925349,120.294676,45.814575,0.000000,3.216000,1594023730000
NMEA,$GPGSA,A,1,,,,,,,,,,,,,1.6,1.3,0.9,1*21,1594023729184
NMEA,$GPVTG,,T,,M,0.0,N,0.0,K,A*23,1594023729185
NMEA,$GPRMC,082210.00,A,2255.520951,N,12017.680548,E,0.0,,060720,2.8,W,A*01,1594023729186
NMEA,$GPGGA,082210.00,2255.520951,N,12017.680548,E,1,00,1.3,28.3,M,17.5,M,,*55,1594023729187
Raw,2858385,2862355000000,,,-1278056086315431424,0.0,4123.7641125917435,6.694872258300407,5.336994984465429,717,5,0.0,207,40930601893781,11,33.3,-428.3099670410156,0.27470001578330994,0,0.0,0.0,,,,,0,,3,,
Raw,2858386,2862355000000,,,-1278056086315431424,0.0,4123.7641125917435,6.694872258300407,5.336994984465429,717,5,0.0,15,116548600801809,6,38.7,-16.121614456176758,0.05490000173449516,0,0.0,0.0,,,,,0,,1,,
Raw,2858386,2862355000000,,,-1278056086315431424,0.0,4123.7641125917435,6.694872258300407,5.336994984465429,717,12,0.0,15,116548592054340,6,38.6,286.050048828125,0.042899999767541885,0,0.0,0.0,,,,,0,,1,,
Raw,2858386,2862355000000,,,-1278056086315431424,0.0,4123.7641125917435,6.694872258300407,5.336994984465429,717,13,0.0,15,116548595597560,17,28.0,-629.49609375,0.11990000307559967,0,0.0,0.0,,,,,0,,1,,
Raw,2858387,2862355000000,,,-1278056086315431424,0.0,4123.7641125917435,6.694872258300407,5.336994984465429,717,15,0.0,15,116548588019509,11,33.5,-724.0072631835938,0.0552000030875206,0,0.0,0.0,,,,,0,,1,,
Raw,2858387,2862355000000,,,-1278056086315431424,0.0,4123.7641125917435,6.694872258300407,5.336994984465429,717,19,0.0,15,116548596581546,13,31.8,581.2479858398438,0.07909999787807465,0,0.0,0.0,,,,,0,,1,,
Raw,2858387,2862355000000,,,-1278056086315431424,0.0,4123.7641125917435,6.694872258300407,5.336994984465429,717,25,0.0,15,116548588246846,13,31.6,81.5589599609375,0.06709999591112137,0,0.0,0.0,,,,,0,,1,,
Fix,gps,22.925349,120.294676,45.735901,0.000000,3.216000,1594023731000
NMEA,$GPGSV,3,1,12,05,55,302,39,12,22,258,39,13,33,182,28,15,09,208,34*73,1594023730192
NMEA,$GPGSV,3,2,12,19,39,147,32,25,10,286,32,02,54,004,,06,42,066,*76,1594023730197
NMEA,$GPGSV,3,3,12,07,04,087,,09,15,040,,17,19,149,,30,09,116,*71,1594023730197
NMEA,$GLGSV,2,1,06,69,45,226,33,84,07,329,,83,54,009,,81,07,132,*66,1594023730198
NMEA,$GLGSV,2,2,06,67,20,025,,68,69,350,*60,1594023730198
NMEA,$GAGSV,1,1,0,*74,1594023730199
NMEA,$PQGSV,1,1,03,193,69,054,,194,11,160,,195,69,142,,0,5*62,1594023730200
NMEA,$PQGSV,1,1,0,*73,1594023730200
NMEA,$GNGSA,A,3,05,12,13,15,19,25,,,,,,,1.6,1.3,0.9,1*32,1594023730203
NMEA,$GNGSA,A,2,69,,,,,,,,,,,,1.6,1.3,0.9,2*30,1594023730203
NMEA,$GNVTG,,T,,M,0.0,N,0.0,K,A*3D,1594023730206
NMEA,$GNRMC,082211.00,A,2255.520952,N,12017.680550,E,0.0,,060720,2.8,W,A*14,1594023730206
NMEA,$GNGGA,082211.00,2255.520952,N,12017.680550,E,1,07,1.3,28.3,M,17.5,M,,*47,1594023730207
Raw,2859394,2863548000000,,,-1278056086314876928,0.0,4197.698552161455,7.4762185455851995,12.347864902244558,718,5,0.0,207,40931794340866,11,33.9,-429.0025939941406,0.26420000195503235,0,0.0,0.0,,,,,0,,3,,
Raw,2859396,2863548000000,,,-1278056086314876928,0.0,4197.698552161455,7.4762185455851995,12.347864902244558,718,5,0.0,15,116549793247225,6,39.5,-16.84012222290039,0.0414000004529953,0,0.0,0.0,,,,,0,,1,,
Raw,2859396,2863548000000,,,-1278056086314876928,0.0,4197.698552161455,7.4762185455851995,12.347864902244558,718,12,0.0,15,116549784498577,6,39.1,285.27301025390625,0.027900001034140587,0,0.0,0.0,,,,,0,,1,,
Raw,2859396,2863548000000,,,-1278056086314876928,0.0,4197.698552161455,7.4762185455851995,12.347864902244558,718,13,0.0,15,116549788045402,17,28.5,-630.2667846679688,0.10939999669790268,0,0.0,0.0,,,,,0,,1,,
Raw,2859397,2863548000000,,,-1278056086314876928,0.0,4197.698552161455,7.4762185455851995,12.347864902244558,718,15,0.0,15,116549780467760,13,31.4,-724.6576538085938,0.08510000258684158,0,0.0,0.0,,,,,0,,1,,
Raw,2859397,2863548000000,,,-1278056086314876928,0.0,4197.698552161455,7.4762185455851995,12.347864902244558,718,19,0.0,15,116549789024597,13,31.8,580.4320068359375,0.06859999895095825,0,0.0,0.0,,,,,0,,1,,
Raw,2859397,2863548000000,,,-1278056086314876928,0.0,4197.698552161455,7.4762185455851995,12.347864902244558,718,25,0.0,15,116549780691902,13,31.6,80.93687438964844,0.08510000258684158,0,0.0,0.0,,,,,0,,1,,
Fix,gps,22.925349,120.294676,45.713440,0.000000,3.216000,1594023732000
NMEA,$GPGSV,4,1,13,05,55,302,40,12,22,258,39,13,33,182,29,15,09,208,31*7F,1594023731188
NMEA,$GPGSV,4,2,13,19,39,147,32,25,10,286,32,02,54,004,,06,42,066,*70,1594023731189
NMEA,$GPGSV,4,3,13,07,04,087,,09,15,040,,17,19,149,,29,07,323,*75,1594023731190
NMEA,$GPGSV,4,4,13,30,09,116,*47,1594023731192
NMEA,$GLGSV,2,1,07,69,45,226,34,82,49,102,,84,07,329,,83,54,009,*6A,1594023731193
NMEA,$GLGSV,2,2,07,81,07,132,,67,20,025,,68,69,350,*5F,1594023731195
NMEA,$GAGSV,1,1,0,*74,1594023731197
NMEA,$PQGSV,1,1,03,193,69,054,,194,11,160,,195,69,142,,0,5*62,1594023731197
NMEA,$PQGSV,1,1,0,*73,1594023731198
NMEA,$GNGSA,A,3,05,12,13,15,19,25,29,,,,,,1.8,1.6,0.9,1*32,1594023731200
NMEA,$GNGSA,A,2,69,,,,,,,,,,,,1.8,1.6,0.9,2*3B,1594023731201
NMEA,$GNVTG,,T,,M,0.0,N,0.0,K,A*3D,1594023731201
NMEA,$GNRMC,082212.00,A,2255.520951,N,12017.680550,E,0.0,,060720,2.8,W,A*14,1594023731202
NMEA,$GNGGA,082212.00,2255.520951,N,12017.680550,E,1,08,1.6,28.2,M,17.5,M,,*4C,1594023731202
Raw,2860619,2864561000000,,,-1278056086314169344,0.0,4156.709648668766,5.146050538505293,9.621720037364014,719,5,0.0,207,40932806634724,9,35.1,-428.34295654296875,0.2435000091791153,0,0.0,0.0,,,,,0,,3,,
Raw,2860620,2864561000000,,,-1278056086314169344,0.0,4156.709648668766,5.146050538505293,9.621720037364014,719,5,0.0,15,116550805539667,7,37.9,-16.340641021728516,0.03500000014901161,0,0.0,0.0,,,,,0,,1,,
Raw,2860620,2864561000000,,,-1278056086314169344,0.0,4156.709648668766,5.146050538505293,9.621720037364014,719,12,0.0,15,116550796789979,6,39.3,285.9244689941406,0.045900002121925354,0,0.0,0.0,,,,,0,,1,,
Raw,2860620,2864561000000,,,-1278056086314169344,0.0,4156.709648668766,5.146050538505293,9.621720037364014,719,13,0.0,15,116550800339915,17,28.0,-629.6602783203125,0.1273999959230423,0,0.0,0.0,,,,,0,,1,,
Raw,2860621,2864561000000,,,-1278056086314169344,0.0,4156.709648668766,5.146050538505293,9.621720037364014,719,15,0.0,15,116550792762593,11,33.8,-724.123291015625,0.06120000407099724,0,0.0,0.0,,,,,0,,1,,
Raw,2860621,2864561000000,,,-1278056086314169344,0.0,4156.709648668766,5.146050538505293,9.621720037364014,719,19,0.0,15,116550801315063,12,32.1,581.1319580078125,0.07999999821186066,0,0.0,0.0,,,,,0,,1,,
Raw,2860621,2864561000000,,,-1278056086314169344,0.0,4156.709648668766,5.146050538505293,9.621720037364014,719,25,0.0,15,116550792983994,12,32.7,81.59010314941406,0.06650000065565109,0,0.0,0.0,,,,,0,,1,,
Fix,gps,22.925349,120.294676,45.696350,0.000000,3.216000,1594023733000
NMEA,$GPGSV,4,1,13,05,55,302,38,12,22,258,39,13,33,182,28,15,09,208,34*74,1594023732185
NMEA,$GPGSV,4,2,13,19,39,147,32,25,10,286,33,02,54,004,,06,42,066,*71,1594023732188
NMEA,$GPGSV,4,3,13,07,04,087,,09,15,040,,17,19,149,,29,07,323,*75,1594023732189
NMEA,$GPGSV,4,4,13,30,09,116,*47,1594023732189
NMEA,$GLGSV,2,1,07,69,45,226,35,82,49,102,,84,07,329,,83,54,009,*6B,1594023732190
NMEA,$GLGSV,2,2,07,81,07,132,,67,20,025,,68,69,350,*5F,1594023732190
NMEA,$GAGSV,1,1,0,*74,1594023732191
NMEA,$PQGSV,1,1,03,193,69,054,,194,11,160,,195,69,142,,0,5*62,1594023732191
NMEA,$PQGSV,1,1,0,*73,1594023732191
NMEA,$GNGSA,A,3,05,12,13,15,19,25,,,,,,,1.8,1.6,0.9,1*39,1594023732197
NMEA,$GNGSA,A,2,69,,,,,,,,,,,,1.8,1.6,0.9,2*3B,1594023732197
NMEA,$GNVTG,,T,,M,0.0,N,0.0,K,A*3D,1594023732198
NMEA,$GNRMC,082213.00,A,2255.520950,N,12017.680551,E,0.0,,060720,2.8,W,A*15,1594023732198
NMEA,$GNGGA,082213.00,2255.520950,N,12017.680551,E,1,07,1.6,28.2,M,17.5,M,,*42,1594023732199
Raw,2861374,2865550000000,,,-1278056086313457664,0.0,4156.332928687334,7.379153180396781,9.433789300326152,720,5,0.0,207,40933794924319,9,35.2,-429.66748046875,0.25550001859664917,0,0.0,0.0,,,,,0,,3,,
Raw,2861374,2865550000000,,,-1278056086313457664,0.0,4156.332928687334,7.379153180396781,9.433789300326152,720,5,0.0,15,116551793827974,6,38.9,-17.734773635864258,0.04439999908208847,0,0.0,0.0,,,,,0,,1,,
Raw,2861374,2865550000000,,,-1278056086313457664,0.0,4156.332928687334,7.379153180396781,9.433789300326152,720,12,0.0,15,116551785077275,5,40.2,284.5355529785156,0.027400000020861626,0,0.0,0.0,,,,,0,,1,,
Raw,2861375,2865550000000,,,-1278056086313457664,0.0,4156.332928687334,7.379153180396781,9.433789300326152,720,13,0.0,15,116551788630213,19,27.4,-631.12109375,0.17570000886917114,0,0.0,0.0,,,,,0,,1,,
Raw,2861375,2865550000000,,,-1278056086313457664,0.0,4156.332928687334,7.379153180396781,9.433789300326152,720,15,0.0,15,116551781053175,12,32.9,-725.6841430664062,0.07999999821186066,0,0.0,0.0,,,,,0,,1,,
Raw,2861375,2865550000000,,,-1278056086313457664,0.0,4156.332928687334,7.379153180396781,9.433789300326152,720,19,0.0,15,116551789601373,12,32.9,579.6613159179688,0.06199999898672104,0,0.0,0.0,,,,,0,,1,,
Raw,2861375,2865550000000,,,-1278056086313457664,0.0,4156.332928687334,7.379153180396781,9.433789300326152,720,25,0.0,15,116551781271985,12,32.2,80.05218505859375,0.07999999821186066,0,0.0,0.0,,,,,0,,1,,
Fix,gps,22.925349,120.294676,45.682129,0.000000,3.216000,1594023734000
NMEA,$GPGSV,4,1,13,05,55,302,39,12,22,258,40,13,33,182,27,15,09,208,33*73,1594023733186
NMEA,$GPGSV,4,2,13,19,39,147,33,25,10,286,32,02,54,004,,06,42,066,*71,1594023733188
NMEA,$GPGSV,4,3,13,07,04,087,,09,15,040,,17,19,149,,29,07,323,*75,1594023733189
NMEA,$GPGSV,4,4,13,30,09,116,*47,1594023733190
NMEA,$GLGSV,2,1,07,69,45,226,35,82,49,102,,84,07,329,,83,54,009,*6B,1594023733190
NMEA,$GLGSV,2,2,07,81,07,132,,67,20,025,,68,69,350,*5F,1594023733191
NMEA,$GAGSV,1,1,0,*74,1594023733192
NMEA,$PQGSV,1,1,03,193,69,054,,194,11,160,,195,69,142,,0,5*62,1594023733197
NMEA,$PQGSV,1,1,0,*73,1594023733198
NMEA,$GNGSA,A,3,05,12,13,15,19,25,,,,,,,1.8,1.6,0.9,1*39,1594023733203
NMEA,$GNGSA,A,2,69,,,,,,,,,,,,1.8,1.6,0.9,2*3B,1594023733203
NMEA,$GNVTG,,T,,M,0.0,N,0.0,K,A*3D,1594023733204
NMEA,$GNRMC,082214.00,A,2255.520949,N,12017.680552,E,0.0,,060720,2.8,W,A*19,1594023733205
NMEA,$GNGGA,082214.00,2255.520949,N,12017.680552,E,1,07,1.6,28.2,M,17.5,M,,*4E,1594023733205
Fix,gps,22.925349,120.294676,45.670349,0.000000,3.216000,1594023735000
NMEA,$GPGSA,A,1,,,,,,,,,,,,,1.8,1.6,0.9,1*2A,1594023734180
NMEA,$GPVTG,,T,,M,0.0,N,0.0,K,A*23,1594023734181
NMEA,$GPRMC,082215.00,A,2255.520948,N,12017.680553,E,0.0,,060720,2.8,W,A*06,1594023734181
NMEA,$GPGGA,082215.00,2255.520948,N,12017.680553,E,1,00,1.6,28.2,M,17.5,M,,*56,1594023734182
Raw,2863391,2867456000000,,,-1278056086312498176,0.0,4128.875210881233,2.7699056759980736,7.5878446698864135,721,5,0.0,207,40935699967817,10,34.5,-428.8345947265625,0.24560000002384186,0,0.0,0.0,,,,,0,,3,,
Raw,2863392,2867456000000,,,-1278056086312498176,0.0,4128.875210881233,2.7699056759980736,7.5878446698864135,721,5,0.0,15,116553698868804,7,37.5,-16.963523864746094,0.03959999978542328,0,0.0,0.0,,,,,0,,1,,
Raw,2863394,2867456000000,,,-1278056086312498176,0.0,4128.875210881233,2.7699056759980736,7.5878446698864135,721,12,0.0,15,116553690116205,7,37.9,285.2322082519531,0.02759999968111515,0,0.0,0.0,,,,,0,,1,,
Raw,2863395,2867456000000,,,-1278056086312498176,0.0,4128.875210881233,2.7699056759980736,7.5878446698864135,721,13,0.0,15,116553693674972,21,26.5,-630.3911743164062,0.11719999462366104,0,0.0,0.0,,,,,0,,1,,
Raw,2863396,2867456000000,,,-1278056086312498176,0.0,4128.875210881233,2.7699056759980736,7.5878446698864135,721,15,0.0,15,116553686098536,13,31.9,-725.060302734375,0.03280000016093254,0,0.0,0.0,,,,,0,,1,,
Raw,2863397,2867456000000,,,-1278056086312498176,0.0,4128.875210881233,2.7699056759980736,7.5878446698864135,721,19,0.0,15,116553694638400,12,32.3,580.4287719726562,0.04240000247955322,0,0.0,0.0,,,,,0,,1,,
Raw,2863398,2867456000000,,,-1278056086312498176,0.0,4128.875210881233,2.7699056759980736,7.5878446698864135,721,25,0.0,15,116553686312171,12,32.0,80.87474060058594,0.030400000512599945,0,0.0,0.0,,,,,0,,1,,
Fix,gps,22.925349,120.294676,45.685669,0.000000,3.216000,1594023736000
NMEA,$GPGSV,4,1,13,05,55,302,38,12,22,258,38,13,33,182,27,15,09,208,32*7C,1594023735184
NMEA,$GPGSV,4,2,13,19,39,147,32,25,10,286,32,02,54,004,,06,42,066,*70,1594023735185
NMEA,$GPGSV,4,3,13,07,04,087,,09,15,040,,17,19,149,,29,07,323,*75,1594023735185
NMEA,$GPGSV,4,4,13,30,09,116,*47,1594023735185
NMEA,$GLGSV,2,1,07,69,45,226,35,82,49,102,,84,07,329,,83,54,009,*6B,1594023735186
NMEA,$GLGSV,2,2,07,81,07,132,,67,20,025,,68,69,350,*5F,1594023735186
NMEA,$GAGSV,1,1,0,*74,1594023735186
NMEA,$PQGSV,1,1,03,193,69,054,,194,11,160,,195,69,142,,0,5*62,1594023735187
NMEA,$PQGSV,1,1,0,*73,1594023735187
NMEA,$GNGSA,A,3,05,12,13,15,19,25,,,,,,,1.8,1.6,0.9,1*39,1594023735188
