# 
# Header Description:
# 
# Version: v2.0.0.1 Platform: 8.0.0 Manufacturer: Sony Model: G8142
# 
# Raw,ElapsedRealtimeMillis,TimeNanos,LeapSecond,TimeUncertaintyNanos,FullBiasNanos,BiasNanos,BiasUncertaintyNanos,DriftNanosPerSecond,DriftUncertaintyNanosPerSecond,HardwareClockDiscontinuityCount,Svid,TimeOffsetNanos,State,ReceivedSvTimeNanos,ReceivedSvTimeUncertaintyNanos,Cn0DbHz,PseudorangeRateMetersPerSecond,PseudorangeRateUncertaintyMetersPerSecond,AccumulatedDeltaRangeState,AccumulatedDeltaRangeMeters,AccumulatedDeltaRangeUncertaintyMeters,CarrierFrequencyHz,CarrierCycles,CarrierPhase,CarrierPhaseUncertainty,MultipathIndicator,SnrInDb,ConstellationType,AgcDb,CarrierFrequencyHz
# 
# Fix,Provider,Latitude,Longitude,Altitude,Speed,Accuracy,(UTC)TimeInMs
# 
# Nav,Svid,Type,Status,MessageId,Sub-messageId,Data(Bytes)
# 
Raw,3095680,3099593000000,,,-1278056086181819392,0.0,4311.946220695972,-3.4774721618408475,12.787412300715527,934,5,0.0,207,41167706610817,24,25.2,-402.4315185546875,0.38840001821517944,0,0.0,0.0,,,,,0,,3,,
Raw,3095681,3099593000000,,,-1278056086181819392,0.0,4311.946220695972,-3.4774721618408475,12.787412300715527,934,4,0.0,207,41167709794680,31,23.4,301.0483093261719,0.8649999499320984,0,0.0,0.0,,,,,0,,3,,
Raw,3095681,3099593000000,,,-1278056086181819392,0.0,4311.946220695972,-3.4774721618408475,12.787412300715527,934,5,0.0,15,116785705198709,9,35.8,-5.2684407234191895,0.02250000089406967,0,0.0,0.0,,,,,0,,1,,
Raw,3095682,3099593000000,,,-1278056086181819392,0.0,4311.946220695972,-3.4774721618408475,12.787412300715527,934,12,0.0,15,116785696211858,6,39.3,297.8266906738281,0.034299999475479126,0,0.0,0.0,,,,,0,,1,,
Raw,3095682,3099593000000,,,-1278056086181819392,0.0,4311.946220695972,-3.4774721618408475,12.787412300715527,934,13,0.0,15,116785700480887,19,27.3,-621.5092163085938,0.09360000491142273,0,0.0,0.0,,,,,0,,1,,
Raw,3095682,3099593000000,,,-1278056086181819392,0.0,4311.946220695972,-3.4774721618408475,12.787412300715527,934,15,0.0,15,116785692980968,19,27.5,-725.0912475585938,0.08160000294446945,0,0.0,0.0,,,,,0,,1,,
Raw,3095682,3099593000000,,,-1278056086181819392,0.0,4311.946220695972,-3.4774721618408475,12.787412300715527,934,25,0.0,15,116785692564098,10,34.9,98.39404296875,0.035100001841783524,0,0.0,0.0,,,,,0,,1,,
Raw,3095682,3099593000000,,,-1278056086181819392,0.0,4311.946220695972,-3.4774721618408475,12.787412300715527,934,29,0.0,15,116785691958844,27,24.7,-667.1886596679688,0.6180000305175781,0,0.0,0.0,,,,,0,,1,,
Fix,gps,22.925319,120.294689,49.359192,0.000000,7.504000,1594023968000
NMEA,$GPGSV,4,1,13,05,55,305,36,12,21,255,39,13,34,182,27,15,11,208,28*7F,1594023967185
NMEA,$GPGSV,4,2,13,25,10,285,35,29,07,323,25,02,54,007,,06,41,068,*72,1594023967185
NMEA,$GPGSV,4,3,13,07,05,085,,09,14,040,,17,18,149,,19,37,149,*78,1594023967185
NMEA,$GPGSV,4,4,13,30,09,115,*44,1594023967186
NMEA,$GLGSV,2,1,07,69,46,229,25,68,68,351,23,82,49,106,,84,08,329,*68,1594023967186
NMEA,$GLGSV,2,2,07,83,56,011,,81,05,133,,67,18,025,*58,1594023967186
NMEA,$GAGSV,1,1,0,*74,1594023967187
NMEA,$PQGSV,1,1,03,193,69,053,,194,11,160,,195,69,144,,0,5*63,1594023967188
NMEA,$PQGSV,1,1,0,*73,1594023967188
NMEA,$GNGSA,A,3,05,12,13,15,19,25,29,,,,,,1.4,1.1,0.9,1*39,1594023967190
NMEA,$GNGSA,A,2,68,69,,,,,,,,,,,1.4,1.1,0.9,2*3E,1594023967190
NMEA,$GNVTG,,T,,M,0.0,N,0.0,K,A*3D,1594023967190
NMEA,$GNRMC,082608.00,A,2255.519120,N,12017.681315,E,0.0,,060720,2.8,W,A*19,1594023967190
NMEA,$GNGGA,082608.00,2255.519120,N,12017.681315,E,1,09,1.1,31.9,M,17.5,M,,*44,1594023967190
NMEA,$GPGSV,4,1,13,05,55,305,37,12,21,255,40,13,34,182,27,15,11,208,26*7E,1594023968182
Raw,3096410,3100485000000,,,-1278056086181070080,0.0,4297.676961869001,-2.4359118519132212,6.915414992112442,935,5,0.0,207,41168597862970,19,27.9,-402.2719421386719,0.38920003175735474,0,0.0,0.0,,,,,0,,3,,
Raw,3096410,3100485000000,,,-1278056086181070080,0.0,4297.676961869001,-2.4359118519132212,6.915414992112442,935,5,0.0,15,116786596449635,8,36.8,-5.11739444732666,0.054499998688697815,0,0.0,0.0,,,,,0,,1,,
Raw,3096410,3100485000000,,,-1278056086181070080,0.0,4297.676961869001,-2.4359118519132212,6.915414992112442,935,12,0.0,15,116786587461870,6,39.7,297.9212951660156,0.03240000084042549,0,0.0,0.0,,,,,0,,1,,
Raw,3096411,3100485000000,,,-1278056086181070080,0.0,4297.676961869001,-2.4359118519132212,6.915414992112442,935,13,0.0,15,116786591733641,21,26.8,-621.4531860351562,0.2671999931335449,0,0.0,0.0,,,,,0,,1,,
Raw,3096411,3100485000000,,,-1278056086181070080,0.0,4297.676961869001,-2.4359118519132212,6.915414992112442,935,15,0.0,15,116786584234132,21,26.1,-725.0791625976562,0.2867000102996826,0,0.0,0.0,,,,,0,,1,,
Raw,3096411,3100485000000,,,-1278056086181070080,0.0,4297.676961869001,-2.4359118519132212,6.915414992112442,935,19,0.0,15,116786591754056,31,23.6,595.9426879882812,0.6679999828338623,0,0.0,0.0,,,,,0,,1,,
Raw,3096411,3100485000000,,,-1278056086181070080,0.0,4297.676961869001,-2.4359118519132212,6.915414992112442,935,25,0.0,15,116786583814701,9,35.8,98.49539184570312,0.0689999982714653,0,0.0,0.0,,,,,0,,1,,
Raw,3096412,3100485000000,,,-1278056086181070080,0.0,4297.676961869001,-2.4359118519132212,6.915414992112442,935,29,0.0,15,116786583211681,21,26.8,-667.4678344726562,0.28519999980926514,0,0.0,0.0,,,,,0,,1,,
Fix,gps,22.925318,120.294691,49.978943,0.000000,8.576000,1594023969000
NMEA,$GPGSV,4,2,13,19,37,149,24,25,10,285,36,29,07,323,27,02,54,007,*78,1594023968183
NMEA,$GPGSV,4,3,13,06,41,068,,07,05,085,,09,14,040,,17,18,149,*75,1594023968183
NMEA,$GPGSV,4,4,13,30,09,115,*44,1594023968183
NMEA,$GLGSV,2,1,06,69,46,229,28,82,49,106,,84,08,329,,83,56,011,*6A,1594023968184
NMEA,$GLGSV,2,2,06,81,05,133,,67,18,025,*61,1594023968184
NMEA,$GAGSV,1,1,0,*74,1594023968184
NMEA,$PQGSV,1,1,03,193,69,053,,194,11,160,,195,69,144,,0,5*63,1594023968185
NMEA,$PQGSV,1,1,0,*73,1594023968186
NMEA,$GNGSA,A,3,05,12,13,15,19,25,29,,,,,,1.4,1.1,0.9,1*39,1594023968187
NMEA,$GNGSA,A,2,69,,,,,,,,,,,,1.4,1.1,0.9,2*30,1594023968187
NMEA,$GNVTG,,T,,M,0.0,N,0.0,K,A*3D,1594023968187
NMEA,$GNRMC,082609.00,A,2255.519104,N,12017.681441,E,0.0,,060720,2.8,W,A*18,1594023968188
NMEA,$GNGGA,082609.00,2255.519104,N,12017.681441,E,1,08,1.1,32.5,M,17.5,M,,*4B,1594023968188
Fix,gps,22.925318,120.294692,50.028442,0.000000,8.576000,1594023970000
NMEA,$GPGSA,A,1,,,,,,,,,,,,,1.4,1.1,0.9,1*21,1594023969179
NMEA,$GPVTG,,T,,M,0.0,N,0.0,K,A*23,1594023969179
NMEA,$GPRMC,082610.00,A,2255.519096,N,12017.681504,E,0.0,,060720,2.8,W,A*04,1594023969179
NMEA,$GPGGA,082610.00,2255.519096,N,12017.681504,E,1,00,1.1,32.6,M,17.5,M,,*5C,1594023969180
NMEA,$GPGSV,4,1,13,05,55,305,33,12,21,255,37,13,34,182,30,15,11,208,33*78,1594023970180
Raw,3098362,3102487000000,,,-1278056086180477440,0.0,4315.61516597867,2.951428255477296,7.996660110610061,936,5,0.0,207,41170599272783,13,31.4,-399.1006774902344,0.28360000252723694,0,0.0,0.0,,,,,0,,3,,
Raw,3098363,3102487000000,,,-1278056086180477440,0.0,4315.61516597867,2.951428255477296,7.996660110610061,936,4,0.0,207,41170602450015,24,25.0,303.3485412597656,1.3935000896453857,0,0.0,0.0,,,,,0,,3,,
Raw,3098363,3102487000000,,,-1278056086180477440,0.0,4315.61516597867,2.951428255477296,7.996660110610061,936,5,0.0,15,116788597856818,11,33.4,-2.038163423538208,0.06870000064373016,0,0.0,0.0,,,,,0,,1,,
Raw,3098363,3102487000000,,,-1278056086180477440,0.0,4315.61516597867,2.951428255477296,7.996660110610061,936,12,0.0,15,116788588867090,7,37.0,300.8216857910156,0.039500001817941666,0,0.0,0.0,,,,,0,,1,,
Raw,3098364,3102487000000,,,-1278056086180477440,0.0,4315.61516597867,2.951428255477296,7.996660110610061,936,13,0.0,15,116788593144943,16,29.8,-618.3575439453125,0.09389999508857727,0,0.0,0.0,,,,,0,,1,,
Raw,3098364,3102487000000,,,-1278056086180477440,0.0,4315.61516597867,2.951428255477296,7.996660110610061,936,15,0.0,15,116788585646165,11,33.4,-722.0386962890625,0.050700001418590546,0,0.0,0.0,,,,,0,,1,,
Raw,3098364,3102487000000,,,-1278056086180477440,0.0,4315.61516597867,2.951428255477296,7.996660110610061,936,19,0.0,15,116788593157284,27,24.6,597.9597778320312,0.6210000514984131,0,0.0,0.0,,,,,0,,1,,
Raw,3098364,3102487000000,,,-1278056086180477440,0.0,4315.61516597867,2.951428255477296,7.996660110610061,936,25,0.0,15,116788585221232,8,36.7,101.48412322998047,0.03799999877810478,0,0.0,0.0,,,,,0,,1,,
Raw,3098365,3102487000000,,,-1278056086180477440,0.0,4315.61516597867,2.951428255477296,7.996660110610061,936,29,0.0,15,116788584623356,21,26.4,-665.0675659179688,0.2567000091075897,0,0.0,0.0,,,,,0,,1,,
NMEA,$GPGSV,4,2,13,19,37,149,25,25,10,285,37,29,07,323,26,02,54,007,*79,1594023970181
NMEA,$GPGSV,4,3,13,06,41,068,,07,05,085,,09,14,040,,17,18,149,*75,1594023970181
NMEA,$GPGSV,4,4,13,30,09,115,*44,1594023970181
NMEA,$GLGSV,2,1,07,69,46,229,31,68,67,352,25,82,49,106,,84,08,329,*67,1594023970181
NMEA,$GLGSV,2,2,07,83,56,011,,81,05,133,,67,18,025,*58,1594023970181
Fix,gps,22.925317,120.294691,50.253235,0.000000,8.576000,1594023971000
NMEA,$GAGSV,1,1,0,*74,1594023970182
NMEA,$PQGSV,1,1,03,193,69,053,,194,11,160,,195,69,144,,0,5*63,1594023970184
NMEA,$PQGSV,1,1,0,*73,1594023970185
NMEA,$GNGSA,A,3,05,12,13,15,19,25,29,,,,,,1.4,1.1,0.9,1*39,1594023970186
NMEA,$GNGSA,A,2,68,69,,,,,,,,,,,1.4,1.1,0.9,2*3E,1594023970186
NMEA,$GNVTG,,T,,M,0.0,N,0.0,K,A*3D,1594023970186
NMEA,$GNRMC,082611.00,A,2255.519036,N,12017.681444,E,0.0,,060720,2.8,W,A*14,1594023970187
NMEA,$GNGGA,082611.00,2255.519036,N,12017.681444,E,1,09,1.1,32.8,M,17.5,M,,*4B,1594023970187
Fix,gps,22.925317,120.294690,50.294617,0.000000,8.576000,1594023972000
NMEA,$GPGSA,A,1,,,,,,,,,,,,,1.4,1.1,0.9,1*21,1594023971181
NMEA,$GPVTG,,T,,M,0.0,N,0.0,K,A*23,1594023971182
NMEA,$GPRMC,082612.00,A,2255.519006,N,12017.681414,E,0.0,,060720,2.8,W,A*0F,1594023971182
NMEA,$GPGGA,082612.00,2255.519006,N,12017.681414,E,1,00,1.1,32.8,M,17.5,M,,*59,1594023971183
NMEA,$GPGSV,4,1,13,05,55,305,36,12,21,255,37,13,34,182,26,15,11,208,30*79,1594023972192
Raw,3100417,3104497000000,,,-1278056086179467776,0.0,4323.462955653667,6.162544456686993,9.336882195614189,937,5,0.0,207,41172608265747,12,32.2,-398.6393127441406,0.2605000138282776,0,0.0,0.0,,,,,0,,3,,
Raw,3100417,3104497000000,,,-1278056086179467776,0.0,4323.462955653667,6.162544456686993,9.336882195614189,937,4,0.0,207,41172611438196,31,23.6,303.8401184082031,0.8679999709129333,0,0.0,0.0,,,,,0,,3,,
Raw,3100418,3104497000000,,,-1278056086179467776,0.0,4323.462955653667,6.162544456686993,9.336882195614189,937,5,0.0,15,116790606847110,8,36.0,-1.8057079315185547,0.03949999809265137,0,0.0,0.0,,,,,0,,1,,
Raw,3100418,3104497000000,,,-1278056086179467776,0.0,4323.462955653667,6.162544456686993,9.336882195614189,937,12,0.0,15,116790597855332,7,37.4,301.181396484375,0.05300000309944153,0,0.0,0.0,,,,,0,,1,,
Raw,3100418,3104497000000,,,-1278056086179467776,0.0,4323.462955653667,6.162544456686993,9.336882195614189,937,13,0.0,15,116790602139405,21,26.1,-618.3963623046875,0.28369998931884766,0,0.0,0.0,,,,,0,,1,,
Raw,3100418,3104497000000,,,-1278056086179467776,0.0,4323.462955653667,6.162544456686993,9.336882195614189,937,15,0.0,15,116790594641234,14,30.2,-721.9696655273438,0.08449999988079071,0,0.0,0.0,,,,,0,,1,,
Raw,3100418,3104497000000,,,-1278056086179467776,0.0,4323.462955653667,6.162544456686993,9.336882195614189,937,19,0.0,15,116790602143538,14,30.4,598.0650024414062,0.09650000184774399,0,0.0,0.0,,,,,0,,1,,
Raw,3100419,3104497000000,,,-1278056086179467776,0.0,4323.462955653667,6.162544456686993,9.336882195614189,937,25,0.0,15,116790594210810,7,37.4,101.85811614990234,0.048500001430511475,0,0.0,0.0,,,,,0,,1,,
Raw,3100419,3104497000000,,,-1278056086179467776,0.0,4323.462955653667,6.162544456686993,9.336882195614189,937,29,0.0,15,116790593618104,14,30.2,-664.8228149414062,0.08299999684095383,0,0.0,0.0,,,,,0,,1,,
Fix,gps,22.925315,120.294686,51.573120,0.000000,8.576000,1594023973000
NMEA,$GPGSV,4,2,13,19,37,149,30,25,10,285,37,29,07,323,30,02,54,007,*7A,1594023972193
NMEA,$GPGSV,4,3,13,06,41,068,,07,05,085,,09,14,040,,17,18,149,*75,1594023972193
NMEA,$GPGSV,4,4,13,30,09,115,*44,1594023972195
NMEA,$GLGSV,2,1,05,69,46,229,32,68,67,352,24,83,56,011,,81,05,133,*6E,1594023972196
NMEA,$GLGSV,2,2,05,67,18,025,*5F,1594023972197
NMEA,$GAGSV,1,1,0,*74,1594023972197
NMEA,$PQGSV,1,1,03,193,69,053,,194,11,160,,195,69,144,,0,5*63,1594023972198
NMEA,$PQGSV,1,1,0,*73,1594023972200
NMEA,$GNGSA,A,3,05,12,13,15,19,25,29,,,,,,1.4,1.1,0.9,1*39,1594023972203
NMEA,$GNGSA,A,2,68,69,,,,,,,,,,,1.4,1.1,0.9,2*3E,1594023972203
NMEA,$GNVTG,,T,,M,0.0,N,0.0,K,A*3D,1594023972204
NMEA,$GNRMC,082613.00,A,2255.518877,N,12017.681165,E,0.0,,060720,2.8,W,A*1C,1594023972206
NMEA,$GNGGA,082613.00,2255.518877,N,12017.681165,E,1,09,1.1,34.1,M,17.5,M,,*4C,1594023972206
Raw,3101385,3105688000000,,,-1278056086179444992,0.0,4401.308484375477,7.959432315819028,8.436683085789177,938,5,0.0,207,41173799244568,12,32.7,-397.90966796875,0.2770000100135803,0,0.0,0.0,,,,,0,,3,,
Raw,3101385,3105688000000,,,-1278056086179444992,0.0,4401.308484375477,7.959432315819028,8.436683085789177,938,5,0.0,15,116791797824358,9,35.9,-1.0897765159606934,0.06000000238418579,0,0.0,0.0,,,,,0,,1,,
Raw,3101385,3105688000000,,,-1278056086179444992,0.0,4401.308484375477,7.959432315819028,8.436683085789177,938,12,0.0,15,116791788831357,8,36.3,301.95635986328125,0.042500000447034836,0,0.0,0.0,,,,,0,,1,,
Raw,3101385,3105688000000,,,-1278056086179444992,0.0,4401.308484375477,7.959432315819028,8.436683085789177,938,13,0.0,15,116791793119116,24,25.6,-617.5187377929688,1.1800000667572021,0,0.0,0.0,,,,,0,,1,,
Raw,3101386,3105688000000,,,-1278056086179444992,0.0,4401.308484375477,7.959432315819028,8.436683085789177,938,15,0.0,15,116791785621400,12,32.4,-721.2432861328125,0.0559999980032444,0,0.0,0.0,,,,,0,,1,,
Raw,3101386,3105688000000,,,-1278056086179444992,0.0,4401.308484375477,7.959432315819028,8.436683085789177,938,19,0.0,15,116791793118468,14,30.3,598.785400390625,0.08299999684095383,0,0.0,0.0,,,,,0,,1,,
Raw,3101386,3105688000000,,,-1278056086179444992,0.0,4401.308484375477,7.959432315819028,8.436683085789177,938,25,0.0,15,116791785187693,10,34.8,102.69892120361328,0.07609999924898148,0,0.0,0.0,,,,,0,,1,,
Raw,3101386,3105688000000,,,-1278056086179444992,0.0,4401.308484375477,7.959432315819028,8.436683085789177,938,29,0.0,15,116791784598024,14,30.6,-664.139892578125,0.09950000047683716,0,0.0,0.0,,,,,0,,1,,
Fix,gps,22.925313,120.294684,51.145752,0.000000,8.576000,1594023974000
NMEA,$GPGSV,4,1,13,05,55,305,36,12,21,255,36,13,34,182,26,15,11,208,32*7A,1594023973183
NMEA,$GPGSV,4,2,13,19,37,149,30,25,10,285,35,29,07,323,31,02,54,007,*79,1594023973184
NMEA,$GPGSV,4,3,13,06,41,068,,07,05,085,,09,14,040,,17,18,149,*75,1594023973185
NMEA,$GPGSV,4,4,13,30,09,115,*44,1594023973185
NMEA,$GLGSV,2,1,06,69,46,229,33,82,49,106,,84,08,329,,83,56,011,*60,1594023973186
NMEA,$GLGSV,2,2,06,81,05,133,,67,18,025,*61,1594023973186
NMEA,$GAGSV,1,1,0,*74,1594023973186
NMEA,$PQGSV,1,1,03,193,69,053,,194,11,160,,195,69,144,,0,5*63,1594023973187
NMEA,$PQGSV,1,1,0,*73,1594023973187
NMEA,$GNGSA,A,3,05,12,13,15,19,25,29,,,,,,1.4,1.1,0.9,1*39,1594023973189
NMEA,$GNGSA,A,2,69,,,,,,,,,,,,1.4,1.1,0.9,2*30,1594023973189
NMEA,$GNVTG,,T,,M,0.0,N,0.0,K,A*3D,1594023973189
NMEA,$GNRMC,082614.00,A,2255.518754,N,12017.681054,E,0.0,,060720,2.8,W,A*16,1594023973190
NMEA,$GNGGA,082614.00,2255.518754,N,12017.681054,E,1,08,1.1,33.7,M,17.5,M,,*46,1594023973190
Fix,gps,22.925312,120.294685,50.429626,0.000000,8.576000,1594023975000
Raw,3102368,3106699000000,,,-1278056086179382784,0.0,4360.518883913755,10.19928329576566,7.152979077570725,939,5,0.0,207,41174810183688,13,31.7,-397.9314880371094,0.2700999975204468,0,0.0,0.0,,,,,0,,3,,
Raw,3102368,3106699000000,,,-1278056086179382784,0.0,4360.518883913755,10.19928329576566,7.152979077570725,939,5,0.0,15,116792808762162,9,35.4,-1.1774486303329468,0.04650000110268593,0,0.0,0.0,,,,,0,,1,,
Raw,3102368,3106699000000,,,-1278056086179382784,0.0,4360.518883913755,10.19928329576566,7.152979077570725,939,12,0.0,15,116792799768146,7,37.6,301.90289306640625,0.0560000017285347,0,0.0,0.0,,,,,0,,1,,
Raw,3102369,3106699000000,,,-1278056086179382784,0.0,4360.518883913755,10.19928329576566,7.152979077570725,939,13,0.0,15,116792804058964,14,30.6,-617.4945678710938,0.09950000047683716,0,0.0,0.0,,,,,0,,1,,
Raw,3102369,3106699000000,,,-1278056086179382784,0.0,4360.518883913755,10.19928329576566,7.152979077570725,939,15,0.0,15,116792796561614,11,33.1,-721.313232421875,0.06720000505447388,0,0.0,0.0,,,,,0,,1,,
Raw,3102370,3106699000000,,,-1278056086179382784,0.0,4360.518883913755,10.19928329576566,7.152979077570725,939,19,0.0,15,116792804054180,31,23.3,599.5202026367188,0.7475000023841858,0,0.0,0.0,,,,,0,,1,,
Raw,3102370,3106699000000,,,-1278056086179382784,0.0,4360.518883913755,10.19928329576566,7.152979077570725,939,25,0.0,15,116792796125155,9,35.8,102.61531829833984,0.05849999934434891,0,0.0,0.0,,,,,0,,1,,
Raw,3102370,3106699000000,,,-1278056086179382784,0.0,4360.518883913755,10.19928329576566,7.152979077570725,939,29,0.0,15,116792795538044,16,29.8,-664.1021728515625,0.09690000116825104,0,0.0,0.0,,,,,0,,1,,
NMEA,$GPGSV,4,1,13,05,55,305,35,12,21,255,38,13,34,182,31,15,11,208,33*70,1594023974183
NMEA,$GPGSV,4,2,13,19,37,149,23,25,10,285,36,29,07,323,30,02,54,007,*79,1594023974183
NMEA,$GPGSV,4,3,13,06,41,068,,07,05,085,,09,14,040,,17,18,149,*75,1594023974184
NMEA,$GPGSV,4,4,13,30,09,115,*44,1594023974184
NMEA,$GLGSV,2,1,07,69,46,229,32,82,49,106,,84,08,329,,83,56,011,*60,1594023974184
NMEA,$GLGSV,2,2,07,81,05,133,,67,18,025,,68,67,352,*5B,1594023974185
NMEA,$GAGSV,1,1,0,*74,1594023974185
NMEA,$PQGSV,1,1,03,193,69,053,,194,11,160,,195,69,144,,0,5*63,1594023974185
NMEA,$PQGSV,1,1,0,*73,1594023974185
NMEA,$GNGSA,A,3,05,12,13,15,19,25,29,,,,,,1.4,1.1,0.9,1*39,1594023974187
NMEA,$GNGSA,A,2,68,69,,,,,,,,,,,1.4,1.1,0.9,2*3E,1594023974187
NMEA,$GNVTG,,T,,M,0.0,N,0.0,K,A*3D,1594023974187
NMEA,$GNRMC,082615.00,A,2255.518729,N,12017.681089,E,0.0,,060720,2.8,W,A*1D,1594023974187
NMEA,$GNGGA,082615.00,2255.518729,N,12017.681089,E,1,09,1.1,33.0,M,17.5,M,,*4B,1594023974188
Raw,3103379,3107691000000,,,-1278056086178980096,0.0,4337.191581726074,9.853360091218647,8.920352550761747,940,5,0.0,207,41175801782380,11,33.1,-399.9864807128906,0.27470001578330994,0,0.0,0.0,,,,,0,,3,,
Raw,3103380,3107691000000,,,-1278056086178980096,0.0,4337.191581726074,9.853360091218647,8.920352550761747,940,5,0.0,15,116793800359568,10,34.5,-3.2532687187194824,0.06859999895095825,0,0.0,0.0,,,,,0,,1,,
Raw,3103380,3107691000000,,,-1278056086178980096,0.0,4337.191581726074,9.853360091218647,8.920352550761747,940,12,0.0,15,116793791364547,7,37.8,299.6781311035156,0.04399999976158142,0,0.0,0.0,,,,,0,,1,,
Raw,3103381,3107691000000,,,-1278056086178980096,0.0,4337.191581726074,9.853360091218647,8.920352550761747,940,13,0.0,15,116793795658459,14,30.2,-619.0731811523438,0.0860000029206276,0,0.0,0.0,,,,,0,,1,,
Raw,3103381,3107691000000,,,-1278056086178980096,0.0,4337.191581726074,9.853360091218647,8.920352550761747,940,15,0.0,15,116793788161405,12,32.7,-723.578369140625,0.060499999672174454,0,0.0,0.0,,,,,0,,1,,
Raw,3103381,3107691000000,,,-1278056086178980096,0.0,4337.191581726074,9.853360091218647,8.920352550761747,940,25,0.0,15,116793787722192,9,35.4,100.470947265625,0.04500000178813934,0,0.0,0.0,,,,,0,,1,,
Raw,3103381,3107691000000,,,-1278056086178980096,0.0,4337.191581726074,9.853360091218647,8.920352550761747,940,29,0.0,15,116793787137598,21,26.6,-666.5327758789062,0.2612000107765198,0,0.0,0.0,,,,,0,,1,,
Fix,gps,22.925311,120.294691,49.660278,0.000000,7.504000,1594023976000
NMEA,$GPGSV,3,1,12,05,55,305,35,12,21,255,38,13,34,182,30,15,11,208,33*77,1594023975183
NMEA,$GPGSV,3,2,12,25,10,285,35,29,07,323,27,02,54,007,,06,41,068,*76,1594023975187
NMEA,$GPGSV,3,3,12,07,05,085,,09,14,040,,17,18,149,,30,09,115,*71,1594023975187
NMEA,$GLGSV,2,1,07,69,46,229,33,82,49,106,,84,08,329,,83,56,011,*61,1594023975187
NMEA,$GLGSV,2,2,07,81,05,133,,67,18,025,,68,67,352,*5B,1594023975187
NMEA,$GAGSV,1,1,0,*74,1594023975188
NMEA,$PQGSV,1,1,03,193,69,053,,194,11,160,,195,69,144,,0,5*63,1594023975190
NMEA,$PQGSV,1,1,0,*73,1594023975190
NMEA,$GNGSA,A,3,05,12,13,15,25,29,,,,,,,1.4,1.1,0.9,1*31,1594023975191
NMEA,$GNGSA,A,2,68,69,,,,,,,,,,,1.4,1.1,0.9,2*3E,1594023975192
NMEA,$GNVTG,,T,,M,0.0,N,0.0,K,A*3D,1594023975192
NMEA,$GNRMC,082616.00,A,2255.518666,N,12017.681482,E,0.0,,060720,2.8,W,A*1B,1594023975192
NMEA,$GNGGA,082616.00,2255.518666,N,12017.681482,E,1,08,1.1,32.2,M,17.5,M,,*4F,1594023975192
Fix,gps,22.925309,120.294694,49.772034,0.000000,7.504000,1594023977000
Raw,3104383,3108701000000,,,-1278056086178391808,0.0,4316.4691887795925,3.1206023425793195,10.657251736528925,941,5,0.0,207,41176811195359,11,33.4,-399.31976318359375,0.2597000002861023,0,0.0,0.0,,,,,0,,3,,
Raw,3104384,3108701000000,,,-1278056086178391808,0.0,4316.4691887795925,3.1206023425793195,10.657251736528925,941,5,0.0,15,116794809771161,10,34.6,-2.707001209259033,0.05209999904036522,0,0.0,0.0,,,,,0,,1,,
Raw,3104384,3108701000000,,,-1278056086178391808,0.0,4316.4691887795925,3.1206023425793195,10.657251736528925,941,12,0.0,15,116794800775145,8,36.9,300.3376770019531,0.060499999672174454,0,0.0,0.0,,,,,0,,1,,
Raw,3104384,3108701000000,,,-1278056086178391808,0.0,4316.4691887795925,3.1206023425793195,10.657251736528925,941,13,0.0,15,116794805072143,17,28.0,-619.3212280273438,0.10490000247955322,0,0.0,0.0,,,,,0,,1,,
Raw,3104384,3108701000000,,,-1278056086178391808,0.0,4316.4691887795925,3.1206023425793195,10.657251736528925,941,15,0.0,15,116794797575438,12,32.9,-723.09228515625,0.07400000095367432,0,0.0,0.0,,,,,0,,1,,
Raw,3104384,3108701000000,,,-1278056086178391808,0.0,4316.4691887795925,3.1206023425793195,10.657251736528925,941,19,0.0,15,116794805059203,27,24.9,596.8370971679688,0.609000027179718,0,0.0,0.0,,,,,0,,1,,
Raw,3104385,3108701000000,,,-1278056086178391808,0.0,4316.4691887795925,3.1206023425793195,10.657251736528925,941,25,0.0,15,116794797133427,9,35.5,101.06988525390625,0.06000000238418579,0,0.0,0.0,,,,,0,,1,,
Raw,3104385,3108701000000,,,-1278056086178391808,0.0,4316.4691887795925,3.1206023425793195,10.657251736528925,941,29,0.0,15,116794796551416,17,28.0,-665.8785400390625,0.12139999866485596,0,0.0,0.0,,,,,0,,1,,
NMEA,$GPGSV,4,1,13,05,55,305,35,12,21,255,37,13,34,182,28,15,11,208,33*77,1594023976181
NMEA,$GPGSV,4,2,13,19,37,149,25,25,10,285,36,29,07,323,28,02,54,007,*76,1594023976182
NMEA,$GPGSV,4,3,13,06,41,068,,07,05,085,,09,14,040,,17,18,149,*75,1594023976182
NMEA,$GPGSV,4,4,13,30,09,115,*44,1594023976182
NMEA,$GLGSV,2,1,07,69,46,229,33,82,49,106,,84,08,329,,83,56,011,*61,1594023976182
NMEA,$GLGSV,2,2,07,81,05,133,,67,18,025,,68,67,352,*5B,1594023976182
NMEA,$GAGSV,1,1,0,*74,1594023976182
NMEA,$PQGSV,1,1,03,193,69,053,,194,11,160,,195,69,144,,0,5*63,1594023976183
NMEA,$PQGSV,1,1,0,*73,1594023976183
NMEA,$GNGSA,A,3,05,12,13,15,19,25,29,,,,,,1.4,1.1,0.9,1*39,1594023976183
NMEA,$GNGSA,A,2,68,69,,,,,,,,,,,1.4,1.1,0.9,2*3E,1594023976183
NMEA,$GNVTG,,T,,M,0.0,N,0.0,K,A*3D,1594023976184
NMEA,$GNRMC,082617.00,A,2255.518562,N,12017.681662,E,0.0,,060720,2.8,W,A*11,1594023976184
NMEA,$GNGGA,082617.00,2255.518562,N,12017.681662,E,1,09,1.1,32.3,M,17.5,M,,*45,1594023976184
Raw,3105402,3109697000000,,,-1278056086178360320,0.0,4306.96364492178,4.246833200329455,11.505236818304862,942,5,0.0,207,41177807165321,11,33.4,-398.3332214355469,0.25370001792907715,0,0.0,0.0,,,,,0,,3,,
Raw,3105402,3109697000000,,,-1278056086178360320,0.0,4306.96364492178,4.246833200329455,11.505236818304862,942,5,0.0,15,116795805739751,10,34.6,-1.8320766687393188,0.04609999805688858,0,0.0,0.0,,,,,0,,1,,
Raw,3105403,3109697000000,,,-1278056086178360320,0.0,4306.96364492178,4.246833200329455,11.505236818304862,942,12,0.0,15,116795796742722,8,36.8,301.2358703613281,0.054499998688697815,0,0.0,0.0,,,,,0,,1,,
Raw,3105403,3109697000000,,,-1278056086178360320,0.0,4306.96364492178,4.246833200329455,11.505236818304862,942,13,0.0,15,116795801042757,16,29.4,-618.2977294921875,0.10589999705553055,0,0.0,0.0,,,,,0,,1,,
Raw,3105403,3109697000000,,,-1278056086178360320,0.0,4306.96364492178,4.246833200329455,11.505236818304862,942,15,0.0,15,116795793546423,11,33.5,-722.1402587890625,0.06270000338554382,0,0.0,0.0,,,,,0,,1,,
Raw,3105403,3109697000000,,,-1278056086178360320,0.0,4306.96364492178,4.246833200329455,11.505236818304862,942,19,0.0,15,116795801025885,21,26.2,598.1488037109375,0.28220000863075256,0,0.0,0.0,,,,,0,,1,,
Raw,3105404,3109697000000,,,-1278056086178360320,0.0,4306.96364492178,4.246833200329455,11.505236818304862,942,25,0.0,15,116795793101693,9,35.1,102.05277252197266,0.05400000140070915,0,0.0,0.0,,,,,0,,1,,
Raw,3105404,3109697000000,,,-1278056086178360320,0.0,4306.96364492178,4.246833200329455,11.505236818304862,942,29,0.0,15,116795792522328,17,28.3,-664.9559326171875,0.11540000140666962,0,0.0,0.0,,,,,0,,1,,
Fix,gps,22.925308,120.294696,49.872864,0.000000,7.504000,1594023978000
NMEA,$GPGSV,4,1,13,05,55,305,35,12,21,255,37,13,34,182,29,15,11,208,34*71,1594023977187
NMEA,$GPGSV,4,2,13,19,37,149,26,25,10,285,35,29,07,323,28,02,54,007,*76,1594023977187
NMEA,$GPGSV,4,3,13,06,41,068,,07,05,085,,09,14,040,,17,18,149,*75,1594023977188
NMEA,$GPGSV,4,4,13,30,09,115,*44,1594023977188
NMEA,$GLGSV,2,1,07,69,46,229,33,82,49,106,,84,08,329,,83,56,011,*61,1594023977189
NMEA,$GLGSV,2,2,07,81,05,133,,67,18,025,,68,67,352,*5B,1594023977189
NMEA,$GAGSV,1,1,0,*74,1594023977190
NMEA,$PQGSV,1,1,03,193,69,053,,194,11,160,,195,69,144,,0,5*63,1594023977190
NMEA,$PQGSV,1,1,0,*73,1594023977191
NMEA,$GNGSA,A,3,05,12,13,15,19,25,29,,,,,,1.4,1.1,0.9,1*39,1594023977199
NMEA,$GNGSA,A,2,68,69,,,,,,,,,,,1.4,1.1,0.9,2*3E,1594023977200
NMEA,$GNVTG,,T,,M,0.0,N,0.0,K,A*3D,1594023977200
NMEA,$GNRMC,082618.00,A,2255.518472,N,12017.681737,E,0.0,,060720,2.8,W,A*1F,1594023977201
NMEA,$GNGGA,082618.00,2255.518472,N,12017.681737,E,1,09,1.1,32.4,M,17.5,M,,*4C,1594023977202
Fix,gps,22.925307,120.294696,49.863586,0.000000,6.432000,1594023979000
Raw,3106367,3110688000000,,,-1278056086177487104,0.0,4304.35873568058,7.149040857071158,12.48203558929248,943,5,0.0,207,41178797293441,11,33.5,-399.4886169433594,0.2687000036239624,0,0.0,0.0,,,,,0,,3,,
Raw,3106367,3110688000000,,,-1278056086177487104,0.0,4304.35873568058,7.149040857071158,12.48203558929248,943,5,0.0,15,116796795866627,9,35.0,-2.974391222000122,0.05700000002980232,0,0.0,0.0,,,,,0,,1,,
Raw,3106368,3110688000000,,,-1278056086177487104,0.0,4304.35873568058,7.149040857071158,12.48203558929248,943,12,0.0,15,116796786868599,8,36.0,300.00628662109375,0.03949999809265137,0,0.0,0.0,,,,,0,,1,,
Raw,3106368,3110688000000,,,-1278056086177487104,0.0,4304.35873568058,7.149040857071158,12.48203558929248,943,13,0.0,15,116796791171682,19,27.4,-619.5933837890625,0.1802000105381012,0,0.0,0.0,,,,,0,,1,,
Raw,3106368,3110688000000,,,-1278056086177487104,0.0,4304.35873568058,7.149040857071158,12.48203558929248,943,15,0.0,15,116796783675658,12,32.6,-723.4729614257812,0.08299999684095383,0,0.0,0.0,,,,,0,,1,,
Raw,3106368,3110688000000,,,-1278056086177487104,0.0,4304.35873568058,7.149040857071158,12.48203558929248,943,19,0.0,15,116796791150773,24,25.6,596.8128662109375,1.1770000457763672,0,0.0,0.0,,,,,0,,1,,
Raw,3106369,3110688000000,,,-1278056086177487104,0.0,4304.35873568058,7.149040857071158,12.48203558929248,943,25,0.0,15,116796783228231,10,34.9,100.86186218261719,0.0731000006198883,0,0.0,0.0,,,,,0,,1,,
Raw,3106369,3110688000000,,,-1278056086177487104,0.0,4304.35873568058,7.149040857071158,12.48203558929248,943,29,0.0,15,116796782651329,17,28.2,-666.2239379882812,0.13040000200271606,0,0.0,0.0,,,,,0,,1,,
NMEA,$GPGSV,4,1,13,05,55,305,35,12,21,255,36,13,34,182,27,15,11,208,33*79,1594023978186
NMEA,$GPGSV,4,2,13,19,37,149,26,25,10,285,35,29,07,323,28,02,54,007,*76,1594023978186
NMEA,$GPGSV,4,3,13,06,41,068,,07,05,085,,09,14,040,,17,18,149,*75,1594023978187
NMEA,$GPGSV,4,4,13,30,09,115,*44,1594023978187
NMEA,$GLGSV,2,1,07,69,46,229,34,82,49,106,,84,08,329,,83,56,011,*66,1594023978187
NMEA,$GLGSV,2,2,07,81,05,133,,67,18,025,,68,67,352,*5B,1594023978187
NMEA,$GAGSV,1,1,0,*74,1594023978187
NMEA,$PQGSV,1,1,03,193,69,053,,194,11,160,,195,69,144,,0,5*63,1594023978187
NMEA,$PQGSV,1,1,0,*73,1594023978188
NMEA,$GNGSA,A,3,05,12,13,15,19,25,29,,,,,,1.6,1.3,0.9,1*39,1594023978189
NMEA,$GNGSA,A,2,68,69,,,,,,,,,,,1.6,1.3,0.9,2*3E,1594023978189
NMEA,$GNVTG,,T,,M,0.0,N,0.0,K,A*3D,1594023978189
NMEA,$GNRMC,082619.00,A,2255.518423,N,12017.681771,E,0.0,,060720,2.8,W,A*18,1594023978190
NMEA,$GNGGA,082619.00,2255.518423,N,12017.681771,E,1,09,1.3,32.4,M,17.5,M,,*49,1594023978190
Raw,3107398,3111701000000,,,-1278056086176654080,0.0,4303.552210330963,2.842030104667507,11.861695876078501,944,5,0.0,207,41179809461711,11,33.7,-398.529052734375,0.2567000091075897,0,0.0,0.0,,,,,0,,3,,
Raw,3107399,3111701000000,,,-1278056086176654080,0.0,4303.552210330963,2.842030104667507,11.861695876078501,944,5,0.0,15,116797808033584,9,35.4,-2.140789270401001,0.04650000110268593,0,0.0,0.0,,,,,0,,1,,
Raw,3107400,3111701000000,,,-1278056086176654080,0.0,4303.552210330963,2.842030104667507,11.861695876078501,944,12,0.0,15,116797799034532,8,36.4,300.9869384765625,0.05900000035762787,0,0.0,0.0,,,,,0,,1,,
Raw,3107400,3111701000000,,,-1278056086176654080,0.0,4303.552210330963,2.842030104667507,11.861695876078501,944,13,0.0,15,116797803340681,19,27.9,-618.4717407226562,0.19820000231266022,0,0.0,0.0,,,,,0,,1,,
Raw,3107400,3111701000000,,,-1278056086176654080,0.0,4303.552210330963,2.842030104667507,11.861695876078501,944,15,0.0,15,116797795845027,11,33.1,-722.5287475585938,0.065700002014637,0,0.0,0.0,,,,,0,,1,,
Raw,3107401,3111701000000,,,-1278056086176654080,0.0,4303.552210330963,2.842030104667507,11.861695876078501,944,19,0.0,15,116797803315649,24,25.8,597.8948364257812,1.1950000524520874,0,0.0,0.0,,,,,0,,1,,
Raw,3107401,3111701000000,,,-1278056086176654080,0.0,4303.552210330963,2.842030104667507,11.861695876078501,944,25,0.0,15,116797795394831,9,35.4,101.81974029541016,0.05700000002980232,0,0.0,0.0,,,,,0,,1,,
Raw,3107401,3111701000000,,,-1278056086176654080,0.0,4303.552210330963,2.842030104667507,11.861695876078501,944,29,0.0,15,116797794820488,16,29.4,-665.2719116210938,0.09539999812841415,0,0.0,0.0,,,,,0,,1,,
Fix,gps,22.925307,120.294696,49.860352,0.000000,7.504000,1594023980000
NMEA,$GPGSV,4,1,13,05,55,305,35,12,21,255,36,13,34,182,28,15,11,208,33*76,1594023979186
NMEA,$GPGSV,4,2,13,19,37,149,26,25,10,285,35,29,07,323,29,02,54,007,*77,1594023979188
NMEA,$GPGSV,4,3,13,06,41,068,,07,05,085,,09,14,040,,17,18,149,*75,1594023979188
NMEA,$GPGSV,4,4,13,30,09,115,*44,1594023979189
NMEA,$GLGSV,2,1,07,69,46,229,34,82,49,106,,84,08,329,,83,56,011,*66,1594023979190
NMEA,$GLGSV,2,2,07,81,05,133,,67,18,025,,68,67,352,*5B,1594023979191
NMEA,$GAGSV,1,1,0,*74,1594023979192
NMEA,$PQGSV,1,1,03,193,69,053,,194,11,160,,195,69,144,,0,5*63,1594023979192
NMEA,$PQGSV,1,1,0,*73,1594023979193
NMEA,$GNGSA,A,3,05,12,13,15,19,25,29,,,,,,1.6,1.3,0.9,1*39,1594023979195
NMEA,$GNGSA,A,2,69,,,,,,,,,,,,1.6,1.3,0.9,2*30,1594023979196
NMEA,$GNVTG,,T,,M,0.0,N,0.0,K,A*3D,1594023979197
NMEA,$GNRMC,082620.00,A,2255.518400,N,12017.681786,E,0.0,,060720,2.8,W,A*1B,1594023979198
NMEA,$GNGGA,082620.00,2255.518400,N,12017.681786,E,1,08,1.3,32.4,M,17.5,M,,*4B,1594023979198
Raw,3108398,3112691000000,,,-1278056086176372480,0.0,4300.311673432589,5.582789807617625,11.662053863782843,945,5,0.0,207,41180799181424,10,34.3,-397.5325622558594,0.2671000063419342,0,0.0,0.0,,,,,0,,3,,
Raw,3108400,3112691000000,,,-1278056086176372480,0.0,4300.311673432589,5.582789807617625,11.662053863782843,945,5,0.0,15,116798797752006,9,35.5,-1.1700624227523804,0.06000000238418579,0,0.0,0.0,,,,,0,,1,,
Raw,3108401,3112691000000,,,-1278056086176372480,0.0,4300.311673432589,5.582789807617625,11.662053863782843,945,12,0.0,15,116798788751941,8,36.2,301.7855224609375,0.042500000447034836,0,0.0,0.0,,,,,0,,1,,
Raw,3108402,3112691000000,,,-1278056086176372480,0.0,4300.311673432589,5.582789807617625,11.662053863782843,945,13,0.0,15,116798793061149,17,28.8,-617.8338623046875,0.1168999969959259,0,0.0,0.0,,,,,0,,1,,
Raw,3108404,3112691000000,,,-1278056086176372480,0.0,4300.311673432589,5.582789807617625,11.662053863782843,945,15,0.0,15,116798785565853,11,33.2,-721.7543334960938,0.050700001418590546,0,0.0,0.0,,,,,0,,1,,
Raw,3108405,3112691000000,,,-1278056086176372480,0.0,4300.311673432589,5.582789807617625,11.662053863782843,945,19,0.0,15,116798793032001,27,24.7,597.8837280273438,0.6210000514984131,0,0.0,0.0,,,,,0,,1,,
Raw,3108406,3112691000000,,,-1278056086176372480,0.0,4300.311673432589,5.582789807617625,11.662053863782843,945,25,0.0,15,116798785112907,8,36.1,102.67442321777344,0.03799999877810478,0,0.0,0.0,,,,,0,,1,,
Raw,3108407,3112691000000,,,-1278056086176372480,0.0,4300.311673432589,5.582789807617625,11.662053863782843,945,29,0.0,15,116798784541058,16,29.1,-664.6746826171875,0.0803999975323677,0,0.0,0.0,,,,,0,,1,,
Fix,gps,22.925306,120.294697,49.843811,0.000000,7.504000,1594023981000
NMEA,$GPGSV,4,1,13,05,55,305,36,12,21,255,36,13,34,182,29,15,11,208,33*74,1594023980184
NMEA,$GPGSV,4,2,13,19,37,149,25,25,10,285,36,29,07,323,29,02,54,007,*77,1594023980185
NMEA,$GPGSV,4,3,13,06,41,068,,07,05,085,,09,14,040,,17,18,149,*75,1594023980185
NMEA,$GPGSV,4,4,13,30,09,115,*44,1594023980186
NMEA,$GLGSV,2,1,07,69,46,229,34,82,49,106,,84,08,329,,83,56,011,*66,1594023980186
NMEA,$GLGSV,2,2,07,81,05,133,,67,18,025,,68,67,352,*5B,1594023980187
NMEA,$GAGSV,1,1,0,*74,1594023980187
NMEA,$PQGSV,1,1,03,193,69,053,,194,11,160,,195,69,144,,0,5*63,1594023980187
NMEA,$PQGSV,1,1,0,*73,1594023980192
NMEA,$GNGSA,A,3,05,12,13,15,19,25,29,,,,,,1.6,1.3,0.9,1*39,1594023980202
NMEA,$GNGSA,A,2,69,,,,,,,,,,,,1.6,1.3,0.9,2*30,1594023980202
NMEA,$GNVTG,,T,,M,0.0,N,0.0,K,A*3D,1594023980203
NMEA,$GNRMC,082621.00,A,2255.518389,N,12017.681796,E,0.0,,060720,2.8,W,A*1D,1594023980203
NMEA,$GNGGA,082621.00,2255.518389,N,12017.681796,E,1,08,1.3,32.4,M,17.5,M,,*4D,1594023980204
Raw,3109369,3113685000000,,,-1278056086175752704,0.0,4307.865165174007,8.297277873836538,12.335915838632687,946,5,0.0,207,41181792563130,9,35.0,-398.7713623046875,0.2524999976158142,0,0.0,0.0,,,,,0,,3,,
Raw,3109369,3113685000000,,,-1278056086175752704,0.0,4307.865165174007,8.297277873836538,12.335915838632687,946,5,0.0,15,116799791132391,10,34.1,-2.4904069900512695,0.05509999766945839,0,0.0,0.0,,,,,0,,1,,
Raw,3109369,3113685000000,,,-1278056086175752704,0.0,4307.865165174007,8.297277873836538,12.335915838632687,946,12,0.0,15,116799782131317,8,36.3,300.61260986328125,0.06350000202655792,0,0.0,0.0,,,,,0,,1,,
Raw,3109370,3113685000000,,,-1278056086175752704,0.0,4307.865165174007,8.297277873836538,12.335915838632687,946,13,0.0,15,116799786443588,17,28.7,-618.9508056640625,0.10639999806880951,0,0.0,0.0,,,,,0,,1,,
Raw,3109370,3113685000000,,,-1278056086175752704,0.0,4307.865165174007,8.297277873836538,12.335915838632687,946,15,0.0,15,116799778948616,12,32.1,-723.0095825195312,0.0754999965429306,0,0.0,0.0,,,,,0,,1,,
Raw,3109370,3113685000000,,,-1278056086175752704,0.0,4307.865165174007,8.297277873836538,12.335915838632687,946,19,0.0,15,116799786410436,21,26.4,597.3494873046875,0.2597000002861023,0,0.0,0.0,,,,,0,,1,,
Raw,3109370,3113685000000,,,-1278056086175752704,0.0,4307.865165174007,8.297277873836538,12.335915838632687,946,25,0.0,15,116799778492939,10,34.4,101.48946380615234,0.06560000032186508,0,0.0,0.0,,,,,0,,1,,
Raw,3109371,3113685000000,,,-1278056086175752704,0.0,4307.865165174007,8.297277873836538,12.335915838632687,946,29,0.0,15,116799777923729,17,28.7,-665.70068359375,0.12290000170469284,0,0.0,0.0,,,,,0,,1,,
Fix,gps,22.925306,120.294697,49.844604,0.000000,7.504000,1594023982000
NMEA,$GPGSV,4,1,13,05,55,305,34,12,21,255,36,13,34,182,29,15,11,208,32*77,1594023981186
NMEA,$GPGSV,4,2,13,19,37,149,26,25,10,285,34,29,07,323,29,02,54,007,*76,1594023981187
NMEA,$GPGSV,4,3,13,06,41,068,,07,05,085,,09,14,040,,17,18,149,*75,1594023981190
NMEA,$GPGSV,4,4,13,30,09,115,*44,1594023981191
NMEA,$GLGSV,2,1,07,69,46,229,35,82,49,106,,84,08,329,,83,56,011,*67,1594023981191
NMEA,$GLGSV,2,2,07,81,05,133,,67,18,025,,68,67,352,*5B,1594023981191
NMEA,$GAGSV,1,1,0,*74,1594023981191
NMEA,$PQGSV,1,1,03,193,69,053,,194,11,160,,195,69,144,,0,5*63,1594023981192
NMEA,$PQGSV,1,1,0,*73,1594023981192
NMEA,$GNGSA,A,3,05,12,13,15,19,25,29,,,,,,1.6,1.3,0.9,1*39,1594023981192
NMEA,$GNGSA,A,2,69,,,,,,,,,,,,1.6,1.3,0.9,2*30,1594023981193
NMEA,$GNVTG,,T,,M,0.0,N,0.0,K,A*3D,1594023981193
NMEA,$GNRMC,082622.00,A,2255.518383,N,12017.681802,E,0.0,,060720,2.8,W,A*16,1594023981193
NMEA,$GNGGA,082622.00,2255.518383,N,12017.681802,E,1,08,1.3,32.4,M,17.5,M,,*46,1594023981193
Raw,3110395,3114698000000,,,-1278056086175109632,0.0,4314.987454563379,3.788207064018301,12.77942054429385,947,5,0.0,207,41182804921145,10,34.8,-398.05859375,0.24460001289844513,0,0.0,0.0,,,,,0,,3,,
Raw,3110397,3114698000000,,,-1278056086175109632,0.0,4314.987454563379,3.788207064018301,12.77942054429385,947,4,0.0,207,41182808069747,35,22.6,304.2696228027344,0.9234999418258667,0,0.0,0.0,,,,,0,,3,,
Raw,3110398,3114698000000,,,-1278056086175109632,0.0,4314.987454563379,3.788207064018301,12.77942054429385,947,5,0.0,15,116800803489068,10,34.4,-1.6891082525253296,0.0731000006198883,0,0.0,0.0,,,,,0,,1,,
Raw,3110399,3114698000000,,,-1278056086175109632,0.0,4314.987454563379,3.788207064018301,12.77942054429385,947,12,0.0,15,116800794486977,8,36.1,301.26959228515625,0.051500000059604645,0,0.0,0.0,,,,,0,,1,,
Raw,3110400,3114698000000,,,-1278056086175109632,0.0,4314.987454563379,3.788207064018301,12.77942054429385,947,13,0.0,15,116800798802393,17,28.9,-618.1730346679688,0.12439999729394913,0,0.0,0.0,,,,,0,,1,,
Raw,3110400,3114698000000,,,-1278056086175109632,0.0,4314.987454563379,3.788207064018301,12.77942054429385,947,15,0.0,15,116800791307790,12,32.9,-722.37255859375,0.06499999761581421,0,0.0,0.0,,,,,0,,1,,
Raw,3110400,3114698000000,,,-1278056086175109632,0.0,4314.987454563379,3.788207064018301,12.77942054429385,947,19,0.0,15,116800798765158,24,25.6,598.1455688476562,1.1875,0,0.0,0.0,,,,,0,,1,,
Raw,3110401,3114698000000,,,-1278056086175109632,0.0,4314.987454563379,3.788207064018301,12.77942054429385,947,25,0.0,15,116800790849290,9,35.6,102.15518951416016,0.0494999997317791,0,0.0,0.0,,,,,0,,1,,
Raw,3110401,3114698000000,,,-1278056086175109632,0.0,4314.987454563379,3.788207064018301,12.77942054429385,947,29,0.0,15,116800790282672,14,30.3,-665.173828125,0.07850000262260437,0,0.0,0.0,,,,,0,,1,,
Fix,gps,22.925306,120.294697,49.872742,0.000000,8.576000,1594023983000
NMEA,$GPGSV,4,1,13,05,55,305,34,12,21,255,36,13,34,182,29,15,11,208,33*76,1594023982185
NMEA,$GPGSV,4,2,13,19,37,149,26,25,10,285,36,29,07,323,30,02,54,007,*7C,1594023982187
NMEA,$GPGSV,4,3,13,06,41,068,,07,05,085,,09,14,040,,17,18,149,*75,1594023982188
NMEA,$GPGSV,4,4,13,30,09,115,*44,1594023982188
NMEA,$GLGSV,2,1,07,69,46,229,35,68,67,352,23,82,49,106,,84,08,329,*65,1594023982190
NMEA,$GLGSV,2,2,07,83,56,011,,81,05,133,,67,18,025,*58,1594023982190
NMEA,$GAGSV,1,1,0,*74,1594023982191
NMEA,$PQGSV,1,1,03,193,69,053,,194,11,160,,195,69,144,,0,5*63,1594023982191
NMEA,$PQGSV,1,1,0,*73,1594023982192
NMEA,$GNGSA,A,3,05,12,13,15,19,25,29,,,,,,1.4,1.1,0.9,1*39,1594023982194
NMEA,$GNGSA,A,2,69,,,,,,,,,,,,1.4,1.1,0.9,2*30,1594023982195
NMEA,$GNVTG,,T,,M,0.0,N,0.0,K,A*3D,1594023982196
NMEA,$GNRMC,082623.00,A,2255.518370,N,12017.681791,E,0.0,,060720,2.8,W,A*1E,1594023982196
NMEA,$GNGGA,082623.00,2255.518370,N,12017.681791,E,1,08,1.1,32.4,M,17.5,M,,*4C,1594023982197
Raw,3111400,3115690000000,,,-1278056086174600704,0.0,4335.332196205854,5.9464588627759705,7.312908048899836,948,5,0.0,207,41183796413611,10,34.8,-397.90985107421875,0.26260000467300415,0,0.0,0.0,,,,,0,,3,,
Raw,3111401,3115690000000,,,-1278056086174600704,0.0,4335.332196205854,5.9464588627759705,7.312908048899836,948,5,0.0,15,116801794980197,9,35.3,-1.7756915092468262,0.05550000071525574,0,0.0,0.0,,,,,0,,1,,
Raw,3111401,3115690000000,,,-1278056086174600704,0.0,4335.332196205854,5.9464588627759705,7.312908048899836,948,12,0.0,15,116801785977115,9,35.6,301.2102355957031,0.041999999433755875,0,0.0,0.0,,,,,0,,1,,
Raw,3111402,3115690000000,,,-1278056086174600704,0.0,4335.332196205854,5.9464588627759705,7.312908048899836,948,13,0.0,15,116801790295555,16,29.0,-618.2993774414062,0.08940000087022781,0,0.0,0.0,,,,,0,,1,,
Raw,3111402,3115690000000,,,-1278056086174600704,0.0,4335.332196205854,5.9464588627759705,7.312908048899836,948,15,0.0,15,116801782801291,13,31.7,-722.398681640625,0.08810000121593475,0,0.0,0.0,,,,,0,,1,,
Raw,3111402,3115690000000,,,-1278056086174600704,0.0,4335.332196205854,5.9464588627759705,7.312908048899836,948,19,0.0,15,116801790254307,24,25.1,598.089599609375,1.1755000352859497,0,0.0,0.0,,,,,0,,1,,
Raw,3111402,3115690000000,,,-1278056086174600704,0.0,4335.332196205854,5.9464588627759705,7.312908048899836,948,25,0.0,15,116801782340072,9,35.8,102.20577239990234,0.06750000268220901,0,0.0,0.0,,,,,0,,1,,
Raw,3111402,3115690000000,,,-1278056086174600704,0.0,4335.332196205854,5.9464588627759705,7.312908048899836,948,29,0.0,15,116801781775927,17,28.7,-665.1008911132812,0.12890000641345978,0,0.0,0.0,,,,,0,,1,,
Fix,gps,22.925306,120.294696,49.881958,0.000000,7.504000,1594023984000
NMEA,$GPGSV,4,1,13,05,55,305,35,12,21,255,36,13,34,182,29,15,11,208,32*76,1594023983185
NMEA,$GPGSV,4,2,13,19,37,149,25,25,10,285,36,29,07,323,29,02,54,007,*77,1594023983187
NMEA,$GPGSV,4,3,13,06,41,068,,07,05,085,,09,14,040,,17,18,149,*75,1594023983188
NMEA,$GPGSV,4,4,13,30,09,115,*44,1594023983188
NMEA,$GLGSV,2,1,06,69,46,229,35,82,49,106,,84,08,329,,83,56,011,*66,1594023983189
NMEA,$GLGSV,2,2,06,81,05,133,,67,18,025,*61,1594023983189
NMEA,$GAGSV,1,1,0,*74,1594023983189
NMEA,$PQGSV,1,1,03,193,69,053,,194,11,160,,195,69,144,,0,5*63,1594023983190
NMEA,$PQGSV,1,1,0,*73,1594023983190
NMEA,$GNGSA,A,3,05,12,13,15,19,25,29,,,,,,1.4,1.1,0.9,1*39,1594023983192
NMEA,$GNGSA,A,2,69,,,,,,,,,,,,1.4,1.1,0.9,2*30,1594023983196
NMEA,$GNVTG,,T,,M,0.0,N,0.0,K,A*3D,1594023983197
NMEA,$GNRMC,082624.00,A,2255.518362,N,12017.681786,E,0.0,,060720,2.8,W,A*1C,1594023983198
NMEA,$GNGGA,082624.00,2255.518362,N,12017.681786,E,1,08,1.1,32.4,M,17.5,M,,*4E,1594023983198
Raw,3112387,3116703000000,,,-1278056086173951232,0.0,4340.527579188347,5.792415352029863,11.813172736829607,949,5,0.0,207,41184808765636,11,33.8,-399.2848815917969,0.25519999861717224,0,0.0,0.0,,,,,0,,3,,
Raw,3112388,3116703000000,,,-1278056086173951232,0.0,4340.527579188347,5.792415352029863,11.813172736829607,949,5,0.0,15,116802807330901,10,34.3,-3.158555269241333,0.04910000041127205,0,0.0,0.0,,,,,0,,1,,
Raw,3112388,3116703000000,,,-1278056086173951232,0.0,4340.527579188347,5.792415352029863,11.813172736829607,949,12,0.0,15,116802798326817,9,35.9,299.83709716796875,0.061500001698732376,0,0.0,0.0,,,,,0,,1,,
Raw,3112388,3116703000000,,,-1278056086173951232,0.0,4340.527579188347,5.792415352029863,11.813172736829607,949,13,0.0,15,116802802648321,17,28.3,-619.7719116210938,0.13040000200271606,0,0.0,0.0,,,,,0,,1,,
Raw,3112388,3116703000000,,,-1278056086173951232,0.0,4340.527579188347,5.792415352029863,11.813172736829607,949,15,0.0,15,116802795154387,13,31.5,-723.8474731445312,0.07760000228881836,0,0.0,0.0,,,,,0,,1,,
Raw,3112389,3116703000000,,,-1278056086173951232,0.0,4340.527579188347,5.792415352029863,11.813172736829607,949,19,0.0,15,116802802602948,31,23.5,596.6848754882812,0.684499979019165,0,0.0,0.0,,,,,0,,1,,
Raw,3112389,3116703000000,,,-1278056086173951232,0.0,4340.527579188347,5.792415352029863,11.813172736829607,949,25,0.0,15,116802794690417,9,35.8,100.81208038330078,0.05550000071525574,0,0.0,0.0,,,,,0,,1,,
Raw,3112389,3116703000000,,,-1278056086173951232,0.0,4340.527579188347,5.792415352029863,11.813172736829607,949,29,0.0,15,116802794128884,17,28.3,-666.7115478515625,0.11840000003576279,0,0.0,0.0,,,,,0,,1,,
Fix,gps,22.925306,120.294696,49.891296,0.000000,7.504000,1594023985000
NMEA,$GPGSV,4,1,13,05,55,305,34,12,21,255,36,13,34,182,28,15,11,208,32*76,1594023984183
NMEA,$GPGSV,4,2,13,19,37,149,24,25,10,285,36,29,07,323,28,02,54,007,*77,1594023984185
NMEA,$GPGSV,4,3,13,06,41,068,,07,05,085,,09,14,040,,17,18,149,*75,1594023984187
NMEA,$GPGSV,4,4,13,30,09,115,*44,1594023984188
NMEA,$GLGSV,2,1,07,69,46,229,34,82,49,106,,84,08,329,,83,56,011,*66,1594023984189
NMEA,$GLGSV,2,2,07,81,05,133,,67,18,025,,68,67,352,*5B,1594023984189
NMEA,$GAGSV,1,1,0,*74,1594023984190
NMEA,$PQGSV,1,1,03,193,69,053,,194,11,160,,195,69,144,,0,5*63,1594023984190
NMEA,$PQGSV,1,1,0,*73,1594023984191
NMEA,$GNGSA,A,3,05,12,13,15,19,25,29,,,,,,1.4,1.1,0.9,1*39,1594023984192
NMEA,$GNGSA,A,2,68,69,,,,,,,,,,,1.4,1.1,0.9,2*3E,1594023984192
NMEA,$GNVTG,,T,,M,0.0,N,0.0,K,A*3D,1594023984193
NMEA,$GNRMC,082625.00,A,2255.518358,N,12017.681783,E,0.0,,060720,2.8,W,A*11,1594023984193
NMEA,$GNGGA,082625.00,2255.518358,N,12017.681783,E,1,09,1.1,32.4,M,17.5,M,,*42,1594023984193
Raw,3113397,3117698000000,,,-1278056086173385216,0.0,4332.742188125849,1.1783981631711102,11.501394826537213,950,5,0.0,207,41185803200573,9,35.1,-398.2265319824219,0.26900002360343933,0,0.0,0.0,,,,,0,,3,,
Raw,3113398,3117698000000,,,-1278056086173385216,0.0,4332.742188125849,1.1783981631711102,11.501394826537213,950,4,0.0,207,41185806342107,35,22.8,305.42742919921875,0.9204999804496765,0,0.0,0.0,,,,,0,,3,,
Raw,3113398,3117698000000,,,-1278056086173385216,0.0,4332.742188125849,1.1783981631711102,11.501394826537213,950,5,0.0,15,116803801764458,10,34.8,-2.2306935787200928,0.07010000199079514,0,0.0,0.0,,,,,0,,1,,
Raw,3113398,3117698000000,,,-1278056086173385216,0.0,4332.742188125849,1.1783981631711102,11.501394826537213,950,12,0.0,15,116803792759332,8,36.4,300.8558654785156,0.048500001430511475,0,0.0,0.0,,,,,0,,1,,
Raw,3113399,3117698000000,,,-1278056086173385216,0.0,4332.742188125849,1.1783981631711102,11.501394826537213,950,13,0.0,15,116803797083938,16,29.2,-618.7196044921875,0.09989999979734421,0,0.0,0.0,,,,,0,,1,,
Raw,3113399,3117698000000,,,-1278056086173385216,0.0,4332.742188125849,1.1783981631711102,11.501394826537213,950,15,0.0,15,116803789590362,13,31.6,-722.894287109375,0.06859999895095825,0,0.0,0.0,,,,,0,,1,,
Raw,3113400,3117698000000,,,-1278056086173385216,0.0,4332.742188125849,1.1783981631711102,11.501394826537213,950,19,0.0,15,116803797034495,21,26.3,597.8201904296875,0.27619999647140503,0,0.0,0.0,,,,,0,,1,,
Raw,3113400,3117698000000,,,-1278056086173385216,0.0,4332.742188125849,1.1783981631711102,11.501394826537213,950,25,0.0,15,116803789123674,9,35.4,101.79167938232422,0.04800000041723251,0,0.0,0.0,,,,,0,,1,,
Raw,3113401,3117698000000,,,-1278056086173385216,0.0,4332.742188125849,1.1783981631711102,11.501394826537213,950,29,0.0,15,116803788564670,16,29.3,-665.6904907226562,0.08639999479055405,0,0.0,0.0,,,,,0,,1,,
Fix,gps,22.925306,120.294696,49.881958,0.000000,8.576000,1594023986000
NMEA,$GPGSV,4,1,13,05,55,305,35,12,21,255,36,13,34,182,29,15,11,208,32*76,1594023985187
NMEA,$GPGSV,4,2,13,19,37,149,26,25,10,285,35,29,07,323,29,02,54,007,*77,1594023985188
NMEA,$GPGSV,4,3,13,06,41,068,,07,05,085,,09,14,040,,17,18,149,*75,1594023985188
NMEA,$GPGSV,4,4,13,30,09,115,*44,1594023985189
NMEA,$GLGSV,2,1,07,69,46,229,35,68,67,352,23,82,49,106,,84,08,329,*65,1594023985189
NMEA,$GLGSV,2,2,07,83,56,011,,81,05,133,,67,18,025,*58,1594023985190
NMEA,$GAGSV,1,1,0,*74,1594023985190
NMEA,$PQGSV,1,1,03,193,69,053,,194,11,160,,195,69,144,,0,5*63,1594023985190
NMEA,$PQGSV,1,1,0,*73,1594023985191
NMEA,$GNGSA,A,3,05,12,13,15,19,25,29,,,,,,1.4,1.1,0.9,1*39,1594023985196
NMEA,$GNGSA,A,2,68,69,,,,,,,,,,,1.4,1.1,0.9,2*3E,1594023985196
NMEA,$GNVTG,,T,,M,0.0,N,0.0,K,A*3D,1594023985197
NMEA,$GNRMC,082626.00,A,2255.518356,N,12017.681783,E,0.0,,060720,2.8,W,A*1C,1594023985197
NMEA,$GNGGA,082626.00,2255.518356,N,12017.681783,E,1,09,1.1,32.4,M,17.5,M,,*4F,1594023985197
Raw,3114390,3118687000000,,,-1278056086173159936,0.0,4339.142236858606,4.016986500115071,11.561575162087127,951,5,0.0,207,41186791976979,9,35.3,-397.93634033203125,0.2510000169277191,0,0.0,0.0,,,,,0,,3,,
Raw,3114391,3118687000000,,,-1278056086173159936,0.0,4339.142236858606,4.016986500115071,11.561575162087127,951,4,0.0,207,41186795116232,35,22.5,304.45635986328125,0.9339999556541443,0,0.0,0.0,,,,,0,,3,,
Raw,3114391,3118687000000,,,-1278056086173159936,0.0,4339.142236858606,4.016986500115071,11.561575162087127,951,5,0.0,15,116804790539621,10,34.7,-1.9701998233795166,0.053599998354911804,0,0.0,0.0,,,,,0,,1,,
Raw,3114391,3118687000000,,,-1278056086173159936,0.0,4339.142236858606,4.016986500115071,11.561575162087127,951,12,0.0,15,116804781533498,9,35.7,301.0928039550781,0.06599999964237213,0,0.0,0.0,,,,,0,,1,,
Raw,3114391,3118687000000,,,-1278056086173159936,0.0,4339.142236858606,4.016986500115071,11.561575162087127,951,13,0.0,15,116804785861156,14,30.1,-618.45654296875,0.07100000232458115,0,0.0,0.0,,,,,0,,1,,
Raw,3114391,3118687000000,,,-1278056086173159936,0.0,4339.142236858606,4.016986500115071,11.561575162087127,951,15,0.0,15,116804778367866,13,31.9,-722.7868041992188,0.08209999650716782,0,0.0,0.0,,,,,0,,1,,
Raw,3114392,3118687000000,,,-1278056086173159936,0.0,4339.142236858606,4.016986500115071,11.561575162087127,951,19,0.0,15,116804785807718,21,26.3,597.9364624023438,0.2581999897956848,0,0.0,0.0,,,,,0,,1,,
Raw,3114392,3118687000000,,,-1278056086173159936,0.0,4339.142236858606,4.016986500115071,11.561575162087127,951,25,0.0,15,116804777898443,9,35.8,102.04449462890625,0.06000000238418579,0,0.0,0.0,,,,,0,,1,,
Raw,3114392,3118687000000,,,-1278056086173159936,0.0,4339.142236858606,4.016986500115071,11.561575162087127,951,29,0.0,15,116804777342019,16,29.5,-665.4627685546875,0.09989999979734421,0,0.0,0.0,,,,,0,,1,,
Fix,gps,22.925306,120.294696,49.879333,0.000000,7.504000,1594023987000
NMEA,$GPGSV,4,1,13,05,55,305,35,12,21,255,36,13,34,182,30,15,11,208,32*7E,1594023986185
NMEA,$GPGSV,4,2,13,19,37,149,26,25,10,285,36,29,07,323,30,02,54,007,*7C,1594023986186
NMEA,$GPGSV,4,3,13,06,41,068,,07,05,085,,09,14,040,,17,18,149,*75,1594023986187
NMEA,$GPGSV,4,4,13,30,09,115,*44,1594023986188
NMEA,$GLGSV,2,1,07,69,46,229,35,68,67,352,23,82,49,106,,84,08,329,*65,1594023986190
NMEA,$GLGSV,2,2,07,83,56,011,,81,05,133,,67,18,025,*58,1594023986190
NMEA,$GAGSV,1,1,0,*74,1594023986191
NMEA,$PQGSV,1,1,03,193,69,053,,194,11,160,,195,69,144,,0,5*63,1594023986192
NMEA,$PQGSV,1,1,0,*73,1594023986193
NMEA,$GNGSA,A,3,05,12,13,15,19,25,29,,,,,,1.4,1.1,0.9,1*39,1594023986196
NMEA,$GNGSA,A,2,68,69,,,,,,,,,,,1.4,1.1,0.9,2*3E,1594023986196
NMEA,$GNVTG,,T,,M,0.0,N,0.0,K,A*3D,1594023986197
NMEA,$GNRMC,082627.00,A,2255.518355,N,12017.681787,E,0.0,,060720,2.8,W,A*1A,1594023986197
NMEA,$GNGGA,082627.00,2255.518355,N,12017.681787,E,1,09,1.1,32.4,M,17.5,M,,*49,1594023986200
Raw,3115378,3119700000000,,,-1278056086173038592,0.0,4330.361727625132,4.418464698849826,9.082384239175038,952,5,0.0,207,41187804856887,9,35.1,-398.10137939453125,0.24050001800060272,0,0.0,0.0,,,,,0,,3,,
Raw,3115379,3119700000000,,,-1278056086173038592,0.0,4330.361727625132,4.418464698849826,9.082384239175038,952,4,0.0,207,41187807993794,27,24.9,304.4283752441406,0.812000036239624,0,0.0,0.0,,,,,0,,3,,
Raw,3115379,3119700000000,,,-1278056086173038592,0.0,4330.361727625132,4.418464698849826,9.082384239175038,952,5,0.0,15,116805803418170,10,34.7,-2.287950038909912,0.0731000006198883,0,0.0,0.0,,,,,0,,1,,
Raw,3115379,3119700000000,,,-1278056086173038592,0.0,4330.361727625132,4.418464698849826,9.082384239175038,952,12,0.0,15,116805794411043,8,36.2,300.81488037109375,0.051500000059604645,0,0.0,0.0,,,,,0,,1,,
Raw,3115379,3119700000000,,,-1278056086173038592,0.0,4330.361727625132,4.418464698849826,9.082384239175038,952,13,0.0,15,116805798741713,14,30.2,-618.9109497070312,0.09049999713897705,0,0.0,0.0,,,,,0,,1,,
Raw,3115380,3119700000000,,,-1278056086173038592,0.0,4330.361727625132,4.418464698849826,9.082384239175038,952,15,0.0,15,116805791248855,13,31.7,-723.0556640625,0.07159999758005142,0,0.0,0.0,,,,,0,,1,,
Raw,3115380,3119700000000,,,-1278056086173038592,0.0,4330.361727625132,4.418464698849826,9.082384239175038,952,19,0.0,15,116805798684260,24,25.9,597.8414916992188,1.1875,0,0.0,0.0,,,,,0,,1,,
Raw,3115380,3119700000000,,,-1278056086173038592,0.0,4330.361727625132,4.418464698849826,9.082384239175038,952,25,0.0,15,116805790776670,9,35.8,101.87960052490234,0.0494999997317791,0,0.0,0.0,,,,,0,,1,,
Raw,3115380,3119700000000,,,-1278056086173038592,0.0,4330.361727625132,4.418464698849826,9.082384239175038,952,29,0.0,15,116805790222875,16,29.6,-665.7344360351562,0.08940000087022781,0,0.0,0.0,,,,,0,,1,,
Fix,gps,22.925306,120.294696,49.889526,0.000000,7.504000,1594023988000
NMEA,$GPGSV,4,1,13,05,55,305,35,12,21,255,36,13,34,182,30,15,11,208,32*7E,1594023987189
NMEA,$GPGSV,4,2,13,19,37,149,26,25,10,285,36,29,07,323,30,02,54,007,*7C,1594023987190
NMEA,$GPGSV,4,3,13,06,41,068,,07,05,085,,09,14,040,,17,18,149,*75,1594023987191
NMEA,$GPGSV,4,4,13,30,09,115,*44,1594023987192
NMEA,$GLGSV,2,1,07,69,46,229,35,68,67,352,25,82,49,106,,84,08,329,*63,1594023987193
NMEA,$GLGSV,2,2,07,83,56,011,,81,05,133,,67,18,025,*58,1594023987194
NMEA,$GAGSV,1,1,0,*74,1594023987197
NMEA,$PQGSV,1,1,03,193,69,053,,194,11,160,,195,69,144,,0,5*63,1594023987202
NMEA,$PQGSV,1,1,0,*73,1594023987203
NMEA,$GNGSA,A,3,05,12,13,15,19,25,29,,,,,,1.4,1.1,0.9,1*39,1594023987205
NMEA,$GNGSA,A,2,68,69,,,,,,,,,,,1.4,1.1,0.9,2*3E,1594023987207
NMEA,$GNVTG,,T,,M,0.0,N,0.0,K,A*3D,1594023987207
NMEA,$GNRMC,082628.00,A,2255.518353,N,12017.681789,E,0.0,,060720,2.8,W,A*1D,1594023987208
NMEA,$GNGGA,082628.00,2255.518353,N,12017.681789,E,1,09,1.1,32.4,M,17.5,M,,*4E,1594023987210
Raw,3116399,3120693000000,,,-1278056086172150272,0.0,4311.827942728996,3.5235700984618297,7.819590495818277,953,5,0.0,207,41188796970024,9,35.1,-397.5262451171875,0.25850000977516174,0,0.0,0.0,,,,,0,,3,,
Raw,3116400,3120693000000,,,-1278056086172150272,0.0,4311.827942728996,3.5235700984618297,7.819590495818277,953,4,0.0,207,41188800104501,35,22.8,305.1846618652344,0.9414999485015869,0,0.0,0.0,,,,,0,,3,,
Raw,3116400,3120693000000,,,-1278056086172150272,0.0,4311.827942728996,3.5235700984618297,7.819590495818277,953,5,0.0,15,116806795530020,10,34.8,-1.726202368736267,0.06109999865293503,0,0.0,0.0,,,,,0,,1,,
Raw,3116401,3120693000000,,,-1278056086172150272,0.0,4311.827942728996,3.5235700984618297,7.819590495818277,953,12,0.0,15,116806786521873,9,35.5,301.2589111328125,0.04349999874830246,0,0.0,0.0,,,,,0,,1,,
Raw,3116401,3120693000000,,,-1278056086172150272,0.0,4311.827942728996,3.5235700984618297,7.819590495818277,953,13,0.0,15,116806790855534,16,29.8,-618.19482421875,0.08940000087022781,0,0.0,0.0,,,,,0,,1,,
Raw,3116401,3120693000000,,,-1278056086172150272,0.0,4311.827942728996,3.5235700984618297,7.819590495818277,953,15,0.0,15,116806783363108,13,31.6,-722.6087036132812,0.08959999680519104,0,0.0,0.0,,,,,0,,1,,
Raw,3116401,3120693000000,,,-1278056086172150272,0.0,4311.827942728996,3.5235700984618297,7.819590495818277,953,19,0.0,15,116806790794141,27,24.7,597.760009765625,0.6165000200271606,0,0.0,0.0,,,,,0,,1,,
Raw,3116402,3120693000000,,,-1278056086172150272,0.0,4311.827942728996,3.5235700984618297,7.819590495818277,953,25,0.0,15,116806782888139,9,35.0,102.43016815185547,0.06750000268220901,0,0.0,0.0,,,,,0,,1,,
Raw,3116402,3120693000000,,,-1278056086172150272,0.0,4311.827942728996,3.5235700984618297,7.819590495818277,953,29,0.0,15,116806782336844,16,29.7,-665.3280639648438,0.10740000009536743,0,0.0,0.0,,,,,0,,1,,
Fix,gps,22.925306,120.294697,49.891846,0.000000,7.504000,1594023989000
NMEA,$GPGSV,4,1,13,05,55,305,35,12,21,255,36,13,34,182,30,15,11,208,32*7E,1594023988186
NMEA,$GPGSV,4,2,13,19,37,149,25,25,10,285,35,29,07,323,30,02,54,007,*7C,1594023988187
NMEA,$GPGSV,4,3,13,06,41,068,,07,05,085,,09,14,040,,17,18,149,*75,1594023988187
NMEA,$GPGSV,4,4,13,30,09,115,*44,1594023988188
NMEA,$GLGSV,2,1,07,69,46,229,35,68,67,352,23,82,49,106,,84,08,329,*65,1594023988195
NMEA,$GLGSV,2,2,07,83,56,011,,81,05,133,,67,18,025,*58,1594023988196
NMEA,$GAGSV,1,1,0,*74,1594023988196
NMEA,$PQGSV,1,1,03,193,69,053,,194,11,160,,195,69,144,,0,5*63,1594023988197
NMEA,$PQGSV,1,1,0,*73,1594023988197
NMEA,$GNGSA,A,3,05,12,13,15,19,25,29,,,,,,1.4,1.1,0.9,1*39,1594023988204
NMEA,$GNGSA,A,2,68,69,,,,,,,,,,,1.4,1.1,0.9,2*3E,1594023988222
NMEA,$GNVTG,,T,,M,0.0,N,0.0,K,A*3D,1594023988222
NMEA,$GNRMC,082629.00,A,2255.518353,N,12017.681791,E,0.0,,060720,2.8,W,A*15,1594023988223
NMEA,$GNGGA,082629.00,2255.518353,N,12017.681791,E,1,09,1.1,32.4,M,17.5,M,,*46,1594023988223
Raw,3117387,3121704000000,,,-1278056086171908096,0.0,4306.834191083908,5.2340242767246,10.944035625444023,954,5,0.0,207,41189807729070,10,34.5,-397.27606201171875,0.249099999666214,0,0.0,0.0,,,,,0,,3,,
Raw,3117387,3121704000000,,,-1278056086171908096,0.0,4306.834191083908,5.2340242767246,10.944035625444023,954,4,0.0,207,41189810861576,27,24.2,306.314453125,0.8165000081062317,0,0.0,0.0,,,,,0,,3,,
Raw,3117387,3121704000000,,,-1278056086171908096,0.0,4306.834191083908,5.2340242767246,10.944035625444023,954,5,0.0,15,116807806287726,10,34.4,-1.5856657028198242,0.047599997371435165,0,0.0,0.0,,,,,0,,1,,
Raw,3117388,3121704000000,,,-1278056086171908096,0.0,4306.834191083908,5.2340242767246,10.944035625444023,954,12,0.0,15,116807797278559,9,35.2,301.5950012207031,0.06000000238418579,0,0.0,0.0,,,,,0,,1,,
Raw,3117388,3121704000000,,,-1278056086171908096,0.0,4306.834191083908,5.2340242767246,10.944035625444023,954,13,0.0,15,116807801615391,14,30.4,-617.9845581054688,0.0949999988079071,0,0.0,0.0,,,,,0,,1,,
Raw,3117388,3121704000000,,,-1278056086171908096,0.0,4306.834191083908,5.2340242767246,10.944035625444023,954,15,0.0,15,116807794123266,12,32.0,-722.4600219726562,0.06949999928474426,0,0.0,0.0,,,,,0,,1,,
Raw,3117389,3121704000000,,,-1278056086171908096,0.0,4306.834191083908,5.2340242767246,10.944035625444023,954,19,0.0,15,116807801549824,21,26.0,598.5332641601562,0.28220000863075256,0,0.0,0.0,,,,,0,,1,,
Raw,3117389,3121704000000,,,-1278056086171908096,0.0,4306.834191083908,5.2340242767246,10.944035625444023,954,25,0.0,15,116807793645483,9,35.9,102.60459899902344,0.05400000140070915,0,0.0,0.0,,,,,0,,1,,
Raw,3117389,3121704000000,,,-1278056086171908096,0.0,4306.834191083908,5.2340242767246,10.944035625444023,954,29,0.0,15,116807793096801,16,29.2,-665.087646484375,0.09389999508857727,0,0.0,0.0,,,,,0,,1,,
Fix,gps,22.925306,120.294697,49.892334,0.000000,6.432000,1594023990000
NMEA,$GPGSV,4,1,13,05,55,305,34,12,21,255,35,13,34,182,30,15,11,208,32*7C,1594023989187
NMEA,$GPGSV,4,2,13,19,37,149,26,25,10,285,36,29,07,323,29,02,54,007,*74,1594023989192
NMEA,$GPGSV,4,3,13,06,41,068,,07,05,085,,09,14,040,,17,18,149,*75,1594023989192
NMEA,$GPGSV,4,4,13,30,09,115,*44,1594023989194
NMEA,$GLGSV,2,1,07,69,46,229,35,68,67,352,24,82,49,106,,84,08,329,*62,1594023989194
NMEA,$GLGSV,2,2,07,83,56,011,,81,05,133,,67,18,025,*58,1594023989195
NMEA,$GAGSV,1,1,0,*74,1594023989195
NMEA,$PQGSV,1,1,03,193,69,053,,194,11,160,,195,69,144,,0,5*63,1594023989196
NMEA,$PQGSV,1,1,0,*73,1594023989205
NMEA,$GNGSA,A,3,05,12,13,15,19,25,29,,,,,,1.4,1.1,0.9,1*39,1594023989206
NMEA,$GNGSA,A,2,68,69,,,,,,,,,,,1.4,1.1,0.9,2*3E,1594023989207
NMEA,$GNVTG,,T,,M,0.0,N,0.0,K,A*3D,1594023989208
NMEA,$GNRMC,082630.00,A,2255.518351,N,12017.681794,E,0.0,,060720,2.8,W,A*1A,1594023989208
NMEA,$GNGGA,082630.00,2255.518351,N,12017.681794,E,1,09,1.1,32.4,M,17.5,M,,*49,1594023989208
Raw,3118383,3122699000000,,,-1278056086171907840,0.0,4290.862940251827,5.271625454901042,8.977869497690286,955,5,0.0,207,41190802730076,10,34.6,-398.27032470703125,0.27160000801086426,0,0.0,0.0,,,,,0,,3,,
Raw,3118383,3122699000000,,,-1278056086171907840,0.0,4290.862940251827,5.271625454901042,8.977869497690286,955,5,0.0,15,116808801287401,11,33.2,-2.586263656616211,0.0747000053524971,0,0.0,0.0,,,,,0,,1,,
Raw,3118383,3122699000000,,,-1278056086171907840,0.0,4290.862940251827,5.271625454901042,8.977869497690286,955,12,0.0,15,116808792277247,10,34.6,300.4778137207031,0.05660000070929527,0,0.0,0.0,,,,,0,,1,,
Raw,3118384,3122699000000,,,-1278056086171907840,0.0,4290.862940251827,5.271625454901042,8.977869497690286,955,13,0.0,15,116808796617092,14,30.0,-619.2357788085938,0.08749999850988388,0,0.0,0.0,,,,,0,,1,,
