# 
# Header Description:
# 
# Version: v2.0.0.1 Platform: 8.0.0 Manufacturer: Sony Model: G8142
# 
# Raw,ElapsedRealtimeMillis,TimeNanos,LeapSecond,TimeUncertaintyNanos,FullBiasNanos,BiasNanos,BiasUncertaintyNanos,DriftNanosPerSecond,DriftUncertaintyNanosPerSecond,HardwareClockDiscontinuityCount,Svid,TimeOffsetNanos,State,ReceivedSvTimeNanos,ReceivedSvTimeUncertaintyNanos,Cn0DbHz,PseudorangeRateMetersPerSecond,PseudorangeRateUncertaintyMetersPerSecond,AccumulatedDeltaRangeState,AccumulatedDeltaRangeMeters,AccumulatedDeltaRangeUncertaintyMeters,CarrierFrequencyHz,CarrierCycles,CarrierPhase,CarrierPhaseUncertainty,MultipathIndicator,SnrInDb,ConstellationType,AgcDb,CarrierFrequencyHz
# 
# Fix,Provider,Latitude,Longitude,Altitude,Speed,Accuracy,(UTC)TimeInMs
# 
# Nav,Svid,Type,Status,MessageId,Sub-messageId,Data(Bytes)
# 
Fix,gps,22.925438,120.294626,51.154480,0.000000,6.432000,1606982564000
Raw,12067606,12071497000000,,,-1291005709936242176,0.0,95.52056872053072,-21.962800416369113,19.342449101245393,162,10,0.0,207,39763361321761,19,27.2,-252.76429748535156,0.2428000122308731,0,0.0,0.0,,,,,0,,3,,
Raw,12067606,12071497000000,,,-1291005709936242176,0.0,95.52056872053072,-21.962800416369113,19.342449101245393,162,11,0.0,207,39763354689045,8,36.2,-429.5207824707031,0.24220001697540283,0,0.0,0.0,,,,,0,,3,,
Raw,12067607,12071497000000,,,-1291005709936242176,0.0,95.52056872053072,-21.962800416369113,19.342449101245393,162,9,0.0,207,39763365689683,73,17.1,220.4423828125,2.0339999198913574,0,0.0,0.0,,,,,0,,3,,
Raw,12067607,12071497000000,,,-1291005709936242176,0.0,95.52056872053072,-21.962800416369113,19.342449101245393,162,7,0.0,207,39763366322158,649,12.6,-451.9082336425781,16.055500030517578,0,0.0,0.0,,,,,0,,3,,
Raw,12067608,12071497000000,,,-1291005709936242176,0.0,95.52056872053072,-21.962800416369113,19.342449101245393,162,3,0.0,15,374581350129139,88,18.4,-482.8226013183594,4.091500282287598,0,0.0,0.0,,,,,0,,1,,
Raw,12067608,12071497000000,,,-1291005709936242176,0.0,95.52056872053072,-21.962800416369113,19.342449101245393,162,10,0.0,15,374581355886977,61,18.5,647.7216186523438,1.0190000534057617,0,0.0,0.0,,,,,0,,1,,
Raw,12067609,12071497000000,,,-1291005709936242176,0.0,95.52056872053072,-21.962800416369113,19.342449101245393,162,16,0.0,15,374581356096645,14,30.0,-652.3323974609375,0.049800001084804535,0,0.0,0.0,,,,,0,,1,,
Raw,12067609,12071497000000,,,-1291005709936242176,0.0,95.52056872053072,-21.962800416369113,19.342449101245393,162,22,0.0,15,374581353239395,27,24.9,-274.4605712890625,0.6360000371932983,0,0.0,0.0,,,,,0,,1,,
Raw,12067610,12071497000000,,,-1291005709936242176,0.0,95.52056872053072,-21.962800416369113,19.342449101245393,162,25,0.0,15,374581356510801,567,11.2,625.6475219726562,14.505500793457031,0,0.0,0.0,,,,,0,,1,,
Raw,12067610,12071497000000,,,-1291005709936242176,0.0,95.52056872053072,-21.962800416369113,19.342449101245393,162,26,0.0,15,374581364127683,31,23.6,-289.6745300292969,0.67249995470047,0,0.0,0.0,,,,,0,,1,,
Raw,12067611,12071497000000,,,-1291005709936242176,0.0,95.52056872053072,-21.962800416369113,19.342449101245393,162,31,0.0,15,374581362115336,205,14.8,24.48128318786621,7.359500408172607,0,0.0,0.0,,,,,0,,1,,
Raw,12067611,12071497000000,,,-1291005709936242176,0.0,95.52056872053072,-21.962800416369113,19.342449101245393,162,32,0.0,15,374581364933192,70,17.2,33.49168395996094,1.1725000143051147,0,0.0,0.0,,,,,0,,1,,
Raw,12067612,12071497000000,,,-1291005709936242176,0.0,95.52056872053072,-21.962800416369113,19.342449101245393,162,2,0.0,783,374567308281745,596,25.7,-4.253674507141113,16.30350112915039,0,0.0,0.0,,,,,0,,5,,
Raw,12067612,12071497000000,,,-1291005709936242176,0.0,95.52056872053072,-21.962800416369113,19.342449101245393,162,5,0.0,783,374567300107365,16,29.6,-4.791385650634766,0.41350001096725464,0,0.0,0.0,,,,,0,,5,,
Raw,12067612,12071497000000,,,-1291005709936242176,0.0,95.52056872053072,-21.962800416369113,19.342449101245393,162,6,0.0,15,374567312212654,180,13.9,-130.98052978515625,5.774500370025635,0,0.0,0.0,,,,,0,,5,,
Raw,12067613,12071497000000,,,-1291005709936242176,0.0,95.52056872053072,-21.962800416369113,19.342449101245393,162,10,0.0,15,374567308134784,285,10.3,-116.64479064941406,7.738500118255615,0,0.0,0.0,,,,,0,,5,,
Raw,12067613,12071497000000,,,-1291005709936242176,0.0,95.52056872053072,-21.962800416369113,19.342449101245393,162,13,0.0,15,374567297460088,750,17.6,267.827880859375,7.322000503540039,0,0.0,0.0,,,,,0,,5,,
Raw,12067614,12071497000000,,,-1291005709936242176,0.0,95.52056872053072,-21.962800416369113,19.342449101245393,162,16,0.0,15,374567311827920,760,14.4,-123.96148681640625,17.773000717163086,0,0.0,0.0,,,,,0,,5,,
Raw,12067614,12071497000000,,,-1291005709936242176,0.0,95.52056872053072,-21.962800416369113,19.342449101245393,162,21,0.0,15,374567359402266,53,19.9,-5.578747272491455,0.8149999976158142,0,0.0,0.0,,,,,0,,5,,
Raw,12067614,12071497000000,,,-1291005709936242176,0.0,95.52056872053072,-21.962800416369113,19.342449101245393,162,22,0.0,15,374567354758496,108,16.0,512.0828857421875,4.097500324249268,0,0.0,0.0,,,,,0,,5,,
Raw,12067615,12071497000000,,,-1291005709936242176,0.0,95.52056872053072,-21.962800416369113,19.342449101245393,162,24,0.0,15,374567343250530,107,16.9,-364.75982666015625,4.000999927520752,0,0.0,0.0,,,,,0,,5,,
Raw,12067615,12071497000000,,,-1291005709936242176,0.0,95.52056872053072,-21.962800416369113,19.342449101245393,162,26,0.0,15,374567356432135,61,18.0,-152.7482147216797,0.9404999613761902,0,0.0,0.0,,,,,0,,5,,
Raw,12067615,12071497000000,,,-1291005709936242176,0.0,95.52056872053072,-21.962800416369113,19.342449101245393,162,25,0.0,7183,374581345049206,21,26.0,-362.2239990234375,0.4819999933242798,0,0.0,0.0,,,,,0,,6,,
NMEA,$GPGSV,3,1,10,03,07,317,18,10,23,178,19,16,24,217,30,22,20,300,25*74,1606982563507
NMEA,$GPGSV,3,2,10,25,25,036,11,26,59,234,24,31,48,341,15,32,68,080,17*7A,1606982563511
NMEA,$GPGSV,3,3,10,23,00,000,,29,28,087,*77,1606982563512
NMEA,$GLGSV,3,1,10,74,30,262,27,75,00,000,36,73,51,331,17,71,54,327,13*66,1606982563512
NMEA,$GLGSV,3,2,10,70,67,167,,82,02,066,,80,21,028,,69,08,154,*6D,1606982563513
NMEA,$GLGSV,3,3,10,83,03,109,,72,05,331,*65,1606982563513
NMEA,$GAGSV,1,1,01,25,24,236,26*5B,1606982563515
NMEA,$PQGSV,1,1,02,193,56,154,15,194,66,037,13,0,5*6E,1606982563515
NMEA,$PQGSV,4,1,16,02,40,240,26,05,00,000,30,06,67,030,14,10,46,219,10,0,4*62,1606982563516
NMEA,$PQGSV,4,2,16,13,07,212,18,16,66,022,14,21,67,268,20,22,41,167,16,0,4*6B,1606982563516
NMEA,$PQGSV,4,3,16,24,02,253,17,26,40,282,18,01,51,129,,03,59,202,,0,4*6C,1606982563516
NMEA,$PQGSV,4,4,16,04,37,115,,07,73,213,,08,02,189,,09,51,338,,0,4*65,1606982563516
NMEA,$GNGSA,A,3,10,16,22,25,26,31,32,,,,,,1.2,0.9,0.8,1*35,1606982563518
NMEA,$GNGSA,A,2,74,,,,,,,,,,,,1.2,0.9,0.8,2*32,1606982563518
NMEA,$GNGSA,A,2,25,,,,,,,,,,,,1.2,0.9,0.8,3*37,1606982563518
NMEA,$PQGSA,A,2,13,26,,,,,,,,,,,1.2,0.9,0.8,4*39,1606982563518
NMEA,$GNVTG,,T,,M,0.0,N,0.0,K,A*3D,1606982563519
NMEA,$GNRMC,080244.00,A,2255.526253,N,12017.677576,E,0.0,,031220,2.8,W,A*17,1606982563519
NMEA,$GNGGA,080244.00,2255.526253,N,12017.677576,E,1,11,0.9,33.7,M,17.5,M,,*47,1606982563519
Fix,gps,22.925433,120.294624,51.155762,0.000000,6.432000,1606982565000
NMEA,$GPGSV,3,1,10,03,07,317,16,10,23,178,19,16,24,217,29,22,20,300,24*73,1606982564509
NMEA,$GPGSV,3,2,10,25,25,036,11,26,59,234,23,31,48,341,14,32,68,080,16*7D,1606982564509
NMEA,$GPGSV,3,3,10,23,00,000,,29,28,087,*77,1606982564509
NMEA,$GLGSV,3,1,10,74,30,262,27,75,00,000,37,73,51,331,20,71,54,327,13*63,1606982564510
NMEA,$GLGSV,3,2,10,70,67,167,,82,02,066,,80,21,028,,69,08,154,*6D,1606982564511
NMEA,$GLGSV,3,3,10,83,03,109,,72,05,331,*65,1606982564511
NMEA,$GAGSV,1,1,01,25,24,236,27*5A,1606982564511
NMEA,$PQGSV,1,1,02,193,56,154,15,194,66,037,13,0,5*6E,1606982564511
NMEA,$PQGSV,4,1,16,02,40,240,26,05,00,000,30,06,67,030,14,08,02,189,16,0,4*67,1606982564511
NMEA,$PQGSV,4,2,16,10,46,219,10,13,07,212,18,16,66,022,14,21,67,268,23,0,4*62,1606982564511
NMEA,$PQGSV,4,3,16,22,41,167,16,24,02,253,16,26,40,282,17,01,51,129,,0,4*6F,1606982564512
NMEA,$PQGSV,4,4,16,03,59,202,,04,37,115,,07,73,213,,09,51,338,,0,4*60,1606982564512
NMEA,$GNGSA,A,3,10,16,22,25,26,31,32,,,,,,1.2,0.9,0.8,1*35,1606982564513
NMEA,$GNGSA,A,2,74,,,,,,,,,,,,1.2,0.9,0.8,2*32,1606982564513
NMEA,$GNGSA,A,2,25,,,,,,,,,,,,1.2,0.9,0.8,3*37,1606982564513
NMEA,$PQGSA,A,2,13,26,,,,,,,,,,,1.2,0.9,0.8,4*39,1606982564514
NMEA,$GNVTG,,T,,M,0.0,N,0.0,K,A*3D,1606982564514
NMEA,$GNRMC,080245.00,A,2255.525986,N,12017.677418,E,0.0,,031220,2.8,W,A*1F,1606982564514
NMEA,$GNGGA,080245.00,2255.525986,N,12017.677418,E,1,11,0.9,33.7,M,17.5,M,,*4F,1606982564514
Raw,12068612,12072497000000,,,-1291005709936242176,0.0,93.42205885332078,-22.87586634151369,18.063379977734428,162,10,0.0,207,39764361322703,19,27.1,-254.13645935058594,0.2428000122308731,0,0.0,0.0,,,,,0,,3,,
Raw,12068612,12072497000000,,,-1291005709936242176,0.0,93.42205885332078,-22.87586634151369,18.063379977734428,162,11,0.0,207,39764354690480,8,36.6,-430.87774658203125,0.24220001697540283,0,0.0,0.0,,,,,0,,3,,
Raw,12068612,12072497000000,,,-1291005709936242176,0.0,93.42205885332078,-22.87586634151369,18.063379977734428,162,9,0.0,207,39764365688849,53,19.9,219.43112182617188,1.124000072479248,0,0.0,0.0,,,,,0,,3,,
Raw,12068613,12072497000000,,,-1291005709936242176,0.0,93.42205885332078,-22.87586634151369,18.063379977734428,162,7,0.0,207,39764366323665,755,12.6,-451.9082336425781,17.555500030517578,0,0.0,0.0,,,,,0,,3,,
Raw,12068613,12072497000000,,,-1291005709936242176,0.0,93.42205885332078,-22.87586634151369,18.063379977734428,162,3,0.0,15,374582350130750,90,16.3,-482.02337646484375,2.7715001106262207,0,0.0,0.0,,,,,0,,1,,
Raw,12068613,12072497000000,,,-1291005709936242176,0.0,93.42205885332078,-22.87586634151369,18.063379977734428,162,10,0.0,15,374582355884817,69,18.5,647.7216186523438,2.5190000534057617,0,0.0,0.0,,,,,0,,1,,
Raw,12068613,12072497000000,,,-1291005709936242176,0.0,93.42205885332078,-22.87586634151369,18.063379977734428,162,16,0.0,15,374582356098839,16,29.2,-653.7120361328125,0.050700001418590546,0,0.0,0.0,,,,,0,,1,,
Raw,12068614,12072497000000,,,-1291005709936242176,0.0,93.42205885332078,-22.87586634151369,18.063379977734428,162,22,0.0,15,374582353240349,27,24.4,-275.7831115722656,0.6859999895095825,0,0.0,0.0,,,,,0,,1,,
Raw,12068614,12072497000000,,,-1291005709936242176,0.0,93.42205885332078,-22.87586634151369,18.063379977734428,162,25,0.0,15,374582356508714,663,11.2,625.6475219726562,16.00550079345703,0,0.0,0.0,,,,,0,,1,,
Raw,12068614,12072497000000,,,-1291005709936242176,0.0,93.42205885332078,-22.87586634151369,18.063379977734428,162,26,0.0,15,374582364128568,35,22.8,-290.1502685546875,0.7324999570846558,0,0.0,0.0,,,,,0,,1,,
Raw,12068614,12072497000000,,,-1291005709936242176,0.0,93.42205885332078,-22.87586634151369,18.063379977734428,162,31,0.0,15,374582362115332,125,14.1,25.670618057250977,3.7295000553131104,0,0.0,0.0,,,,,0,,1,,
Raw,12068614,12072497000000,,,-1291005709936242176,0.0,93.42205885332078,-22.87586634151369,18.063379977734428,162,32,0.0,15,374582364933155,80,16.1,32.6068229675293,1.2625000476837158,0,0.0,0.0,,,,,0,,1,,
Raw,12068615,12072497000000,,,-1291005709936242176,0.0,93.42205885332078,-22.87586634151369,18.063379977734428,162,2,0.0,783,374568308281759,709,25.7,-4.253674507141113,17.80350112915039,0,0.0,0.0,,,,,0,,5,,
Raw,12068615,12072497000000,,,-1291005709936242176,0.0,93.42205885332078,-22.87586634151369,18.063379977734428,162,5,0.0,783,374568300107367,14,30.4,-0.9313914775848389,0.40849998593330383,0,0.0,0.0,,,,,0,,5,,
Raw,12068615,12072497000000,,,-1291005709936242176,0.0,93.42205885332078,-22.87586634151369,18.063379977734428,162,6,0.0,15,374568312213091,219,13.9,-130.98052978515625,7.274500370025635,0,0.0,0.0,,,,,0,,5,,
Raw,12068615,12072497000000,,,-1291005709936242176,0.0,93.42205885332078,-22.87586634151369,18.063379977734428,162,8,0.0,15,374568294859589,772,16.3,182.38951110839844,4.022500038146973,0,0.0,0.0,,,,,0,,5,,
Raw,12068616,12072497000000,,,-1291005709936242176,0.0,93.42205885332078,-22.87586634151369,18.063379977734428,162,10,0.0,15,374568308135173,336,10.3,-116.64479064941406,9.238500595092773,0,0.0,0.0,,,,,0,,5,,
Raw,12068616,12072497000000,,,-1291005709936242176,0.0,93.42205885332078,-22.87586634151369,18.063379977734428,162,13,0.0,15,374568297459185,774,17.7,267.626220703125,8.072000503540039,0,0.0,0.0,,,,,0,,5,,
Raw,12068616,12072497000000,,,-1291005709936242176,0.0,93.42205885332078,-22.87586634151369,18.063379977734428,162,16,0.0,15,374568311828333,879,14.4,-123.96148681640625,19.273000717163086,0,0.0,0.0,,,,,0,,5,,
Raw,12068616,12072497000000,,,-1291005709936242176,0.0,93.42205885332078,-22.87586634151369,18.063379977734428,162,21,0.0,15,374568359402210,35,22.7,-6.8942179679870605,0.7099999785423279,0,0.0,0.0,,,,,0,,5,,
Raw,12068616,12072497000000,,,-1291005709936242176,0.0,93.42205885332078,-22.87586634151369,18.063379977734428,162,22,0.0,15,374568354756788,137,16.0,512.0828857421875,5.597500324249268,0,0.0,0.0,,,,,0,,5,,
Raw,12068617,12072497000000,,,-1291005709936242176,0.0,93.42205885332078,-22.87586634151369,18.063379977734428,162,24,0.0,15,374568343251627,101,15.7,-364.9998474121094,2.6710000038146973,0,0.0,0.0,,,,,0,,5,,
Raw,12068617,12072497000000,,,-1291005709936242176,0.0,93.42205885332078,-22.87586634151369,18.063379977734428,162,26,0.0,15,374568356432586,80,16.7,-153.6411895751953,1.1004999876022339,0,0.0,0.0,,,,,0,,5,,
Raw,12068617,12072497000000,,,-1291005709936242176,0.0,93.42205885332078,-22.87586634151369,18.063379977734428,162,25,0.0,7183,374582345050415,19,27.0,-363.5274963378906,0.4570000171661377,0,0.0,0.0,,,,,0,,6,,
Raw,12069587,12073497000000,,,-1291005709936242432,0.0,92.18936611432582,-26.69261596080853,19.615694164275066,163,10,0.0,207,39765361323548,24,25.8,-256.6802062988281,0.777999997138977,0,0.0,0.0,,,,,0,,3,,
Raw,12069588,12073497000000,,,-1291005709936242432,0.0,92.18936611432582,-26.69261596080853,19.615694164275066,163,11,0.0,207,39765354691922,9,35.6,-433.3791198730469,0.24260000884532928,0,0.0,0.0,,,,,0,,3,,
Raw,12069588,12073497000000,,,-1291005709936242432,0.0,92.18936611432582,-26.69261596080853,19.615694164275066,163,9,0.0,207,39765365688117,62,19.9,219.43112182617188,2.624000072479248,0,0.0,0.0,,,,,0,,3,,
Raw,12069588,12073497000000,,,-1291005709936242432,0.0,92.18936611432582,-26.69261596080853,19.615694164275066,163,7,0.0,207,39765366325172,871,12.6,-451.9082336425781,19.055500030517578,0,0.0,0.0,,,,,0,,3,,
Raw,12069588,12073497000000,,,-1291005709936242432,0.0,92.18936611432582,-26.69261596080853,19.615694164275066,163,3,0.0,15,374583350132358,109,16.3,-482.02337646484375,4.271500110626221,0,0.0,0.0,,,,,0,,1,,
Raw,12069588,12073497000000,,,-1291005709936242432,0.0,92.18936611432582,-26.69261596080853,19.615694164275066,163,10,0.0,15,374583355882656,88,18.5,647.7216186523438,4.019000053405762,0,0.0,0.0,,,,,0,,1,,
Raw,12069589,12073497000000,,,-1291005709936242432,0.0,92.18936611432582,-26.69261596080853,19.615694164275066,163,16,0.0,15,374583356101023,16,29.4,-656.2020263671875,0.050700001418590546,0,0.0,0.0,,,,,0,,1,,
Raw,12069589,12073497000000,,,-1291005709936242432,0.0,92.18936611432582,-26.69261596080853,19.615694164275066,163,22,0.0,15,374583353241287,27,24.4,-278.2664489746094,0.6859999895095825,0,0.0,0.0,,,,,0,,1,,
Raw,12069589,12073497000000,,,-1291005709936242432,0.0,92.18936611432582,-26.69261596080853,19.615694164275066,163,25,0.0,15,374583356506627,768,11.2,625.6475219726562,17.50550079345703,0,0.0,0.0,,,,,0,,1,,
Raw,12069589,12073497000000,,,-1291005709936242432,0.0,92.18936611432582,-26.69261596080853,19.615694164275066,163,26,0.0,15,374583364129584,40,21.3,-293.68023681640625,0.8524999618530273,0,0.0,0.0,,,,,0,,1,,
Raw,12069589,12073497000000,,,-1291005709936242432,0.0,92.18936611432582,-26.69261596080853,19.615694164275066,163,31,0.0,15,374583362115246,150,14.1,25.670618057250977,5.2295002937316895,0,0.0,0.0,,,,,0,,1,,
Raw,12069589,12073497000000,,,-1291005709936242432,0.0,92.18936611432582,-26.69261596080853,19.615694164275066,163,32,0.0,15,374583364933047,90,16.1,32.6068229675293,2.762500047683716,0,0.0,0.0,,,,,0,,1,,
Raw,12069590,12073497000000,,,-1291005709936242432,0.0,92.18936611432582,-26.69261596080853,19.615694164275066,163,2,0.0,783,374569308281773,831,25.7,-4.253674507141113,19.30350112915039,0,0.0,0.0,,,,,0,,5,,
Raw,12069590,12073497000000,,,-1291005709936242432,0.0,92.18936611432582,-26.69261596080853,19.615694164275066,163,5,0.0,783,374569300107377,16,29.9,-7.604764461517334,0.3935000002384186,0,0.0,0.0,,,,,0,,5,,
Raw,12069590,12073497000000,,,-1291005709936242432,0.0,92.18936611432582,-26.69261596080853,19.615694164275066,163,6,0.0,15,374569312213528,269,13.9,-130.98052978515625,8.774499893188477,0,0.0,0.0,,,,,0,,5,,
Raw,12069590,12073497000000,,,-1291005709936242432,0.0,92.18936611432582,-26.69261596080853,19.615694164275066,163,8,0.0,15,374569294858944,785,16.6,181.97662353515625,4.772500038146973,0,0.0,0.0,,,,,0,,5,,
Raw,12069591,12073497000000,,,-1291005709936242432,0.0,92.18936611432582,-26.69261596080853,19.615694164275066,163,10,0.0,15,374569308135562,396,10.3,-116.64479064941406,10.738500595092773,0,0.0,0.0,,,,,0,,5,,
Raw,12069591,12073497000000,,,-1291005709936242432,0.0,92.18936611432582,-26.69261596080853,19.615694164275066,163,13,0.0,15,374569297458299,222,17.9,267.5206298828125,8.742000579833984,0,0.0,0.0,,,,,0,,5,,
Raw,12069591,12073497000000,,,-1291005709936242432,0.0,92.18936611432582,-26.69261596080853,19.615694164275066,163,16,0.0,15,374569311828747,1008,14.4,-123.96148681640625,20.773000717163086,0,0.0,0.0,,,,,0,,5,,
Raw,12069591,12073497000000,,,-1291005709936242432,0.0,92.18936611432582,-26.69261596080853,19.615694164275066,163,21,0.0,15,374569359402328,61,18.1,-10.629385948181152,0.9449999928474426,0,0.0,0.0,,,,,0,,5,,
Raw,12069591,12073497000000,,,-1291005709936242432,0.0,92.18936611432582,-26.69261596080853,19.615694164275066,163,22,0.0,15,374569354755080,176,16.0,512.0828857421875,7.097500324249268,0,0.0,0.0,,,,,0,,5,,
Raw,12069591,12073497000000,,,-1291005709936242432,0.0,92.18936611432582,-26.69261596080853,19.615694164275066,163,24,0.0,15,374569343252860,93,15.5,-364.9998474121094,1.1710000038146973,0,0.0,0.0,,,,,0,,5,,
Raw,12069592,12073497000000,,,-1291005709936242432,0.0,92.18936611432582,-26.69261596080853,19.615694164275066,163,26,0.0,15,374569356433163,70,17.0,-155.4175567626953,1.0205000638961792,0,0.0,0.0,,,,,0,,5,,
Raw,12069592,12073497000000,,,-1291005709936242432,0.0,92.18936611432582,-26.69261596080853,19.615694164275066,163,25,0.0,7183,374583345051635,21,26.3,-365.88714599609375,0.4819999933242798,0,0.0,0.0,,,,,0,,6,,
Fix,gps,22.925431,120.294622,51.171509,0.000000,6.432000,1606982566000
NMEA,$GPGSV,3,1,10,03,07,317,16,10,23,178,19,16,24,217,29,22,20,300,24*73,1606982565512
NMEA,$GPGSV,3,2,10,25,25,036,11,26,59,234,21,31,48,341,14,32,68,080,16*7F,1606982565513
NMEA,$GPGSV,3,3,10,23,00,000,,29,28,087,*77,1606982565513
NMEA,$GLGSV,3,1,10,74,30,262,26,75,00,000,36,73,51,331,20,71,54,327,13*63,1606982565513
NMEA,$GLGSV,3,2,10,70,67,167,,82,02,066,,80,21,028,,69,08,154,*6D,1606982565513
NMEA,$GLGSV,3,3,10,83,03,109,,72,05,331,*65,1606982565514
NMEA,$GAGSV,1,1,01,25,24,236,26*5B,1606982565514
NMEA,$PQGSV,1,1,03,193,56,154,15,194,66,037,13,195,29,142,11,0,5*6E,1606982565514
NMEA,$PQGSV,4,1,16,02,40,240,26,05,00,000,30,06,67,030,14,08,02,189,17,0,4*66,1606982565514
NMEA,$PQGSV,4,2,16,10,46,219,10,13,07,212,18,16,66,022,14,21,67,268,18,0,4*6A,1606982565514
NMEA,$PQGSV,4,3,16,22,41,167,16,24,02,253,16,26,40,282,17,01,51,129,,0,4*6F,1606982565515
NMEA,$PQGSV,4,4,16,03,59,202,,04,37,115,,07,73,213,,09,51,338,,0,4*60,1606982565517
NMEA,$GNGSA,A,3,10,16,22,25,26,31,32,,,,,,1.2,0.9,0.8,1*35,1606982565536
NMEA,$GNGSA,A,2,74,,,,,,,,,,,,1.2,0.9,0.8,2*32,1606982565536
NMEA,$GNGSA,A,2,25,,,,,,,,,,,,1.2,0.9,0.8,3*37,1606982565536
NMEA,$PQGSA,A,2,13,26,,,,,,,,,,,1.2,0.9,0.8,4*39,1606982565536
NMEA,$GNVTG,,T,,M,0.0,N,0.0,K,A*3D,1606982565536
NMEA,$GNRMC,080246.00,A,2255.525850,N,12017.677330,E,0.0,,031220,2.8,W,A*1B,1606982565536
NMEA,$GNGGA,080246.00,2255.525850,N,12017.677330,E,1,11,0.9,33.7,M,17.5,M,,*4B,1606982565537
Fix,gps,22.925429,120.294621,51.636780,0.000000,6.432000,1606982567000
NMEA,$GPGSV,3,1,10,03,07,317,18,10,23,178,19,16,24,217,29,22,20,300,23*7A,1606982566508
NMEA,$GPGSV,3,2,10,25,25,036,11,26,59,234,24,31,48,341,14,32,68,080,15*79,1606982566508
NMEA,$GPGSV,3,3,10,23,00,000,,29,28,087,*77,1606982566508
NMEA,$GLGSV,3,1,10,74,30,262,27,75,00,000,37,73,51,331,17,71,54,327,13*67,1606982566508
NMEA,$GLGSV,3,2,10,70,67,167,,82,02,066,,80,21,028,,69,08,154,*6D,1606982566508
NMEA,$GLGSV,3,3,10,83,03,109,,72,05,331,*65,1606982566508
NMEA,$GAGSV,1,1,01,25,24,236,27*5A,1606982566508
Raw,12070584,12074497000000,,,-1291005709936242432,0.0,98.48627087194473,-31.94582355453238,29.29757385994081,163,10,0.0,207,39766361324318,19,27.2,-256.72442626953125,0.2428000122308731,0,0.0,0.0,,,,,0,,3,,
Raw,12070584,12074497000000,,,-1291005709936242432,0.0,98.48627087194473,-31.94582355453238,29.29757385994081,163,11,0.0,207,39766354693363,8,36.8,-433.4965515136719,0.24220001697540283,0,0.0,0.0,,,,,0,,3,,
Raw,12070584,12074497000000,,,-1291005709936242432,0.0,98.48627087194473,-31.94582355453238,29.29757385994081,163,9,0.0,207,39766365687286,73,17.4,216.16331481933594,2.0339999198913574,0,0.0,0.0,,,,,0,,3,,
Raw,12070585,12074497000000,,,-1291005709936242432,0.0,98.48627087194473,-31.94582355453238,29.29757385994081,163,7,0.0,207,39766366326680,997,12.6,-451.9082336425781,20.555500030517578,0,0.0,0.0,,,,,0,,3,,
Raw,12070585,12074497000000,,,-1291005709936242432,0.0,98.48627087194473,-31.94582355453238,29.29757385994081,163,3,0.0,15,374584350133854,73,17.9,-484.45916748046875,1.841499924659729,0,0.0,0.0,,,,,0,,1,,
Raw,12070585,12074497000000,,,-1291005709936242432,0.0,98.48627087194473,-31.94582355453238,29.29757385994081,163,10,0.0,15,374584355880495,116,18.5,647.7216186523438,5.519000053405762,0,0.0,0.0,,,,,0,,1,,
Raw,12070585,12074497000000,,,-1291005709936242432,0.0,98.48627087194473,-31.94582355453238,29.29757385994081,163,16,0.0,15,374584356103194,16,29.3,-656.3450927734375,0.050700001418590546,0,0.0,0.0,,,,,0,,1,,
Raw,12070585,12074497000000,,,-1291005709936242432,0.0,98.48627087194473,-31.94582355453238,29.29757385994081,163,22,0.0,15,374584353242172,35,22.8,-278.31402587890625,0.7459999918937683,0,0.0,0.0,,,,,0,,1,,
Raw,12070586,12074497000000,,,-1291005709936242432,0.0,98.48627087194473,-31.94582355453238,29.29757385994081,163,25,0.0,15,374584356504540,884,11.2,625.6475219726562,19.00550079345703,0,0.0,0.0,,,,,0,,1,,
Raw,12070586,12074497000000,,,-1291005709936242432,0.0,98.48627087194473,-31.94582355453238,29.29757385994081,163,26,0.0,15,374584364130606,31,23.8,-293.2330322265625,0.67249995470047,0,0.0,0.0,,,,,0,,1,,
Raw,12070586,12074497000000,,,-1291005709936242432,0.0,98.48627087194473,-31.94582355453238,29.29757385994081,163,31,0.0,15,374584362115160,185,14.1,25.670618057250977,6.7295002937316895,0,0.0,0.0,,,,,0,,1,,
Raw,12070586,12074497000000,,,-1291005709936242432,0.0,98.48627087194473,-31.94582355453238,29.29757385994081,163,32,0.0,15,374584364932996,110,14.9,29.828533172607422,2.112499952316284,0,0.0,0.0,,,,,0,,1,,
Raw,12070587,12074497000000,,,-1291005709936242432,0.0,98.48627087194473,-31.94582355453238,29.29757385994081,163,2,0.0,783,374570308281788,963,25.7,-4.253674507141113,20.80350112915039,0,0.0,0.0,,,,,0,,5,,
Raw,12070587,12074497000000,,,-1291005709936242432,0.0,98.48627087194473,-31.94582355453238,29.29757385994081,163,5,0.0,783,374570300107390,13,31.7,-5.895612716674805,0.3634999990463257,0,0.0,0.0,,,,,0,,5,,
Raw,12070587,12074497000000,,,-1291005709936242432,0.0,98.48627087194473,-31.94582355453238,29.29757385994081,163,6,0.0,15,374570312213965,328,13.9,-130.98052978515625,10.274500846862793,0,0.0,0.0,,,,,0,,5,,
Raw,12070587,12074497000000,,,-1291005709936242432,0.0,98.48627087194473,-31.94582355453238,29.29757385994081,163,8,0.0,15,374570294858351,800,16.4,181.64056396484375,5.522500038146973,0,0.0,0.0,,,,,0,,5,,
Raw,12070588,12074497000000,,,-1291005709936242432,0.0,98.48627087194473,-31.94582355453238,29.29757385994081,163,10,0.0,15,374570308135951,467,10.3,-116.64479064941406,12.238500595092773,0,0.0,0.0,,,,,0,,5,,
Raw,12070588,12074497000000,,,-1291005709936242432,0.0,98.48627087194473,-31.94582355453238,29.29757385994081,163,13,0.0,15,374570297457380,62,18.2,263.9582824707031,1.2569999694824219,0,0.0,0.0,,,,,0,,5,,
Raw,12070588,12074497000000,,,-1291005709936242432,0.0,98.48627087194473,-31.94582355453238,29.29757385994081,163,16,0.0,15,374570311829160,1148,14.4,-123.96148681640625,22.273000717163086,0,0.0,0.0,,,,,0,,5,,
Raw,12070588,12074497000000,,,-1291005709936242432,0.0,98.48627087194473,-31.94582355453238,29.29757385994081,163,21,0.0,15,374570359402197,81,16.8,-9.246702194213867,1.024999976158142,0,0.0,0.0,,,,,0,,5,,
Raw,12070589,12074497000000,,,-1291005709936242432,0.0,98.48627087194473,-31.94582355453238,29.29757385994081,163,22,0.0,15,374570354753372,225,16.0,512.0828857421875,8.59749984741211,0,0.0,0.0,,,,,0,,5,,
Raw,12070589,12074497000000,,,-1291005709936242432,0.0,98.48627087194473,-31.94582355453238,29.29757385994081,163,24,0.0,15,374570343254076,46,20.2,-368.7926330566406,0.7910000085830688,0,0.0,0.0,,,,,0,,5,,
Raw,12070589,12074497000000,,,-1291005709936242432,0.0,98.48627087194473,-31.94582355453238,29.29757385994081,163,26,0.0,15,374570356433711,70,17.0,-158.61502075195312,1.0205000638961792,0,0.0,0.0,,,,,0,,5,,
Raw,12070589,12074497000000,,,-1291005709936242432,0.0,98.48627087194473,-31.94582355453238,29.29757385994081,163,25,0.0,7183,374584345052865,19,27.3,-366.07745361328125,0.44200000166893005,0,0.0,0.0,,,,,0,,6,,
NMEA,$PQGSV,1,1,03,193,56,154,15,194,66,037,13,195,29,142,11,0,5*6E,1606982566509
NMEA,$PQGSV,4,1,16,02,40,240,26,05,00,000,32,06,67,030,14,08,02,189,16,0,4*65,1606982566509
NMEA,$PQGSV,4,2,16,10,46,219,10,13,07,212,18,16,66,022,14,21,67,268,17,0,4*65,1606982566509
NMEA,$PQGSV,4,3,16,22,41,167,16,24,02,253,20,26,40,282,17,01,51,129,,0,4*6A,1606982566509
NMEA,$PQGSV,4,4,16,03,59,202,,04,37,115,,07,73,213,,09,51,338,,0,4*60,1606982566509
NMEA,$GNGSA,A,3,10,16,22,25,26,31,32,,,,,,1.2,0.9,0.8,1*35,1606982566510
NMEA,$GNGSA,A,2,74,,,,,,,,,,,,1.2,0.9,0.8,2*32,1606982566510
NMEA,$GNGSA,A,2,25,,,,,,,,,,,,1.2,0.9,0.8,3*37,1606982566510
NMEA,$PQGSA,A,2,13,26,,,,,,,,,,,1.2,0.9,0.8,4*39,1606982566510
NMEA,$GNVTG,,T,,M,0.0,N,0.0,K,A*3D,1606982566510
NMEA,$GNRMC,080247.00,A,2255.525750,N,12017.677247,E,0.0,,031220,2.8,W,A*14,1606982566511
NMEA,$GNGGA,080247.00,2255.525750,N,12017.677247,E,1,11,0.9,34.2,M,17.5,M,,*46,1606982566511
Fix,gps,22.925428,120.294620,51.670776,0.000000,7.504000,1606982568000
NMEA,$GPGSV,3,1,10,03,07,317,18,10,23,178,19,16,24,217,28,22,20,300,23*7B,1606982567523
NMEA,$GPGSV,3,2,10,25,25,036,11,26,59,234,22,31,48,341,14,32,68,080,18*72,1606982567523
NMEA,$GPGSV,3,3,10,23,00,000,,29,28,087,*77,1606982567524
NMEA,$GLGSV,3,1,10,74,30,262,28,75,00,000,36,73,51,331,18,71,54,327,13*66,1606982567525
NMEA,$GLGSV,3,2,10,70,67,167,,82,02,066,,80,21,028,,69,08,154,*6D,1606982567525
NMEA,$GLGSV,3,3,10,83,03,109,,72,05,331,*65,1606982567526
Raw,12071624,12075497000000,,,-1291005709936242432,0.0,98.83367602014914,-34.96324483813458,27.824472620621254,163,10,0.0,207,39767361325241,19,27.7,-256.7470703125,0.2428000122308731,0,0.0,0.0,,,,,0,,3,,
Raw,12071624,12075497000000,,,-1291005709936242432,0.0,98.83367602014914,-34.96324483813458,27.824472620621254,163,11,0.0,207,39767354694811,8,36.2,-433.5641174316406,0.24220001697540283,0,0.0,0.0,,,,,0,,3,,
Raw,12071624,12075497000000,,,-1291005709936242432,0.0,98.83367602014914,-34.96324483813458,27.824472620621254,163,9,0.0,207,39767365686745,70,17.5,216.78128051757812,1.284000039100647,0,0.0,0.0,,,,,0,,3,,
Raw,12071624,12075497000000,,,-1291005709936242432,0.0,98.83367602014914,-34.96324483813458,27.824472620621254,163,7,0.0,207,39767366328187,1134,12.6,-451.9082336425781,22.05550193786621,0,0.0,0.0,,,,,0,,3,,
Raw,12071625,12075497000000,,,-1291005709936242432,0.0,98.83367602014914,-34.96324483813458,27.824472620621254,163,3,0.0,15,374585350135470,87,17.9,-484.45916748046875,3.3415000438690186,0,0.0,0.0,,,,,0,,1,,
Raw,12071625,12075497000000,,,-1291005709936242432,0.0,98.83367602014914,-34.96324483813458,27.824472620621254,163,10,0.0,15,374585355878335,155,18.5,647.7216186523438,7.01900053024292,0,0.0,0.0,,,,,0,,1,,
Raw,12071625,12075497000000,,,-1291005709936242432,0.0,98.83367602014914,-34.96324483813458,27.824472620621254,163,16,0.0,15,374585356105396,17,28.3,-656.4196166992188,0.05730000138282776,0,0.0,0.0,,,,,0,,1,,
Raw,12071625,12075497000000,,,-1291005709936242432,0.0,98.83367602014914,-34.96324483813458,27.824472620621254,163,22,0.0,15,374585353243094,35,22.8,-278.380615234375,0.7459999918937683,0,0.0,0.0,,,,,0,,1,,
Raw,12071625,12075497000000,,,-1291005709936242432,0.0,98.83367602014914,-34.96324483813458,27.824472620621254,163,25,0.0,15,374585356502453,1010,11.2,625.6475219726562,20.50550079345703,0,0.0,0.0,,,,,0,,1,,
Raw,12071626,12075497000000,,,-1291005709936242432,0.0,98.83367602014914,-34.96324483813458,27.824472620621254,163,26,0.0,15,374585364131502,35,22.3,-293.3757629394531,0.7924999594688416,0,0.0,0.0,,,,,0,,1,,
Raw,12071626,12075497000000,,,-1291005709936242432,0.0,98.83367602014914,-34.96324483813458,27.824472620621254,163,31,0.0,15,374585362115075,230,14.1,25.670618057250977,8.229500770568848,0,0.0,0.0,,,,,0,,1,,
Raw,12071626,12075497000000,,,-1291005709936242432,0.0,98.83367602014914,-34.96324483813458,27.824472620621254,163,32,0.0,15,374585364932817,70,17.6,30.485044479370117,1.0824999809265137,0,0.0,0.0,,,,,0,,1,,
Raw,12071626,12075497000000,,,-1291005709936242432,0.0,98.83367602014914,-34.96324483813458,27.824472620621254,163,2,0.0,783,374571308281802,1105,25.7,-4.253674507141113,22.30350112915039,0,0.0,0.0,,,,,0,,5,,
Raw,12071626,12075497000000,,,-1291005709936242432,0.0,98.83367602014914,-34.96324483813458,27.824472620621254,163,5,0.0,783,374571300107421,12,32.4,-5.636359214782715,0.3334999978542328,0,0.0,0.0,,,,,0,,5,,
Raw,12071627,12075497000000,,,-1291005709936242432,0.0,98.83367602014914,-34.96324483813458,27.824472620621254,163,6,0.0,15,374571312214396,204,11.2,-134.3892364501953,5.364500045776367,0,0.0,0.0,,,,,0,,5,,
Raw,12071627,12075497000000,,,-1291005709936242432,0.0,98.83367602014914,-34.96324483813458,27.824472620621254,163,8,0.0,15,374571294857753,818,16.0,181.26608276367188,6.272500038146973,0,0.0,0.0,,,,,0,,5,,
Raw,12071627,12075497000000,,,-1291005709936242432,0.0,98.83367602014914,-34.96324483813458,27.824472620621254,163,13,0.0,15,374571297456552,61,18.0,263.1517333984375,0.9419999718666077,0,0.0,0.0,,,,,0,,5,,
Raw,12071627,12075497000000,,,-1291005709936242432,0.0,98.83367602014914,-34.96324483813458,27.824472620621254,163,16,0.0,15,374571311829574,1297,14.4,-123.96148681640625,23.773000717163086,0,0.0,0.0,,,,,0,,5,,
Raw,12071628,12075497000000,,,-1291005709936242432,0.0,98.83367602014914,-34.96324483813458,27.824472620621254,163,21,0.0,15,374571359402337,46,20.0,-9.678791046142578,0.8149999976158142,0,0.0,0.0,,,,,0,,5,,
Raw,12071628,12075497000000,,,-1291005709936242432,0.0,98.83367602014914,-34.96324483813458,27.824472620621254,163,22,0.0,15,374571354751664,283,16.0,512.0828857421875,10.097500801086426,0,0.0,0.0,,,,,0,,5,,
Raw,12071628,12075497000000,,,-1291005709936242432,0.0,98.83367602014914,-34.96324483813458,27.824472620621254,163,24,0.0,15,374571343255354,80,16.9,-367.96685791015625,1.0010000467300415,0,0.0,0.0,,,,,0,,5,,
Raw,12071628,12075497000000,,,-1291005709936242432,0.0,98.83367602014914,-34.96324483813458,27.824472620621254,163,26,0.0,15,374571356434240,78,17.0,-158.61502075195312,2.5205001831054688,0,0.0,0.0,,,,,0,,5,,
Raw,12071628,12075497000000,,,-1291005709936242432,0.0,98.83367602014914,-34.96324483813458,27.824472620621254,163,25,0.0,7183,374585345054075,19,27.6,-366.2867736816406,0.44200000166893005,0,0.0,0.0,,,,,0,,6,,
NMEA,$GAGSV,1,1,01,25,24,236,28*55,1606982567526
NMEA,$PQGSV,1,1,03,193,56,154,15,194,66,037,13,195,29,142,11,0,5*6E,1606982567527
NMEA,$PQGSV,4,1,16,02,40,240,26,05,00,000,32,06,67,030,11,08,02,189,16,0,4*60,1606982567528
NMEA,$PQGSV,4,2,16,13,07,212,18,16,66,022,14,21,67,268,20,22,41,167,16,0,4*6B,1606982567528
NMEA,$PQGSV,4,3,16,24,02,253,17,26,40,282,17,01,51,129,,03,59,202,,0,4*63,1606982567529
NMEA,$PQGSV,4,4,16,04,37,115,,07,73,213,,09,51,338,,10,46,219,,0,4*66,1606982567529
NMEA,$GNGSA,A,3,10,16,22,25,26,31,32,,,,,,1.5,1.2,0.9,1*39,1606982567533
NMEA,$GNGSA,A,2,74,,,,,,,,,,,,1.5,1.2,0.9,2*3E,1606982567535
NMEA,$GNGSA,A,2,25,,,,,,,,,,,,1.5,1.2,0.9,3*3B,1606982567536
NMEA,$PQGSA,A,2,13,26,,,,,,,,,,,1.5,1.2,0.9,4*35,1606982567537
NMEA,$GNVTG,,T,,M,0.0,N,0.0,K,A*3D,1606982567537
NMEA,$GNRMC,080248.00,A,2255.525689,N,12017.677194,E,0.0,,031220,2.8,W,A*13,1606982567539
NMEA,$GNGGA,080248.00,2255.525689,N,12017.677194,E,1,11,1.2,34.2,M,17.5,M,,*4B,1606982567540
Fix,gps,22.925428,120.294620,51.712402,0.000000,7.504000,1606982569000
NMEA,$GPGSV,3,1,10,03,07,317,18,10,23,178,19,16,24,217,29,22,20,300,24*7D,1606982568507
NMEA,$GPGSV,3,2,10,25,25,036,11,26,59,234,22,31,48,341,14,32,68,080,17*7D,1606982568507
NMEA,$GPGSV,3,3,10,23,00,000,,29,28,087,*77,1606982568508
NMEA,$GLGSV,3,1,10,74,30,262,28,75,00,000,37,73,51,331,18,71,54,327,13*67,1606982568508
Raw,12072594,12076497000000,,,-1291005709936242432,0.0,94.40231224289164,-34.40527724877762,24.785432478767806,163,10,0.0,207,39768361326057,19,27.5,-255.1512908935547,0.6980000138282776,0,0.0,0.0,,,,,0,,3,,
Raw,12072595,12076497000000,,,-1291005709936242432,0.0,94.40231224289164,-34.40527724877762,24.785432478767806,163,11,0.0,207,39768354696258,8,36.7,-432.1158752441406,0.24220001697540283,0,0.0,0.0,,,,,0,,3,,
Raw,12072595,12076497000000,,,-1291005709936242432,0.0,94.40231224289164,-34.40527724877762,24.785432478767806,163,9,0.0,207,39768365686021,79,17.5,216.78128051757812,2.7840001583099365,0,0.0,0.0,,,,,0,,3,,
Raw,12072596,12076497000000,,,-1291005709936242432,0.0,94.40231224289164,-34.40527724877762,24.785432478767806,163,7,0.0,207,39768366329695,1280,12.6,-451.9082336425781,23.55550193786621,0,0.0,0.0,,,,,0,,3,,
Raw,12072596,12076497000000,,,-1291005709936242432,0.0,94.40231224289164,-34.40527724877762,24.785432478767806,163,3,0.0,15,374586350137086,111,17.9,-484.45916748046875,4.841500282287598,0,0.0,0.0,,,,,0,,1,,
Raw,12072597,12076497000000,,,-1291005709936242432,0.0,94.40231224289164,-34.40527724877762,24.785432478767806,163,10,0.0,15,374586355876174,203,18.5,647.7216186523438,8.519000053405762,0,0.0,0.0,,,,,0,,1,,
Raw,12072597,12076497000000,,,-1291005709936242432,0.0,94.40231224289164,-34.40527724877762,24.785432478767806,163,16,0.0,15,374586356107588,17,28.8,-654.9794921875,0.05730000138282776,0,0.0,0.0,,,,,0,,1,,
Raw,12072598,12076497000000,,,-1291005709936242432,0.0,94.40231224289164,-34.40527724877762,24.785432478767806,163,22,0.0,15,374586353244043,31,23.5,-276.9058532714844,0.6859999895095825,0,0.0,0.0,,,,,0,,1,,
Raw,12072598,12076497000000,,,-1291005709936242432,0.0,94.40231224289164,-34.40527724877762,24.785432478767806,163,25,0.0,15,374586356500366,1145,11.2,625.6475219726562,22.00550079345703,0,0.0,0.0,,,,,0,,1,,
Raw,12072599,12076497000000,,,-1291005709936242432,0.0,94.40231224289164,-34.40527724877762,24.785432478767806,163,26,0.0,15,374586364132543,40,21.9,-290.9780578613281,0.7924999594688416,0,0.0,0.0,,,,,0,,1,,
Raw,12072599,12076497000000,,,-1291005709936242432,0.0,94.40231224289164,-34.40527724877762,24.785432478767806,163,31,0.0,15,374586362114989,285,14.1,25.670618057250977,9.729500770568848,0,0.0,0.0,,,,,0,,1,,
Raw,12072600,12076497000000,,,-1291005709936242432,0.0,94.40231224289164,-34.40527724877762,24.785432478767806,163,32,0.0,15,374586364933088,80,16.8,30.722911834716797,1.1725000143051147,0,0.0,0.0,,,,,0,,1,,
Raw,12072600,12076497000000,,,-1291005709936242432,0.0,94.40231224289164,-34.40527724877762,24.785432478767806,163,2,0.0,783,374572308281816,1257,25.7,-4.253674507141113,23.80350112915039,0,0.0,0.0,,,,,0,,5,,
Raw,12072600,12076497000000,,,-1291005709936242432,0.0,94.40231224289164,-34.40527724877762,24.785432478767806,163,5,0.0,783,374572300107436,13,31.0,-4.042431354522705,0.3634999990463257,0,0.0,0.0,,,,,0,,5,,
Raw,12072601,12076497000000,,,-1291005709936242432,0.0,94.40231224289164,-34.40527724877762,24.785432478767806,163,6,0.0,15,374572312214845,240,11.2,-134.3892364501953,6.864500522613525,0,0.0,0.0,,,,,0,,5,,
Raw,12072601,12076497000000,,,-1291005709936242432,0.0,94.40231224289164,-34.40527724877762,24.785432478767806,163,8,0.0,15,374572294857157,954,15.6,180.4883270263672,7.112500190734863,0,0.0,0.0,,,,,0,,5,,
Raw,12072602,12076497000000,,,-1291005709936242432,0.0,94.40231224289164,-34.40527724877762,24.785432478767806,163,13,0.0,15,374572297455674,69,18.0,263.1517333984375,2.442000150680542,0,0.0,0.0,,,,,0,,5,,
Raw,12072602,12076497000000,,,-1291005709936242432,0.0,94.40231224289164,-34.40527724877762,24.785432478767806,163,16,0.0,15,374572311829987,1457,14.4,-123.96148681640625,25.273000717163086,0,0.0,0.0,,,,,0,,5,,
Raw,12072603,12076497000000,,,-1291005709936242432,0.0,94.40231224289164,-34.40527724877762,24.785432478767806,163,21,0.0,15,374572359402332,53,19.9,-8.497747421264648,0.8149999976158142,0,0.0,0.0,,,,,0,,5,,
Raw,12072603,12076497000000,,,-1291005709936242432,0.0,94.40231224289164,-34.40527724877762,24.785432478767806,163,22,0.0,15,374572354749955,352,16.0,512.0828857421875,11.597500801086426,0,0.0,0.0,,,,,0,,5,,
Raw,12072603,12076497000000,,,-1291005709936242432,0.0,94.40231224289164,-34.40527724877762,24.785432478767806,163,24,0.0,15,374572343256472,70,17.3,-366.9490661621094,1.0010000467300415,0,0.0,0.0,,,,,0,,5,,
Raw,12072604,12076497000000,,,-1291005709936242432,0.0,94.40231224289164,-34.40527724877762,24.785432478767806,163,26,0.0,15,374572356434751,84,16.7,-157.41477966308594,1.8504999876022339,0,0.0,0.0,,,,,0,,5,,
Raw,12072604,12076497000000,,,-1291005709936242432,0.0,94.40231224289164,-34.40527724877762,24.785432478767806,163,25,0.0,7183,374586345055291,21,26.6,-365.05938720703125,0.4819999933242798,0,0.0,0.0,,,,,0,,6,,
NMEA,$GLGSV,3,2,10,70,67,167,,82,02,066,,80,21,028,,69,08,154,*6D,1606982568508
NMEA,$GLGSV,3,3,10,83,03,109,,72,05,331,*65,1606982568509
NMEA,$GAGSV,1,1,01,25,24,236,27*5A,1606982568509
NMEA,$PQGSV,1,1,03,193,56,154,15,194,66,037,13,195,29,142,11,0,5*6E,1606982568509
NMEA,$PQGSV,4,1,16,02,40,240,26,05,00,000,31,06,67,030,11,08,02,189,16,0,4*63,1606982568510
NMEA,$PQGSV,4,2,16,13,07,212,18,16,66,022,14,21,67,268,20,22,41,167,16,0,4*6B,1606982568510
NMEA,$PQGSV,4,3,16,24,02,253,17,26,40,282,17,01,51,129,,03,59,202,,0,4*63,1606982568510
NMEA,$PQGSV,4,4,16,04,37,115,,07,73,213,,09,51,338,,10,46,219,,0,4*66,1606982568510
NMEA,$GNGSA,A,3,10,16,22,26,31,32,,,,,,,1.5,1.2,0.9,1*3E,1606982568511
NMEA,$GNGSA,A,2,74,,,,,,,,,,,,1.5,1.2,0.9,2*3E,1606982568511
NMEA,$GNGSA,A,2,25,,,,,,,,,,,,1.5,1.2,0.9,3*3B,1606982568512
NMEA,$PQGSA,A,2,13,26,,,,,,,,,,,1.5,1.2,0.9,4*35,1606982568513
NMEA,$GNVTG,,T,,M,0.0,N,0.0,K,A*3D,1606982568513
NMEA,$GNRMC,080249.00,A,2255.525656,N,12017.677172,E,0.0,,031220,2.8,W,A*18,1606982568514
NMEA,$GNGGA,080249.00,2255.525656,N,12017.677172,E,1,10,1.2,34.2,M,17.5,M,,*41,1606982568517
Fix,gps,22.925427,120.294619,51.741699,0.000000,8.576000,1606982570000
Raw,12073602,12077497000000,,,-1291005709936242432,0.0,96.98551730252802,-32.793867486937756,22.830788349923136,163,10,0.0,207,39769361326879,21,26.3,-254.18179321289062,0.3127000033855438,0,0.0,0.0,,,,,0,,3,,
Raw,12073603,12077497000000,,,-1291005709936242432,0.0,96.98551730252802,-32.793867486937756,22.830788349923136,163,11,0.0,207,39769354697678,8,36.8,-430.9833068847656,0.24220001697540283,0,0.0,0.0,,,,,0,,3,,
Raw,12073604,12077497000000,,,-1291005709936242432,0.0,96.98551730252802,-32.793867486937756,22.830788349923136,163,9,0.0,207,39769365685272,73,17.3,218.3262481689453,2.0339999198913574,0,0.0,0.0,,,,,0,,3,,
Raw,12073604,12077497000000,,,-1291005709936242432,0.0,96.98551730252802,-32.793867486937756,22.830788349923136,163,7,0.0,207,39769366331202,1436,12.6,-451.9082336425781,25.05550193786621,0,0.0,0.0,,,,,0,,3,,
Raw,12073605,12077497000000,,,-1291005709936242432,0.0,96.98551730252802,-32.793867486937756,22.830788349923136,163,3,0.0,15,374587350138702,144,17.9,-484.45916748046875,6.341500282287598,0,0.0,0.0,,,,,0,,1,,
Raw,12073606,12077497000000,,,-1291005709936242432,0.0,96.98551730252802,-32.793867486937756,22.830788349923136,163,10,0.0,15,374587355874014,262,18.5,647.7216186523438,10.019000053405762,0,0.0,0.0,,,,,0,,1,,
Raw,12073606,12077497000000,,,-1291005709936242432,0.0,96.98551730252802,-32.793867486937756,22.830788349923136,163,16,0.0,15,374587356109773,14,30.8,-653.8609619140625,0.049800001084804535,0,0.0,0.0,,,,,0,,1,,
Raw,12073607,12077497000000,,,-1291005709936242432,0.0,96.98551730252802,-32.793867486937756,22.830788349923136,163,22,0.0,15,374587353244977,40,21.7,-275.64990234375,0.8059999942779541,0,0.0,0.0,,,,,0,,1,,
Raw,12073607,12077497000000,,,-1291005709936242432,0.0,96.98551730252802,-32.793867486937756,22.830788349923136,163,25,0.0,15,374587356498280,1291,11.2,625.6475219726562,23.50550079345703,0,0.0,0.0,,,,,0,,1,,
Raw,12073609,12077497000000,,,-1291005709936242432,0.0,96.98551730252802,-32.793867486937756,22.830788349923136,163,26,0.0,15,374587364133438,35,22.7,-291.1968994140625,0.7324999570846558,0,0.0,0.0,,,,,0,,1,,
Raw,12073609,12077497000000,,,-1291005709936242432,0.0,96.98551730252802,-32.793867486937756,22.830788349923136,163,31,0.0,15,374587362114903,350,14.1,25.670618057250977,11.229500770568848,0,0.0,0.0,,,,,0,,1,,
Raw,12073610,12077497000000,,,-1291005709936242432,0.0,96.98551730252802,-32.793867486937756,22.830788349923136,163,32,0.0,15,374587364932711,80,16.9,30.722911834716797,1.1725000143051147,0,0.0,0.0,,,,,0,,1,,
Raw,12073611,12077497000000,,,-1291005709936242432,0.0,96.98551730252802,-32.793867486937756,22.830788349923136,163,2,0.0,783,374573308281830,1419,25.7,-4.253674507141113,25.30350112915039,0,0.0,0.0,,,,,0,,5,,
Raw,12073612,12077497000000,,,-1291005709936242432,0.0,96.98551730252802,-32.793867486937756,22.830788349923136,163,5,0.0,783,374573300107448,17,28.6,-3.5239248275756836,0.44350001215934753,0,0.0,0.0,,,,,0,,5,,
Raw,12073613,12077497000000,,,-1291005709936242432,0.0,96.98551730252802,-32.793867486937756,22.830788349923136,163,6,0.0,15,374573312215293,285,11.2,-134.3892364501953,8.364500045776367,0,0.0,0.0,,,,,0,,5,,
Raw,12073613,12077497000000,,,-1291005709936242432,0.0,96.98551730252802,-32.793867486937756,22.830788349923136,163,8,0.0,15,374573294856570,861,15.8,180.52671813964844,7.772500038146973,0,0.0,0.0,,,,,0,,5,,
Raw,12073613,12077497000000,,,-1291005709936242432,0.0,96.98551730252802,-32.793867486937756,22.830788349923136,163,13,0.0,15,374573297454667,84,16.3,265.26416015625,1.8519999980926514,0,0.0,0.0,,,,,0,,5,,
Raw,12073614,12077497000000,,,-1291005709936242432,0.0,96.98551730252802,-32.793867486937756,22.830788349923136,163,16,0.0,15,374573311830401,1626,14.4,-123.96148681640625,26.773000717163086,0,0.0,0.0,,,,,0,,5,,
Raw,12073614,12077497000000,,,-1291005709936242432,0.0,96.98551730252802,-32.793867486937756,22.830788349923136,163,21,0.0,15,374573359402320,46,20.0,-6.625362396240234,0.8149999976158142,0,0.0,0.0,,,,,0,,5,,
Raw,12073615,12077497000000,,,-1291005709936242432,0.0,96.98551730252802,-32.793867486937756,22.830788349923136,163,22,0.0,15,374573354748247,431,16.0,512.0828857421875,13.097500801086426,0,0.0,0.0,,,,,0,,5,,
Raw,12073615,12077497000000,,,-1291005709936242432,0.0,96.98551730252802,-32.793867486937756,22.830788349923136,163,24,0.0,15,374573343257826,53,19.4,-364.13568115234375,0.8510000109672546,0,0.0,0.0,,,,,0,,5,,
Raw,12073615,12077497000000,,,-1291005709936242432,0.0,96.98551730252802,-32.793867486937756,22.830788349923136,163,26,0.0,15,374573356435245,61,18.9,-154.56298828125,0.8704999685287476,0,0.0,0.0,,,,,0,,5,,
Raw,12073616,12077497000000,,,-1291005709936242432,0.0,96.98551730252802,-32.793867486937756,22.830788349923136,163,25,0.0,7183,374587345056492,21,26.6,-364.01275634765625,0.4819999933242798,0,0.0,0.0,,,,,0,,6,,
NMEA,$GPGSV,3,1,10,03,07,317,18,10,23,178,19,16,24,217,31,22,20,300,22*72,1606982569508
NMEA,$GPGSV,3,2,10,25,25,036,11,26,59,234,23,31,48,341,14,32,68,080,17*7C,1606982569508
NMEA,$GPGSV,3,3,10,23,00,000,,29,28,087,*77,1606982569508
NMEA,$GLGSV,3,1,10,74,30,262,26,75,00,000,37,73,51,331,17,71,54,327,13*66,1606982569510
NMEA,$GLGSV,3,2,10,70,67,167,,82,02,066,,80,21,028,,69,08,154,*6D,1606982569511
NMEA,$GLGSV,3,3,10,83,03,109,,72,05,331,*65,1606982569511
NMEA,$GAGSV,1,1,01,25,24,236,27*5A,1606982569511
NMEA,$PQGSV,1,1,03,193,56,154,15,194,66,037,15,195,29,142,11,0,5*68,1606982569511
NMEA,$PQGSV,4,1,16,02,40,240,26,05,00,000,29,06,67,030,11,08,02,189,16,0,4*6A,1606982569511
NMEA,$PQGSV,4,2,16,13,07,212,16,16,66,022,14,21,67,268,20,22,41,167,16,0,4*65,1606982569512
NMEA,$PQGSV,4,3,16,24,02,253,19,26,40,282,19,01,51,129,,03,59,202,,0,4*63,1606982569512
NMEA,$PQGSV,4,4,16,04,37,115,,07,73,213,,09,51,338,,10,46,219,,0,4*66,1606982569512
NMEA,$GNGSA,A,3,10,16,22,26,31,32,,,,,,,1.6,1.3,0.9,1*3C,1606982569515
NMEA,$GNGSA,A,2,74,,,,,,,,,,,,1.6,1.3,0.9,2*3C,1606982569515
NMEA,$GNGSA,A,2,25,,,,,,,,,,,,1.6,1.3,0.9,3*39,1606982569515
NMEA,$PQGSA,A,2,13,26,,,,,,,,,,,1.6,1.3,0.9,4*37,1606982569515
NMEA,$GNVTG,,T,,M,0.0,N,0.0,K,A*3D,1606982569516
NMEA,$GNRMC,080250.00,A,2255.525638,N,12017.677157,E,0.0,,031220,2.8,W,A*1F,1606982569516
NMEA,$GNGGA,080250.00,2255.525638,N,12017.677157,E,1,10,1.3,34.3,M,17.5,M,,*46,1606982569516
Fix,gps,22.925427,120.294619,51.724060,0.000000,7.504000,1606982571000
NMEA,$GPGSV,3,1,10,03,07,317,18,10,23,178,19,16,24,217,31,22,20,300,22*72,1606982570508
NMEA,$GPGSV,3,2,10,25,25,036,11,26,59,234,24,31,48,341,14,32,68,080,22*7D,1606982570508
NMEA,$GPGSV,3,3,10,23,00,000,,29,28,087,*77,1606982570509
NMEA,$GLGSV,3,1,10,74,30,262,27,75,00,000,36,73,51,331,17,71,54,327,13*66,1606982570510
NMEA,$GLGSV,3,2,10,70,67,167,,82,02,066,,80,21,028,,69,08,154,*6D,1606982570511
NMEA,$GLGSV,3,3,10,83,03,109,,72,05,331,*65,1606982570512
NMEA,$GAGSV,1,1,02,05,40,323,14,25,24,236,27*6F,1606982570512
NMEA,$PQGSV,1,1,03,193,56,154,15,194,66,037,17,195,29,142,11,0,5*6A,1606982570513
NMEA,$PQGSV,4,1,16,02,40,240,26,05,00,000,29,06,67,030,13,08,02,189,16,0,4*68,1606982570513
NMEA,$PQGSV,4,2,16,13,07,212,18,16,66,022,14,21,67,268,21,22,41,167,16,0,4*6A,1606982570514
NMEA,$PQGSV,4,3,16,24,02,253,19,26,40,282,17,01,51,129,,03,59,202,,0,4*6D,1606982570514
NMEA,$PQGSV,4,4,16,04,37,115,,07,73,213,,09,51,338,,10,46,219,,0,4*66,1606982570515
NMEA,$GNGSA,A,3,16,22,26,31,32,,,,,,,,1.6,1.3,0.9,1*3D,1606982570516
NMEA,$GNGSA,A,2,74,,,,,,,,,,,,1.6,1.3,0.9,2*3C,1606982570516
NMEA,$GNGSA,A,2,25,,,,,,,,,,,,1.6,1.3,0.9,3*39,1606982570516
NMEA,$PQGSA,A,2,13,26,,,,,,,,,,,1.6,1.3,0.9,4*37,1606982570516
NMEA,$GNVTG,,T,,M,0.0,N,0.0,K,A*3D,1606982570517
NMEA,$GNRMC,080251.00,A,2255.525627,N,12017.677152,E,0.0,,031220,2.8,W,A*15,1606982570517
NMEA,$GNGGA,080251.00,2255.525627,N,12017.677152,E,1,09,1.3,34.3,M,17.5,M,,*44,1606982570517
Raw,12074598,12078497000000,,,-1291005709936242432,0.0,99.52879190677777,-30.07113516328573,23.755737330541162,163,10,0.0,207,39770361327766,21,26.6,-253.4986572265625,0.3127000033855438,0,0.0,0.0,,,,,0,,3,,
Raw,12074598,12078497000000,,,-1291005709936242432,0.0,99.52879190677777,-30.07113516328573,23.755737330541162,163,11,0.0,207,39770354699149,8,36.4,-430.3456115722656,0.24220001697540283,0,0.0,0.0,,,,,0,,3,,
Raw,12074599,12078497000000,,,-1291005709936242432,0.0,99.52879190677777,-30.07113516328573,23.755737330541162,163,9,0.0,207,39770365684544,88,17.3,218.3262481689453,3.5340001583099365,0,0.0,0.0,,,,,0,,3,,
Raw,12074599,12078497000000,,,-1291005709936242432,0.0,99.52879190677777,-30.07113516328573,23.755737330541162,163,7,0.0,207,39770366332709,1602,12.6,-451.9082336425781,26.55550193786621,0,0.0,0.0,,,,,0,,3,,
Raw,12074600,12078497000000,,,-1291005709936242432,0.0,99.52879190677777,-30.07113516328573,23.755737330541162,163,3,0.0,15,374588350140318,188,17.9,-484.45916748046875,7.841500282287598,0,0.0,0.0,,,,,0,,1,,
Raw,12074600,12078497000000,,,-1291005709936242432,0.0,99.52879190677777,-30.07113516328573,23.755737330541162,163,10,0.0,15,374588355871853,331,18.5,647.7216186523438,11.519000053405762,0,0.0,0.0,,,,,0,,1,,
Raw,12074601,12078497000000,,,-1291005709936242432,0.0,99.52879190677777,-30.07113516328573,23.755737330541162,163,16,0.0,15,374588356111948,14,30.8,-653.2140502929688,0.049800001084804535,0,0.0,0.0,,,,,0,,1,,
Raw,12074601,12078497000000,,,-1291005709936242432,0.0,99.52879190677777,-30.07113516328573,23.755737330541162,163,22,0.0,15,374588353245858,40,21.5,-274.8030700683594,0.8059999942779541,0,0.0,0.0,,,,,0,,1,,
Raw,12074602,12078497000000,,,-1291005709936242432,0.0,99.52879190677777,-30.07113516328573,23.755737330541162,163,25,0.0,15,374588356496193,1446,11.2,625.6475219726562,25.00550079345703,0,0.0,0.0,,,,,0,,1,,
Raw,12074602,12078497000000,,,-1291005709936242432,0.0,99.52879190677777,-30.07113516328573,23.755737330541162,163,26,0.0,15,374588364134464,31,23.6,-290.01708984375,0.67249995470047,0,0.0,0.0,,,,,0,,1,,
Raw,12074603,12078497000000,,,-1291005709936242432,0.0,99.52879190677777,-30.07113516328573,23.755737330541162,163,31,0.0,15,374588362114818,425,14.1,25.670618057250977,12.729500770568848,0,0.0,0.0,,,,,0,,1,,
Raw,12074604,12078497000000,,,-1291005709936242432,0.0,99.52879190677777,-30.07113516328573,23.755737330541162,163,32,0.0,15,374588364932576,40,21.7,32.996925354003906,0.7924999594688416,0,0.0,0.0,,,,,0,,1,,
Raw,12074604,12078497000000,,,-1291005709936242432,0.0,99.52879190677777,-30.07113516328573,23.755737330541162,163,2,0.0,783,374574308281844,1591,25.7,-4.253674507141113,26.80350112915039,0,0.0,0.0,,,,,0,,5,,
Raw,12074605,12078497000000,,,-1291005709936242432,0.0,99.52879190677777,-30.07113516328573,23.755737330541162,163,5,0.0,783,374574300107482,17,28.8,-3.5143229961395264,0.41350001096725464,0,0.0,0.0,,,,,0,,5,,
Raw,12074605,12078497000000,,,-1291005709936242432,0.0,99.52879190677777,-30.07113516328573,23.755737330541162,163,6,0.0,15,374574312215723,149,12.8,-135.0997772216797,2.874500036239624,0,0.0,0.0,,,,,0,,5,,
Raw,12074605,12078497000000,,,-1291005709936242432,0.0,99.52879190677777,-30.07113516328573,23.755737330541162,163,8,0.0,15,374574294855963,887,15.8,180.8147735595703,8.522500038146973,0,0.0,0.0,,,,,0,,5,,
Raw,12074606,12078497000000,,,-1291005709936242432,0.0,99.52879190677777,-30.07113516328573,23.755737330541162,163,13,0.0,15,374574297453952,61,18.0,266.8772888183594,0.9419999718666077,0,0.0,0.0,,,,,0,,5,,
Raw,12074606,12078497000000,,,-1291005709936242432,0.0,99.52879190677777,-30.07113516328573,23.755737330541162,163,16,0.0,15,374574311830814,1806,14.4,-123.96148681640625,28.273000717163086,0,0.0,0.0,,,,,0,,5,,
Raw,12074607,12078497000000,,,-1291005709936242432,0.0,99.52879190677777,-30.07113516328573,23.755737330541162,163,21,0.0,15,374574359402388,40,21.1,-6.596557140350342,0.7549999952316284,0,0.0,0.0,,,,,0,,5,,
Raw,12074607,12078497000000,,,-1291005709936242432,0.0,99.52879190677777,-30.07113516328573,23.755737330541162,163,22,0.0,15,374574354746539,520,16.0,512.0828857421875,14.597500801086426,0,0.0,0.0,,,,,0,,5,,
Raw,12074608,12078497000000,,,-1291005709936242432,0.0,99.52879190677777,-30.07113516328573,23.755737330541162,163,24,0.0,15,374574343258970,53,19.3,-364.7982177734375,0.8510000109672546,0,0.0,0.0,,,,,0,,5,,
Raw,12074608,12078497000000,,,-1291005709936242432,0.0,99.52879190677777,-30.07113516328573,23.755737330541162,163,26,0.0,15,374574356435697,70,17.0,-153.87164306640625,1.0205000638961792,0,0.0,0.0,,,,,0,,5,,
Raw,12074609,12078497000000,,,-1291005709936242432,0.0,99.52879190677777,-30.07113516328573,23.755737330541162,163,5,0.0,7183,374588349494828,1047,13.5,-408.0086669921875,5.707000255584717,0,0.0,0.0,,,,,0,,6,,
Raw,12074609,12078497000000,,,-1291005709936242432,0.0,99.52879190677777,-30.07113516328573,23.755737330541162,163,25,0.0,7183,374588345057725,21,26.8,-362.5747985839844,0.13670000433921814,0,0.0,0.0,,,,,0,,6,,
Fix,gps,22.925427,120.294619,51.708435,0.000000,7.504000,1606982572000
Raw,12075580,12079497000000,,,-1291005709936242432,0.0,89.45346053224057,-27.688292264105964,21.08667996205003,163,10,0.0,207,39771361328622,19,27.6,-252.4034423828125,0.2428000122308731,0,0.0,0.0,,,,,0,,3,,
Raw,12075581,12079497000000,,,-1291005709936242432,0.0,89.45346053224057,-27.688292264105964,21.08667996205003,163,11,0.0,207,39771354700550,8,36.6,-429.249755859375,0.24220001697540283,0,0.0,0.0,,,,,0,,3,,
Raw,12075581,12079497000000,,,-1291005709936242432,0.0,89.45346053224057,-27.688292264105964,21.08667996205003,163,6,0.0,207,39771368426952,1711,12.1,324.6978759765625,10.268500328063965,0,0.0,0.0,,,,,0,,3,,
Raw,12075582,12079497000000,,,-1291005709936242432,0.0,89.45346053224057,-27.688292264105964,21.08667996205003,163,9,0.0,207,39771365683815,112,17.3,218.3262481689453,5.034000396728516,0,0.0,0.0,,,,,0,,3,,
Raw,12075582,12079497000000,,,-1291005709936242432,0.0,89.45346053224057,-27.688292264105964,21.08667996205003,163,7,0.0,207,39771366334217,1778,12.6,-451.9082336425781,28.05550193786621,0,0.0,0.0,,,,,0,,3,,
Raw,12075583,12079497000000,,,-1291005709936242432,0.0,89.45346053224057,-27.688292264105964,21.08667996205003,163,3,0.0,15,374589350141905,152,13.6,-482.993896484375,4.491500377655029,0,0.0,0.0,,,,,0,,1,,
Raw,12075584,12079497000000,,,-1291005709936242432,0.0,89.45346053224057,-27.688292264105964,21.08667996205003,163,10,0.0,15,374589355869693,409,18.5,647.7216186523438,13.019001007080078,0,0.0,0.0,,,,,0,,1,,
Raw,12075584,12079497000000,,,-1291005709936242432,0.0,89.45346053224057,-27.688292264105964,21.08667996205003,163,16,0.0,15,374589356114121,14,30.4,-652.1458129882812,0.049800001084804535,0,0.0,0.0,,,,,0,,1,,
Raw,12075585,12079497000000,,,-1291005709936242432,0.0,89.45346053224057,-27.688292264105964,21.08667996205003,163,22,0.0,15,374589353246811,40,21.7,-274.52716064453125,0.8059999942779541,0,0.0,0.0,,,,,0,,1,,
Raw,12075586,12079497000000,,,-1291005709936242432,0.0,89.45346053224057,-27.688292264105964,21.08667996205003,163,25,0.0,15,374589356494106,1612,11.2,625.6475219726562,26.50550079345703,0,0.0,0.0,,,,,0,,1,,
Raw,12075586,12079497000000,,,-1291005709936242432,0.0,89.45346053224057,-27.688292264105964,21.08667996205003,163,26,0.0,15,374589364135397,21,26.5,-288.9847717285156,0.11720000207424164,0,0.0,0.0,,,,,0,,1,,
Raw,12075587,12079497000000,,,-1291005709936242432,0.0,89.45346053224057,-27.688292264105964,21.08667996205003,163,31,0.0,15,374589362114732,510,14.1,25.670618057250977,14.229500770568848,0,0.0,0.0,,,,,0,,1,,
Raw,12075587,12079497000000,,,-1291005709936242432,0.0,89.45346053224057,-27.688292264105964,21.08667996205003,163,32,0.0,15,374589364932325,70,17.7,34.956947326660156,1.0824999809265137,0,0.0,0.0,,,,,0,,1,,
Raw,12075588,12079497000000,,,-1291005709936242432,0.0,89.45346053224057,-27.688292264105964,21.08667996205003,163,5,0.0,7183,374589349496186,1065,13.9,-407.6376037597656,6.457000255584717,0,0.0,0.0,,,,,0,,6,,
Raw,12075588,12079497000000,,,-1291005709936242432,0.0,89.45346053224057,-27.688292264105964,21.08667996205003,163,25,0.0,7183,374589345058925,19,27.1,-362.0051574707031,0.44200000166893005,0,0.0,0.0,,,,,0,,6,,
NMEA,$GPGSV,3,1,10,03,07,317,14,10,23,178,19,16,24,217,30,22,20,300,22*7F,1606982571508
NMEA,$GPGSV,3,2,10,25,25,036,11,26,59,234,27,31,48,341,14,32,68,080,18*77,1606982571508
NMEA,$GPGSV,3,3,10,23,00,000,,29,28,087,*77,1606982571508
NMEA,$GLGSV,3,1,10,74,30,262,28,75,00,000,37,70,67,167,12,73,51,331,17*6E,1606982571510
NMEA,$GLGSV,3,2,10,71,54,327,13,82,02,066,,80,21,028,,69,08,154,*68,1606982571512
NMEA,$GLGSV,3,3,10,83,03,109,,72,05,331,*65,1606982571512
NMEA,$GAGSV,1,1,02,05,40,323,14,25,24,236,27*6F,1606982571512
NMEA,$PQGSV,1,1,03,193,56,154,15,194,66,037,17,195,29,142,11,0,5*6A,1606982571513
NMEA,$PQGSV,4,1,16,02,40,240,26,05,00,000,28,06,67,030,13,07,73,213,14,0,4*62,1606982571513
NMEA,$PQGSV,4,2,16,08,02,189,16,13,07,212,19,16,66,022,14,21,67,268,18,0,4*6E,1606982571513
NMEA,$PQGSV,4,3,16,22,41,167,16,24,02,253,21,26,40,282,18,01,51,129,,0,4*64,1606982571513
NMEA,$PQGSV,4,4,16,03,59,202,,04,37,115,,09,51,338,,10,46,219,,0,4*6A,1606982571513
NMEA,$GNGSA,A,3,16,22,26,32,,,,,,,,,1.6,1.3,0.9,1*3F,1606982571514
NMEA,$GNGSA,A,2,74,,,,,,,,,,,,1.6,1.3,0.9,2*3C,1606982571514
NMEA,$GNGSA,A,2,05,25,,,,,,,,,,,1.6,1.3,0.9,3*3C,1606982571515
NMEA,$PQGSA,A,2,13,26,,,,,,,,,,,1.6,1.3,0.9,4*37,1606982571515
NMEA,$GNVTG,,T,,M,0.0,N,0.0,K,A*3D,1606982571515
NMEA,$GNRMC,080252.00,A,2255.525622,N,12017.677148,E,0.0,,031220,2.8,W,A*18,1606982571516
NMEA,$GNGGA,080252.00,2255.525622,N,12017.677148,E,1,09,1.3,34.2,M,17.5,M,,*48,1606982571517
Fix,gps,22.925427,120.294619,51.690308,0.000000,7.504000,1606982573000
NMEA,$GPGSV,3,1,10,03,07,317,20,10,23,178,19,16,24,217,31,22,20,300,21*7A,1606982572508
NMEA,$GPGSV,3,2,10,25,25,036,11,26,59,234,25,31,48,341,14,32,68,080,19*74,1606982572509
NMEA,$GPGSV,3,3,10,23,00,000,,29,28,087,*77,1606982572509
NMEA,$GLGSV,3,1,10,74,30,262,27,75,00,000,37,70,67,167,12,73,51,331,17*61,1606982572509
NMEA,$GLGSV,3,2,10,71,54,327,13,82,02,066,,80,21,028,,69,08,154,*68,1606982572509
NMEA,$GLGSV,3,3,10,83,03,109,,72,05,331,*65,1606982572509
NMEA,$GAGSV,1,1,02,05,40,323,14,25,24,236,28*60,1606982572509
NMEA,$PQGSV,1,1,03,193,56,154,16,194,66,037,17,195,29,142,11,0,5*69,1606982572510
Raw,12076593,12080497000000,,,-1291005709936242432,0.0,89.68031033873558,-24.48812068941384,19.544855502566996,163,10,0.0,207,39772361329455,19,27.4,-250.109375,0.2428000122308731,0,0.0,0.0,,,,,0,,3,,
Raw,12076594,12080497000000,,,-1291005709936242432,0.0,89.68031033873558,-24.48812068941384,19.544855502566996,163,11,0.0,207,39772354701981,8,36.9,-426.96917724609375,0.24220001697540283,0,0.0,0.0,,,,,0,,3,,
Raw,12076595,12080497000000,,,-1291005709936242432,0.0,89.68031033873558,-24.48812068941384,19.544855502566996,163,6,0.0,207,39772368425921,383,12.0,324.8384094238281,11.393500328063965,0,0.0,0.0,,,,,0,,3,,
Raw,12076595,12080497000000,,,-1291005709936242432,0.0,89.68031033873558,-24.48812068941384,19.544855502566996,163,9,0.0,207,39772365683087,146,17.3,218.3262481689453,6.534000396728516,0,0.0,0.0,,,,,0,,3,,
Raw,12076596,12080497000000,,,-1291005709936242432,0.0,89.68031033873558,-24.48812068941384,19.544855502566996,163,7,0.0,207,39772366335724,1965,12.6,-451.9082336425781,29.55550193786621,0,0.0,0.0,,,,,0,,3,,
Raw,12076596,12080497000000,,,-1291005709936242432,0.0,89.68031033873558,-24.48812068941384,19.544855502566996,163,3,0.0,15,374590350143666,53,19.5,-478.7027893066406,0.9314999580383301,0,0.0,0.0,,,,,0,,1,,
Raw,12076596,12080497000000,,,-1291005709936242432,0.0,89.68031033873558,-24.48812068941384,19.544855502566996,163,10,0.0,15,374590355867532,498,18.5,647.7216186523438,14.519001007080078,0,0.0,0.0,,,,,0,,1,,
Raw,12076597,12080497000000,,,-1291005709936242432,0.0,89.68031033873558,-24.48812068941384,19.544855502566996,163,16,0.0,15,374590356116301,14,30.9,-649.8755493164062,0.049800001084804535,0,0.0,0.0,,,,,0,,1,,
Raw,12076597,12080497000000,,,-1291005709936242432,0.0,89.68031033873558,-24.48812068941384,19.544855502566996,163,22,0.0,15,374590353247774,46,20.9,-271.3587646484375,0.8659999966621399,0,0.0,0.0,,,,,0,,1,,
Raw,12076598,12080497000000,,,-1291005709936242432,0.0,89.68031033873558,-24.48812068941384,19.544855502566996,163,25,0.0,15,374590356492019,1788,11.2,625.6475219726562,28.00550079345703,0,0.0,0.0,,,,,0,,1,,
Raw,12076598,12080497000000,,,-1291005709936242432,0.0,89.68031033873558,-24.48812068941384,19.544855502566996,163,26,0.0,15,374590364136330,27,24.6,-286.52520751953125,0.6225000023841858,0,0.0,0.0,,,,,0,,1,,
Raw,12076598,12080497000000,,,-1291005709936242432,0.0,89.68031033873558,-24.48812068941384,19.544855502566996,163,31,0.0,15,374590362114647,605,14.1,25.670618057250977,15.729500770568848,0,0.0,0.0,,,,,0,,1,,
