# 
# Header Description:
# 
# Version: v2.0.0.1 Platform: 8.0.0 Manufacturer: Sony Model: G8142
# 
# Raw,ElapsedRealtimeMillis,TimeNanos,LeapSecond,TimeUncertaintyNanos,FullBiasNanos,BiasNanos,BiasUncertaintyNanos,DriftNanosPerSecond,DriftUncertaintyNanosPerSecond,HardwareClockDiscontinuityCount,Svid,TimeOffsetNanos,State,ReceivedSvTimeNanos,ReceivedSvTimeUncertaintyNanos,Cn0DbHz,PseudorangeRateMetersPerSecond,PseudorangeRateUncertaintyMetersPerSecond,AccumulatedDeltaRangeState,AccumulatedDeltaRangeMeters,AccumulatedDeltaRangeUncertaintyMeters,CarrierFrequencyHz,CarrierCycles,CarrierPhase,CarrierPhaseUncertainty,MultipathIndicator,SnrInDb,ConstellationType,AgcDb,CarrierFrequencyHz
# 
# Fix,Provider,Latitude,Longitude,Altitude,Speed,Accuracy,(UTC)TimeInMs
# 
# Nav,Svid,Type,Status,MessageId,Sub-messageId,Data(Bytes)
# 
NMEA,$GPGSV,1,1,04,05,53,279,35,12,25,271,38,13,21,185,23,25,00,000,26*70,1594022110330
NMEA,$GLGSV,2,1,05,69,33,213,26,68,00,000,30,82,53,077,,83,42,355,*67,1594022110331
NMEA,$GLGSV,2,2,05,81,15,120,*5E,1594022110332
NMEA,$GAGSV,1,1,0,*74,1594022110332
NMEA,$PQGSV,1,1,02,195,72,127,19,193,70,066,,0,5*60,1594022110332
Raw,1238350,1241724000000,,,-1278056086725186816,0.0,1350.3553345799446,8.520682020685214,78.97130335550064,1,5,0.0,207,39310377821259,21,26.2,-606.9027099609375,0.3366999924182892,0,0.0,0.0,,,,,0,,3,,
Raw,1238351,1241724000000,,,-1278056086725186816,0.0,1350.3553345799446,8.520682020685214,78.97130335550064,1,4,0.0,207,39310385269851,16,29.6,48.887847900390625,0.23420000076293945,0,0.0,0.0,,,,,0,,3,,
Raw,1238351,1241724000000,,,-1278056086725186816,0.0,1350.3553345799446,8.520682020685214,78.97130335550064,1,5,0.0,15,114928379173132,10,34.9,-124.94327545166016,0.05060000345110893,0,0.0,0.0,,,,,0,,1,,
Raw,1238351,1241724000000,,,-1278056086725186816,0.0,1350.3553345799446,8.520682020685214,78.97130335550064,1,12,0.0,15,114928372016673,7,37.9,157.8542022705078,0.038600001484155655,0,0.0,0.0,,,,,0,,1,,
Raw,1238352,1241724000000,,,-1278056086725186816,0.0,1350.3553345799446,8.520682020685214,78.97130335550064,1,13,0.0,15,114928370797746,35,22.9,-671.7747192382812,0.7414999604225159,0,0.0,0.0,,,,,0,,1,,
Raw,1238352,1241724000000,,,-1278056086725186816,0.0,1350.3553345799446,8.520682020685214,78.97130335550064,1,25,0.0,15,114928367035246,21,26.3,-68.10992431640625,0.12170000374317169,0,0.0,0.0,,,,,0,,1,,
Raw,1238352,1241724000000,,,-1278056086725186816,0.0,1350.3553345799446,8.520682020685214,78.97130335550064,1,3,0.0,3,10658332,12,32.6,4.95461893081665,0.3334999978542328,0,0.0,0.0,,,,,0,,5,,
NMEA,$PQGSV,1,1,01,03,00,000,33,0,4*59,1594022110332
NMEA,$GPGSA,A,1,,,,,,,,,,,,,,,*1E,1594022110332
NMEA,$GNGSA,A,1,,,,,,,,,,,,,,,*00,1594022110332
NMEA,$PQGSA,A,1,,,,,,,,,,,,,,,*08,1594022110333
NMEA,$GPVTG,,T,,M,,N,,K,N*2C,1594022110333
NMEA,$GPRMC,,V,,,,,,,,,,N*53,1594022110333
NMEA,$GPGGA,,,,,,0,,,,,,,,*66,1594022110333
NMEA,$GPGSV,1,1,04,05,53,279,37,12,25,271,38,13,21,185,21,25,00,000,25*73,1594022111329
NMEA,$GLGSV,2,1,05,69,33,213,29,68,00,000,29,82,53,077,,83,42,355,*60,1594022111329
Raw,1239374,1242724000000,,,-1278056086725186816,0.0,1333.5170224308968,8.671015953579902,79.06485358849841,1,5,0.0,207,39311377823298,16,29.0,-607.8172607421875,0.25220000743865967,0,0.0,0.0,,,,,0,,3,,
Raw,1239374,1242724000000,,,-1278056086725186816,0.0,1333.5170224308968,8.671015953579902,79.06485358849841,1,4,0.0,207,39311385269675,16,29.2,48.01094055175781,0.23420000076293945,0,0.0,0.0,,,,,0,,3,,
Raw,1239374,1242724000000,,,-1278056086725186816,0.0,1333.5170224308968,8.671015953579902,79.06485358849841,1,5,0.0,15,114929379173554,8,36.5,-125.89816284179688,0.04970000311732292,0,0.0,0.0,,,,,0,,1,,
Raw,1239375,1242724000000,,,-1278056086725186816,0.0,1333.5170224308968,8.671015953579902,79.06485358849841,1,12,0.0,15,114929372016156,7,37.5,156.92254638671875,0.038600001484155655,0,0.0,0.0,,,,,0,,1,,
Raw,1239375,1242724000000,,,-1278056086725186816,0.0,1333.5170224308968,8.671015953579902,79.06485358849841,1,13,0.0,15,114929370799972,46,20.8,-671.850830078125,0.8614999651908875,0,0.0,0.0,,,,,0,,1,,
Raw,1239376,1242724000000,,,-1278056086725186816,0.0,1333.5170224308968,8.671015953579902,79.06485358849841,1,25,0.0,15,114929367035510,24,25.3,-69.04610443115234,0.392300009727478,0,0.0,0.0,,,,,0,,1,,
Raw,1239376,1242724000000,,,-1278056086725186816,0.0,1333.5170224308968,8.671015953579902,79.06485358849841,1,3,0.0,3,10658316,14,30.6,4.820191383361816,0.3935000002384186,0,0.0,0.0,,,,,0,,5,,
NMEA,$GLGSV,2,2,05,81,15,120,*5E,1594022111329
NMEA,$GAGSV,1,1,0,*74,1594022111330
NMEA,$PQGSV,1,1,02,195,72,127,19,193,70,066,,0,5*60,1594022111330
NMEA,$PQGSV,1,1,01,03,00,000,31,0,4*5B,1594022111330
NMEA,$GPGSA,A,1,,,,,,,,,,,,,,,*1E,1594022111330
NMEA,$GNGSA,A,1,,,,,,,,,,,,,,,*00,1594022111331
NMEA,$PQGSA,A,1,,,,,,,,,,,,,,,*08,1594022111332
NMEA,$GPVTG,,T,,M,,N,,K,N*2C,1594022111332
NMEA,$GPRMC,,V,,,,,,,,,,N*53,1594022111332
NMEA,$GPGGA,,,,,,0,,,,,,,,*66,1594022111333
Raw,1240357,1243724000000,,,-1278056086725186816,0.0,1320.3268172219396,6.318355872152513,78.7656379017543,1,5,0.0,207,39312377825389,17,28.7,-607.8056030273438,0.2587999999523163,0,0.0,0.0,,,,,0,,3,,
Raw,1240358,1243724000000,,,-1278056086725186816,0.0,1320.3268172219396,6.318355872152513,78.7656379017543,1,4,0.0,207,39312385269522,14,30.2,48.112586975097656,0.23330000042915344,0,0.0,0.0,,,,,0,,3,,
Raw,1240358,1243724000000,,,-1278056086725186816,0.0,1320.3268172219396,6.318355872152513,78.7656379017543,1,5,0.0,15,114930379173973,8,36.6,-125.88302612304688,0.04970000311732292,0,0.0,0.0,,,,,0,,1,,
Raw,1240359,1243724000000,,,-1278056086725186816,0.0,1320.3268172219396,6.318355872152513,78.7656379017543,1,12,0.0,15,114930372015642,8,36.8,156.95640563964844,0.03920000046491623,0,0.0,0.0,,,,,0,,1,,
Raw,1240360,1243724000000,,,-1278056086725186816,0.0,1320.3268172219396,6.318355872152513,78.7656379017543,1,13,0.0,15,114930370802246,35,22.4,-672.9450073242188,0.8014999628067017,0,0.0,0.0,,,,,0,,1,,
Raw,1240360,1243724000000,,,-1278056086725186816,0.0,1320.3268172219396,6.318355872152513,78.7656379017543,1,25,0.0,15,114930367035713,21,26.1,-68.98944854736328,0.12170000374317169,0,0.0,0.0,,,,,0,,1,,
Raw,1240361,1243724000000,,,-1278056086725186816,0.0,1320.3268172219396,6.318355872152513,78.7656379017543,1,3,0.0,3,10658310,17,28.5,4.925812721252441,0.44350001215934753,0,0.0,0.0,,,,,0,,5,,
NMEA,$GPGSV,1,1,04,05,53,279,37,12,25,271,37,13,21,185,22,25,00,000,26*7C,1594022112329
NMEA,$GLGSV,2,1,05,69,33,213,29,68,00,000,30,82,53,077,,83,42,355,*68,1594022112330
NMEA,$GLGSV,2,2,05,81,15,120,*5E,1594022112330
NMEA,$GAGSV,1,1,0,*74,1594022112331
NMEA,$PQGSV,1,1,02,195,72,127,20,193,70,066,,0,5*6A,1594022112331
NMEA,$PQGSV,1,1,01,03,00,000,29,0,4*52,1594022112331
NMEA,$GPGSA,A,1,,,,,,,,,,,,,,,*1E,1594022112332
NMEA,$GNGSA,A,1,,,,,,,,,,,,,,,*00,1594022112332
NMEA,$PQGSA,A,1,,,,,,,,,,,,,,,*08,1594022112332
NMEA,$GPVTG,,T,,M,,N,,K,N*2C,1594022112332
NMEA,$GPRMC,,V,,,,,,,,,,N*53,1594022112332
NMEA,$GPGGA,,,,,,0,,,,,,,,*66,1594022112332
NMEA,$GPGSV,2,1,05,05,53,279,36,12,25,271,37,13,21,185,23,25,00,000,26*7E,1594022113335
NMEA,$GPGSV,2,2,05,06,44,049,*47,1594022113336
Raw,1241366,1244724000000,,,-1278056086725186816,0.0,1304.8445107415318,5.773588319922335,78.62285036916664,1,5,0.0,207,39313377827388,16,29.9,-607.5634155273438,0.25220000743865967,0,0.0,0.0,,,,,0,,3,,
Raw,1241366,1244724000000,,,-1278056086725186816,0.0,1304.8445107415318,5.773588319922335,78.62285036916664,1,4,0.0,207,39313385269278,16,29.3,48.391475677490234,0.23420000076293945,0,0.0,0.0,,,,,0,,3,,
Raw,1241367,1244724000000,,,-1278056086725186816,0.0,1304.8445107415318,5.773588319922335,78.62285036916664,1,5,0.0,15,114931379174406,8,36.4,-125.70779418945312,0.04970000311732292,0,0.0,0.0,,,,,0,,1,,
Raw,1241367,1244724000000,,,-1278056086725186816,0.0,1304.8445107415318,5.773588319922335,78.62285036916664,1,12,0.0,15,114931372015116,7,37.0,157.16732788085938,0.038600001484155655,0,0.0,0.0,,,,,0,,1,,
Raw,1241368,1244724000000,,,-1278056086725186816,0.0,1304.8445107415318,5.773588319922335,78.62285036916664,1,13,0.0,15,114931370804488,35,22.6,-673.1543579101562,0.7414999604225159,0,0.0,0.0,,,,,0,,1,,
Raw,1241368,1244724000000,,,-1278056086725186816,0.0,1304.8445107415318,5.773588319922335,78.62285036916664,1,25,0.0,15,114931367035959,24,25.9,-68.77352142333984,0.392300009727478,0,0.0,0.0,,,,,0,,1,,
Raw,1241369,1244724000000,,,-1278056086725186816,0.0,1304.8445107415318,5.773588319922335,78.62285036916664,1,3,0.0,3,10658284,14,30.3,4.234470844268799,0.3935000002384186,0,0.0,0.0,,,,,0,,5,,
NMEA,$GLGSV,2,1,05,69,33,213,30,68,00,000,29,82,53,077,,83,42,355,*68,1594022113337
NMEA,$GLGSV,2,2,05,81,15,120,*5E,1594022113338
NMEA,$GAGSV,1,1,0,*74,1594022113340
NMEA,$PQGSV,1,1,02,195,72,127,19,193,70,066,,0,5*60,1594022113343
NMEA,$PQGSV,1,1,01,03,00,000,30,0,4*5A,1594022113344
NMEA,$GPGSA,A,1,,,,,,,,,,,,,,,*1E,1594022113345
NMEA,$GNGSA,A,1,,,,,,,,,,,,,,,*00,1594022113347
NMEA,$PQGSA,A,1,,,,,,,,,,,,,,,*08,1594022113347
NMEA,$GPVTG,,T,,M,,N,,K,N*2C,1594022113347
NMEA,$GPRMC,,V,,,,,,,,,,N*53,1594022113348
NMEA,$GPGGA,,,,,,0,,,,,,,,*66,1594022113348
NMEA,$GPGSV,2,1,05,05,53,279,36,06,44,049,18,12,25,271,37,13,21,185,24*78,1594022114338
Raw,1242382,1245724000000,,,-1278056086725186816,0.0,1290.363259613514,5.723909640611672,78.4211994826824,1,5,0.0,207,39314377829383,16,29.1,-606.9976806640625,0.25220000743865967,0,0.0,0.0,,,,,0,,3,,
Raw,1242382,1245724000000,,,-1278056086725186816,0.0,1290.363259613514,5.723909640611672,78.4211994826824,1,4,0.0,207,39314385269182,19,27.9,49.02185821533203,0.24880000948905945,0,0.0,0.0,,,,,0,,3,,
Raw,1242383,1245724000000,,,-1278056086725186816,0.0,1290.363259613514,5.723909640611672,78.4211994826824,1,5,0.0,15,114932379174800,8,36.4,-125.1503677368164,0.04970000311732292,0,0.0,0.0,,,,,0,,1,,
Raw,1242383,1245724000000,,,-1278056086725186816,0.0,1290.363259613514,5.723909640611672,78.4211994826824,1,6,0.0,15,114932376388467,750,17.7,74.55706024169922,2.060499906539917,0,0.0,0.0,,,,,0,,1,,
Raw,1242384,1245724000000,,,-1278056086725186816,0.0,1290.363259613514,5.723909640611672,78.4211994826824,1,12,0.0,15,114932372014588,8,36.6,157.73373413085938,0.03920000046491623,0,0.0,0.0,,,,,0,,1,,
Raw,1242384,1245724000000,,,-1278056086725186816,0.0,1290.363259613514,5.723909640611672,78.4211994826824,1,13,0.0,15,114932370806725,31,23.8,-672.7071533203125,0.6814999580383301,0,0.0,0.0,,,,,0,,1,,
Raw,1242385,1245724000000,,,-1278056086725186816,0.0,1290.363259613514,5.723909640611672,78.4211994826824,1,25,0.0,15,114932367036105,21,26.7,-68.20313262939453,0.12170000374317169,0,0.0,0.0,,,,,0,,1,,
Raw,1242385,1245724000000,,,-1278056086725186816,0.0,1290.363259613514,5.723909640611672,78.4211994826824,1,3,0.0,3,10658270,21,30.3,4.234470844268799,1.8935000896453857,0,0.0,0.0,,,,,0,,5,,
NMEA,$GPGSV,2,2,05,25,00,000,27*4E,1594022114338
NMEA,$GLGSV,2,1,05,69,33,213,29,68,00,000,28,82,53,077,,83,42,355,*61,1594022114339
NMEA,$GLGSV,2,2,05,81,15,120,*5E,1594022114339
NMEA,$GAGSV,1,1,0,*74,1594022114340
NMEA,$PQGSV,1,1,02,195,72,127,18,193,70,066,,0,5*61,1594022114340
NMEA,$PQGSV,1,1,01,03,00,000,30,0,4*5A,1594022114341
NMEA,$GPGSA,A,1,,,,,,,,,,,,,,,*1E,1594022114342
NMEA,$GNGSA,A,1,,,,,,,,,,,,,,,*00,1594022114345
NMEA,$PQGSA,A,1,,,,,,,,,,,,,,,*08,1594022114345
NMEA,$GPVTG,,T,,M,,N,,K,N*2C,1594022114346
NMEA,$GPRMC,,V,,,,,,,,,,N*53,1594022114346
NMEA,$GPGGA,,,,,,0,,,,,,,,*66,1594022114347
NMEA,$GPGSV,2,1,05,05,53,279,36,06,44,049,18,12,25,271,37,13,21,185,29*75,1594022115337
Raw,1243400,1246724000000,,,-1278056086725186816,0.0,1275.5232164636254,6.909421771255268,78.19526396348918,1,5,0.0,207,39315377831426,14,30.8,-606.8486328125,0.25130000710487366,0,0.0,0.0,,,,,0,,3,,
Raw,1243401,1246724000000,,,-1278056086725186816,0.0,1275.5232164636254,6.909421771255268,78.19526396348918,1,4,0.0,207,39315385269043,14,30.4,49.189842224121094,0.23330000042915344,0,0.0,0.0,,,,,0,,3,,
Raw,1243401,1246724000000,,,-1278056086725186816,0.0,1275.5232164636254,6.909421771255268,78.19526396348918,1,5,0.0,15,114933379175235,9,35.9,-125.02899169921875,0.05010000243782997,0,0.0,0.0,,,,,0,,1,,
Raw,1243401,1246724000000,,,-1278056086725186816,0.0,1275.5232164636254,6.909421771255268,78.19526396348918,1,6,0.0,15,114933376388267,756,18.1,74.30967712402344,2.810500144958496,0,0.0,0.0,,,,,0,,1,,
Raw,1243402,1246724000000,,,-1278056086725186816,0.0,1275.5232164636254,6.909421771255268,78.19526396348918,1,12,0.0,15,114933372014051,7,37.4,157.88340759277344,0.038600001484155655,0,0.0,0.0,,,,,0,,1,,
Raw,1243402,1246724000000,,,-1278056086725186816,0.0,1275.5232164636254,6.909421771255268,78.19526396348918,1,13,0.0,15,114933370808971,17,28.5,-672.4566650390625,0.04830000177025795,0,0.0,0.0,,,,,0,,1,,
Raw,1243402,1246724000000,,,-1278056086725186816,0.0,1275.5232164636254,6.909421771255268,78.19526396348918,1,25,0.0,15,114933367036382,27,24.9,-67.86823272705078,0.6270000338554382,0,0.0,0.0,,,,,0,,1,,
Raw,1243403,1246724000000,,,-1278056086725186816,0.0,1275.5232164636254,6.909421771255268,78.19526396348918,1,3,0.0,3,10658265,24,26.3,4.906609058380127,1.2735000848770142,0,0.0,0.0,,,,,0,,5,,
NMEA,$GPGSV,2,2,05,25,00,000,25*4C,1594022115338
NMEA,$GLGSV,2,1,05,69,33,213,31,68,00,000,30,82,53,077,,83,42,355,*61,1594022115339
NMEA,$GLGSV,2,2,05,81,15,120,*5E,1594022115340
NMEA,$GAGSV,1,1,0,*74,1594022115340
NMEA,$PQGSV,1,1,02,195,72,127,20,193,70,064,,0,5*68,1594022115342
NMEA,$PQGSV,1,1,01,03,00,000,26,0,4*5D,1594022115343
NMEA,$GPGSA,A,1,,,,,,,,,,,,,,,*1E,1594022115343
NMEA,$GNGSA,A,1,,,,,,,,,,,,,,,*00,1594022115344
NMEA,$PQGSA,A,1,,,,,,,,,,,,,,,*08,1594022115344
NMEA,$GPVTG,,T,,M,,N,,K,N*2C,1594022115345
NMEA,$GPRMC,,V,,,,,,,,,,N*53,1594022115346
NMEA,$GPGGA,,,,,,0,,,,,,,,*66,1594022115346
NMEA,$GPGSV,2,1,05,05,53,279,36,06,44,049,19,12,25,271,37,13,21,185,29*74,1594022116330
Raw,1244350,1247724000000,,,-1278056086725186816,0.0,1257.6410081237555,7.095320571020029,83.65733403163955,1,5,0.0,207,39316377833492,16,29.5,-606.184326171875,0.25220000743865967,0,0.0,0.0,,,,,0,,3,,
Raw,1244351,1247724000000,,,-1278056086725186816,0.0,1257.6410081237555,7.095320571020029,83.65733403163955,1,4,0.0,207,39316385268788,17,28.7,49.93217849731445,0.24080000817775726,0,0.0,0.0,,,,,0,,3,,
Raw,1244351,1247724000000,,,-1278056086725186816,0.0,1257.6410081237555,7.095320571020029,83.65733403163955,1,5,0.0,15,114934379175631,9,35.9,-124.36971282958984,0.05010000243782997,0,0.0,0.0,,,,,0,,1,,
Raw,1244352,1247724000000,,,-1278056086725186816,0.0,1257.6410081237555,7.095320571020029,83.65733403163955,1,6,0.0,15,114934376388014,666,19.3,74.45240020751953,3.4805002212524414,0,0.0,0.0,,,,,0,,1,,
Raw,1244352,1247724000000,,,-1278056086725186816,0.0,1257.6410081237555,7.095320571020029,83.65733403163955,1,12,0.0,15,114934372013533,8,36.8,158.54849243164062,0.03920000046491623,0,0.0,0.0,,,,,0,,1,,
Raw,1244353,1247724000000,,,-1278056086725186816,0.0,1257.6410081237555,7.095320571020029,83.65733403163955,1,13,0.0,15,114934370811232,16,29.1,-671.8626708984375,0.04170000180602074,0,0.0,0.0,,,,,0,,1,,
Raw,1244353,1247724000000,,,-1278056086725186816,0.0,1257.6410081237555,7.095320571020029,83.65733403163955,1,25,0.0,15,114934367036530,35,22.2,-66.8121109008789,0.796999990940094,0,0.0,0.0,,,,,0,,1,,
Raw,1244354,1247724000000,,,-1278056086725186816,0.0,1257.6410081237555,7.095320571020029,83.65733403163955,1,3,0.0,3,10658248,35,26.3,4.906609058380127,2.7735002040863037,0,0.0,0.0,,,,,0,,5,,
NMEA,$GPGSV,2,2,05,25,00,000,22*4B,1594022116330
NMEA,$GLGSV,2,1,05,69,33,213,30,68,00,000,29,82,53,077,,83,42,355,*68,1594022116330
NMEA,$GLGSV,2,2,05,81,15,120,*5E,1594022116332
NMEA,$GAGSV,1,1,0,*74,1594022116332
NMEA,$PQGSV,1,1,02,195,72,127,19,193,70,064,,0,5*62,1594022116332
NMEA,$PQGSV,1,1,01,03,00,000,26,0,4*5D,1594022116333
NMEA,$GPGSA,A,1,,,,,,,,,,,,,,,*1E,1594022116333
NMEA,$GNGSA,A,1,,,,,,,,,,,,,,,*00,1594022116333
NMEA,$PQGSA,A,1,,,,,,,,,,,,,,,*08,1594022116333
NMEA,$GPVTG,,T,,M,,N,,K,N*2C,1594022116333
NMEA,$GPRMC,,V,,,,,,,,,,N*53,1594022116333
NMEA,$GPGGA,,,,,,0,,,,,,,,*66,1594022116333
NMEA,$GPGSV,2,1,05,05,53,279,38,06,44,049,20,12,25,271,38,13,21,185,28*7E,1594022117329
NMEA,$GPGSV,2,2,05,25,00,000,23*4A,1594022117329
NMEA,$GLGSV,2,1,05,69,33,213,33,68,00,000,30,82,53,077,,83,42,355,*63,1594022117330
NMEA,$GLGSV,2,2,05,81,15,120,*5E,1594022117330
NMEA,$GAGSV,1,1,0,*74,1594022117330
NMEA,$PQGSV,1,1,02,195,72,127,20,193,70,064,,0,5*68,1594022117330
NMEA,$PQGSV,1,1,01,03,00,000,29,0,4*52,1594022117330
Raw,1245362,1248724000000,,,-1278056086725186816,0.0,1249.4671391323209,8.825650754096088,91.50002339951152,1,5,0.0,207,39317377835453,12,32.6,-606.023681640625,0.24940000474452972,0,0.0,0.0,,,,,0,,3,,
Raw,1245363,1248724000000,,,-1278056086725186816,0.0,1249.4671391323209,8.825650754096088,91.50002339951152,1,4,0.0,207,39317385268674,14,30.4,50.15028381347656,0.23330000042915344,0,0.0,0.0,,,,,0,,3,,
Raw,1245363,1248724000000,,,-1278056086725186816,0.0,1249.4671391323209,8.825650754096088,91.50002339951152,1,5,0.0,15,114935379176040,7,37.7,-124.23905944824219,0.04910000041127205,0,0.0,0.0,,,,,0,,1,,
Raw,1245363,1248724000000,,,-1278056086725186816,0.0,1249.4671391323209,8.825650754096088,91.50002339951152,1,6,0.0,15,114935376387576,54,19.6,75.93669128417969,1.3394999504089355,0,0.0,0.0,,,,,0,,1,,
Raw,1245364,1248724000000,,,-1278056086725186816,0.0,1249.4671391323209,8.825650754096088,91.50002339951152,1,12,0.0,15,114935372013014,6,38.3,158.70843505859375,0.038100000470876694,0,0.0,0.0,,,,,0,,1,,
Raw,1245364,1248724000000,,,-1278056086725186816,0.0,1249.4671391323209,8.825650754096088,91.50002339951152,1,13,0.0,15,114935370813456,19,27.5,-671.715576171875,0.056300003081560135,0,0.0,0.0,,,,,0,,1,,
Raw,1245364,1248724000000,,,-1278056086725186816,0.0,1249.4671391323209,8.825650754096088,91.50002339951152,1,25,0.0,15,114935367036804,35,22.9,-66.96434020996094,0.7369999885559082,0,0.0,0.0,,,,,0,,1,,
Raw,1245365,1248724000000,,,-1278056086725186816,0.0,1249.4671391323209,8.825650754096088,91.50002339951152,1,3,0.0,3,10658225,18,29.0,5.367504119873047,1.1635000705718994,0,0.0,0.0,,,,,0,,5,,
NMEA,$GPGSA,A,1,,,,,,,,,,,,,,,*1E,1594022117330
NMEA,$GNGSA,A,1,,,,,,,,,,,,,,,*00,1594022117331
NMEA,$PQGSA,A,1,,,,,,,,,,,,,,,*08,1594022117331
NMEA,$GPVTG,,T,,M,,N,,K,N*2C,1594022117331
NMEA,$GPRMC,,V,,,,,,,,,,N*53,1594022117331
NMEA,$GPGGA,,,,,,0,,,,,,,,*66,1594022117332
NMEA,$GPGSV,2,1,05,05,53,279,38,06,44,049,21,12,25,271,38,13,21,185,26*71,1594022118331
Raw,1246351,1249724000000,,,-1278056086725186816,0.0,1217.7168391644955,9.50828783496213,73.4944983621855,1,5,0.0,207,39318377837469,12,32.0,-606.3748779296875,0.24940000474452972,0,0.0,0.0,,,,,0,,3,,
Raw,1246352,1249724000000,,,-1278056086725186816,0.0,1217.7168391644955,9.50828783496213,73.4944983621855,1,4,0.0,207,39318385268473,14,30.0,49.86147689819336,0.23330000042915344,0,0.0,0.0,,,,,0,,3,,
Raw,1246353,1249724000000,,,-1278056086725186816,0.0,1217.7168391644955,9.50828783496213,73.4944983621855,1,5,0.0,15,114936379176476,7,37.5,-124.58655548095703,0.04910000041127205,0,0.0,0.0,,,,,0,,1,,
Raw,1246354,1249724000000,,,-1278056086725186816,0.0,1217.7168391644955,9.50828783496213,73.4944983621855,1,6,0.0,15,114936376387456,46,20.7,75.27066802978516,0.8704999685287476,0,0.0,0.0,,,,,0,,1,,
Raw,1246354,1249724000000,,,-1278056086725186816,0.0,1217.7168391644955,9.50828783496213,73.4944983621855,1,12,0.0,15,114936372012484,7,37.8,158.36900329589844,0.038600001484155655,0,0.0,0.0,,,,,0,,1,,
Raw,1246355,1249724000000,,,-1278056086725186816,0.0,1217.7168391644955,9.50828783496213,73.4944983621855,1,13,0.0,15,114936370815717,24,25.9,-672.2318725585938,0.3968000113964081,0,0.0,0.0,,,,,0,,1,,
Raw,1246356,1249724000000,,,-1278056086725186816,0.0,1217.7168391644955,9.50828783496213,73.4944983621855,1,25,0.0,15,114936367037071,46,20.8,-67.46862030029297,0.8569999933242798,0,0.0,0.0,,,,,0,,1,,
Raw,1246356,1249724000000,,,-1278056086725186816,0.0,1217.7168391644955,9.50828783496213,73.4944983621855,1,3,0.0,783,114922328658219,14,30.9,5.223474502563477,0.3634999990463257,0,0.0,0.0,,,,,0,,5,,
NMEA,$GPGSV,2,2,05,25,00,000,21*48,1594022118331
NMEA,$GLGSV,2,1,05,69,33,213,32,68,00,000,30,82,53,077,,83,42,355,*62,1594022118333
NMEA,$GLGSV,2,2,05,81,15,120,*5E,1594022118334
NMEA,$GAGSV,1,1,0,*74,1594022118334
NMEA,$PQGSV,1,1,02,195,72,127,20,193,70,064,,0,5*68,1594022118334
NMEA,$PQGSV,1,1,01,03,00,000,31,0,4*5B,1594022118334
NMEA,$GPGSA,A,1,,,,,,,,,,,,,,,*1E,1594022118334
NMEA,$GNGSA,A,1,,,,,,,,,,,,,,,*00,1594022118335
NMEA,$PQGSA,A,1,,,,,,,,,,,,,,,*08,1594022118335
NMEA,$GPVTG,,T,,M,,N,,K,N*2C,1594022118335
NMEA,$GPRMC,,V,,,,,,,,,,N*53,1594022118335
NMEA,$GPGGA,,,,,,0,,,,,,,,*66,1594022118335
NMEA,$GPGSV,2,1,05,05,53,279,37,12,25,271,38,13,21,185,27,25,00,000,22*70,1594022119336
Raw,1247373,1250724000000,,,-1278056086725186816,0.0,1208.919333294034,8.353244822430334,76.29147473126513,1,5,0.0,207,39319377839510,13,31.4,-605.7377319335938,0.2506999969482422,0,0.0,0.0,,,,,0,,3,,
Raw,1247374,1250724000000,,,-1278056086725186816,0.0,1208.919333294034,8.353244822430334,76.29147473126513,1,4,0.0,207,39319385268330,14,30.2,50.54135513305664,0.23330000042915344,0,0.0,0.0,,,,,0,,3,,
Raw,1247375,1250724000000,,,-1278056086725186816,0.0,1208.919333294034,8.353244822430334,76.29147473126513,1,5,0.0,15,114937379176891,7,37.0,-124.00950622558594,0.04910000041127205,0,0.0,0.0,,,,,0,,1,,
Raw,1247375,1250724000000,,,-1278056086725186816,0.0,1208.919333294034,8.353244822430334,76.29147473126513,1,12,0.0,15,114937372011949,6,38.1,158.9754638671875,0.038100000470876694,0,0.0,0.0,,,,,0,,1,,
Raw,1247376,1250724000000,,,-1278056086725186816,0.0,1208.919333294034,8.353244822430334,76.29147473126513,1,13,0.0,15,114937370817984,21,26.8,-671.6827392578125,0.12620000541210175,0,0.0,0.0,,,,,0,,1,,
Raw,1247376,1250724000000,,,-1278056086725186816,0.0,1208.919333294034,8.353244822430334,76.29147473126513,1,25,0.0,15,114937367037343,40,21.9,-66.76453399658203,0.796999990940094,0,0.0,0.0,,,,,0,,1,,
Raw,1247377,1250724000000,,,-1278056086725186816,0.0,1208.919333294034,8.353244822430334,76.29147473126513,1,3,0.0,783,114923328658190,13,31.1,7.431928634643555,0.3634999990463257,0,0.0,0.0,,,,,0,,5,,
NMEA,$GPGSV,2,2,05,06,44,049,*47,1594022119337
NMEA,$GLGSV,2,1,05,69,33,213,31,68,00,000,30,82,53,077,,83,42,355,*61,1594022119339
NMEA,$GLGSV,2,2,05,81,15,120,*5E,1594022119340
NMEA,$GAGSV,1,1,0,*74,1594022119340
NMEA,$PQGSV,1,1,02,195,72,127,20,193,70,064,,0,5*68,1594022119341
NMEA,$PQGSV,1,1,01,03,00,000,31,0,4*5B,1594022119341
NMEA,$GPGSA,A,1,,,,,,,,,,,,,,,*1E,1594022119342
NMEA,$GNGSA,A,1,,,,,,,,,,,,,,,*00,1594022119343
NMEA,$PQGSA,A,1,,,,,,,,,,,,,,,*08,1594022119344
NMEA,$GPVTG,,T,,M,,N,,K,N*2C,1594022119346
NMEA,$GPRMC,,V,,,,,,,,,,N*53,1594022119347
NMEA,$GPGGA,,,,,,0,,,,,,,,*66,1594022119348
NMEA,$GPGSV,2,1,05,05,53,279,37,12,25,271,39,13,21,185,27,25,00,000,22*71,1594022120337
Raw,1248376,1251724000000,,,-1278056086725186816,0.0,1191.8353848159313,9.688389847727429,70.13915994547594,1,5,0.0,207,39320377841524,14,30.9,-605.6640014648438,0.25130000710487366,0,0.0,0.0,,,,,0,,3,,
Raw,1248377,1251724000000,,,-1278056086725186816,0.0,1191.8353848159313,9.688389847727429,70.13915994547594,1,4,0.0,207,39320385268219,16,29.9,50.66691970825195,0.23420000076293945,0,0.0,0.0,,,,,0,,3,,
Raw,1248378,1251724000000,,,-1278056086725186816,0.0,1191.8353848159313,9.688389847727429,70.13915994547594,1,5,0.0,15,114938379177300,7,37.4,-123.94066619873047,0.04910000041127205,0,0.0,0.0,,,,,0,,1,,
Raw,1248379,1251724000000,,,-1278056086725186816,0.0,1191.8353848159313,9.688389847727429,70.13915994547594,1,12,0.0,15,114938372011416,6,39.0,159.05299377441406,0.03760000318288803,0,0.0,0.0,,,,,0,,1,,
Raw,1248379,1251724000000,,,-1278056086725186816,0.0,1191.8353848159313,9.688389847727429,70.13915994547594,1,13,0.0,15,114938370820219,21,26.9,-671.6879272460938,0.12620000541210175,0,0.0,0.0,,,,,0,,1,,
Raw,1248381,1251724000000,,,-1278056086725186816,0.0,1191.8353848159313,9.688389847727429,70.13915994547594,1,25,0.0,15,114938367037558,40,21.7,-66.99288940429688,0.796999990940094,0,0.0,0.0,,,,,0,,1,,
Raw,1248381,1251724000000,,,-1278056086725186816,0.0,1191.8353848159313,9.688389847727429,70.13915994547594,1,3,0.0,783,114924328658182,14,30.9,5.636359214782715,0.3634999990463257,0,0.0,0.0,,,,,0,,5,,
NMEA,$GPGSV,2,2,05,06,44,049,*47,1594022120337
NMEA,$GLGSV,2,1,05,69,33,213,31,68,00,000,30,82,53,077,,83,42,355,*61,1594022120338
NMEA,$GLGSV,2,2,05,81,15,120,*5E,1594022120338
NMEA,$GAGSV,1,1,0,*74,1594022120339
NMEA,$PQGSV,1,1,02,195,72,127,18,193,70,064,,0,5*63,1594022120340
NMEA,$PQGSV,1,1,01,03,00,000,31,0,4*5B,1594022120341
NMEA,$GPGSA,A,1,,,,,,,,,,,,,,,*1E,1594022120341
NMEA,$GNGSA,A,1,,,,,,,,,,,,,,,*00,1594022120342
NMEA,$PQGSA,A,1,,,,,,,,,,,,,,,*08,1594022120348
NMEA,$GPVTG,,T,,M,,N,,K,N*2C,1594022120356
NMEA,$GPRMC,,V,,,,,,,,,,N*53,1594022120359
NMEA,$GPGGA,,,,,,0,,,,,,,,*66,1594022120366
NMEA,$GPGSV,2,1,05,05,53,279,38,12,25,271,39,13,21,185,27,25,00,000,21*7D,1594022121336
Raw,1249375,1252724000000,,,-1278056086725186816,0.0,1180.679420940578,9.655889189981917,68.9148823485276,1,5,0.0,207,39321377843546,13,31.1,-604.9921264648438,0.2506999969482422,0,0.0,0.0,,,,,0,,3,,
Raw,1249376,1252724000000,,,-1278056086725186816,0.0,1180.679420940578,9.655889189981917,68.9148823485276,1,4,0.0,207,39321385267982,16,29.9,51.392147064208984,0.23420000076293945,0,0.0,0.0,,,,,0,,3,,
Raw,1249377,1252724000000,,,-1278056086725186816,0.0,1180.679420940578,9.655889189981917,68.9148823485276,1,5,0.0,15,114939379177719,7,37.7,-123.3085708618164,0.04910000041127205,0,0.0,0.0,,,,,0,,1,,
Raw,1249377,1252724000000,,,-1278056086725186816,0.0,1180.679420940578,9.655889189981917,68.9148823485276,1,12,0.0,15,114939372010887,6,38.9,159.7176971435547,0.038100000470876694,0,0.0,0.0,,,,,0,,1,,
Raw,1249378,1252724000000,,,-1278056086725186816,0.0,1180.679420940578,9.655889189981917,68.9148823485276,1,13,0.0,15,114939370822474,21,26.5,-671.0103149414062,0.12620000541210175,0,0.0,0.0,,,,,0,,1,,
Raw,1249378,1252724000000,,,-1278056086725186816,0.0,1180.679420940578,9.655889189981917,68.9148823485276,1,25,0.0,15,114939367037787,40,21.0,-65.94627380371094,0.8569999933242798,0,0.0,0.0,,,,,0,,1,,
Raw,1249379,1252724000000,,,-1278056086725186816,0.0,1180.679420940578,9.655889189981917,68.9148823485276,1,3,0.0,783,114925328658159,13,31.3,5.645960807800293,0.3634999990463257,0,0.0,0.0,,,,,0,,5,,
Raw,1249380,1252724000000,,,-1278056086725186816,0.0,1180.679420940578,9.655889189981917,68.9148823485276,1,10,0.0,1,761621,28,30.5,262.28753662109375,67.59149932861328,0,0.0,0.0,,,,,0,,5,,
NMEA,$GPGSV,2,2,05,06,44,049,*47,1594022121337
NMEA,$GLGSV,2,1,05,69,33,213,31,68,00,000,30,82,53,077,,83,42,355,*61,1594022121339
NMEA,$GLGSV,2,2,05,81,15,120,*5E,1594022121339
NMEA,$GAGSV,1,1,0,*74,1594022121340
NMEA,$PQGSV,1,1,02,195,72,127,18,193,70,064,,0,5*63,1594022121341
NMEA,$PQGSV,1,1,02,03,00,000,31,10,00,000,31,0,4*6B,1594022121341
NMEA,$GPGSA,A,1,,,,,,,,,,,,,,,*1E,1594022121344
NMEA,$GNGSA,A,1,,,,,,,,,,,,,,,*00,1594022121345
NMEA,$PQGSA,A,1,,,,,,,,,,,,,,,*08,1594022121346
NMEA,$GPVTG,,T,,M,,N,,K,N*2C,1594022121349
NMEA,$GPRMC,,V,,,,,,,,,,N*53,1594022121349
NMEA,$GPGGA,,,,,,0,,,,,,,,*66,1594022121350
NMEA,$GPGSV,2,1,05,05,53,279,38,06,44,049,20,12,25,271,39,13,21,185,27*70,1594022122337
NMEA,$GPGSV,2,2,05,25,00,000,21*48,1594022122339
NMEA,$GLGSV,2,1,06,69,33,213,31,68,00,000,30,82,53,077,,83,42,355,*62,1594022122339
Raw,1250381,1253724000000,,,-1278056086725186816,0.0,1170.699018985033,11.399817049572837,68.26432522293447,1,5,0.0,207,39322377845562,13,31.1,-605.0433349609375,0.2506999969482422,0,0.0,0.0,,,,,0,,3,,
Raw,1250381,1253724000000,,,-1278056086725186816,0.0,1170.699018985033,11.399817049572837,68.26432522293447,1,4,0.0,207,39322385267865,14,30.3,51.398521423339844,0.23330000042915344,0,0.0,0.0,,,,,0,,3,,
Raw,1250382,1253724000000,,,-1278056086725186816,0.0,1170.699018985033,11.399817049572837,68.26432522293447,1,5,0.0,15,114940379178137,7,37.5,-123.3779525756836,0.04910000041127205,0,0.0,0.0,,,,,0,,1,,
Raw,1250382,1253724000000,,,-1278056086725186816,0.0,1170.699018985033,11.399817049572837,68.26432522293447,1,6,0.0,15,114940376386385,562,20.4,76.84058380126953,1.1805000305175781,0,0.0,0.0,,,,,0,,1,,
Raw,1250383,1253724000000,,,-1278056086725186816,0.0,1170.699018985033,11.399817049572837,68.26432522293447,1,12,0.0,15,114940372010351,6,38.6,159.65875244140625,0.038100000470876694,0,0.0,0.0,,,,,0,,1,,
Raw,1250383,1253724000000,,,-1278056086725186816,0.0,1170.699018985033,11.399817049572837,68.26432522293447,1,13,0.0,15,114940370824670,21,26.7,-671.255859375,0.12620000541210175,0,0.0,0.0,,,,,0,,1,,
Raw,1250384,1253724000000,,,-1278056086725186816,0.0,1170.699018985033,11.399817049572837,68.26432522293447,1,25,0.0,15,114940367037957,40,21.4,-65.93675994873047,0.8569999933242798,0,0.0,0.0,,,,,0,,1,,
Raw,1250384,1253724000000,,,-1278056086725186816,0.0,1170.699018985033,11.399817049572837,68.26432522293447,1,3,0.0,783,114926328658121,13,31.2,7.873619079589844,0.3634999990463257,0,0.0,0.0,,,,,0,,5,,
Raw,1250385,1253724000000,,,-1278056086725186816,0.0,1170.699018985033,11.399817049572837,68.26432522293447,1,10,0.0,3,1760595,13,31.8,308.24212646484375,0.0357000008225441,0,0.0,0.0,,,,,0,,5,,
NMEA,$GLGSV,2,2,06,81,15,120,,67,33,025,*6B,1594022122341
NMEA,$GAGSV,1,1,0,*74,1594022122341
NMEA,$PQGSV,1,1,02,195,72,127,18,193,70,064,,0,5*63,1594022122342
NMEA,$PQGSV,1,1,02,03,00,000,31,10,00,000,32,0,4*68,1594022122342
NMEA,$GPGSA,A,1,,,,,,,,,,,,,,,*1E,1594022122343
NMEA,$GNGSA,A,1,,,,,,,,,,,,,,,*00,1594022122343
NMEA,$PQGSA,A,1,,,,,,,,,,,,,,,*08,1594022122344
NMEA,$GPVTG,,T,,M,,N,,K,N*2C,1594022122345
NMEA,$GPRMC,,V,,,,,,,,,,N*53,1594022122346
NMEA,$GPGGA,,,,,,0,,,,,,,,*66,1594022122346
Fix,gps,22.925325,120.294626,41.920227,0.000000,118.992004,1594022124000
Raw,1251366,1254724000000,,,-1278056086725186816,0.0,1161.5609982982278,10.916030678620169,67.9005201751054,1,5,0.0,207,39323377847603,13,31.0,-605.1888427734375,0.2506999969482422,0,0.0,0.0,,,,,0,,3,,
Raw,1251367,1254724000000,,,-1278056086725186816,0.0,1161.5609982982278,10.916030678620169,67.9005201751054,1,4,0.0,207,39323385267676,14,30.1,51.287132263183594,0.23330000042915344,0,0.0,0.0,,,,,0,,3,,
Raw,1251367,1254724000000,,,-1278056086725186816,0.0,1161.5609982982278,10.916030678620169,67.9005201751054,1,5,0.0,15,114941379178540,7,37.5,-123.544677734375,0.04910000041127205,0,0.0,0.0,,,,,0,,1,,
Raw,1251367,1254724000000,,,-1278056086725186816,0.0,1161.5609982982278,10.916030678620169,67.9005201751054,1,6,0.0,15,114941376386097,565,19.7,76.48854064941406,1.9305000305175781,0,0.0,0.0,,,,,0,,1,,
Raw,1251368,1254724000000,,,-1278056086725186816,0.0,1161.5609982982278,10.916030678620169,67.9005201751054,1,12,0.0,15,114941372009820,6,39.2,159.5008087158203,0.03760000318288803,0,0.0,0.0,,,,,0,,1,,
Raw,1251368,1254724000000,,,-1278056086725186816,0.0,1161.5609982982278,10.916030678620169,67.9005201751054,1,13,0.0,15,114941370826935,19,27.2,-671.503173828125,0.056300003081560135,0,0.0,0.0,,,,,0,,1,,
Raw,1251369,1254724000000,,,-1278056086725186816,0.0,1161.5609982982278,10.916030678620169,67.9005201751054,1,25,0.0,15,114941367038255,35,22.2,-66.7740478515625,0.796999990940094,0,0.0,0.0,,,,,0,,1,,
Raw,1251369,1254724000000,,,-1278056086725186816,0.0,1161.5609982982278,10.916030678620169,67.9005201751054,1,3,0.0,783,114927328658114,13,31.6,5.809194564819336,0.3634999990463257,0,0.0,0.0,,,,,0,,5,,
Raw,1251370,1254724000000,,,-1278056086725186816,0.0,1161.5609982982278,10.916030678620169,67.9005201751054,1,10,0.0,3,1759568,13,31.8,307.98358154296875,0.02670000120997429,0,0.0,0.0,,,,,0,,5,,
NMEA,$GPGSV,2,1,05,05,53,279,38,06,44,049,20,12,25,271,39,13,21,185,27*70,1594022123337
NMEA,$GPGSV,2,2,05,25,00,000,22*4B,1594022123338
NMEA,$GLGSV,2,1,06,69,33,213,31,68,00,000,30,82,53,077,,83,42,355,*62,1594022123341
NMEA,$GLGSV,2,2,06,81,15,120,,67,33,025,*6B,1594022123344
NMEA,$GAGSV,1,1,0,*74,1594022123345
NMEA,$PQGSV,1,1,02,193,70,064,13,195,72,127,18,0,5*61,1594022123345
NMEA,$PQGSV,1,1,02,03,00,000,32,10,00,000,32,0,4*6B,1594022123346
NMEA,$GPGSA,A,1,,,,,,,,,,,,,4.3,4.2,1.0,1*2D,1594022123350
NMEA,$GPVTG,,T,,M,0.0,N,0.0,K,A*23,1594022123359
NMEA,$GPRMC,075524.00,A,2255.519483,N,12017.677534,E,0.0,,060720,2.8,W,A*02,1594022123360
NMEA,$GPGGA,075524.00,2255.519483,N,12017.677534,E,1,00,4.2,24.5,M,17.5,M,,*58,1594022123361
NMEA,$GPGSV,2,1,05,05,53,279,38,06,44,049,20,12,25,271,39,13,21,185,27*70,1594022124336
NMEA,$GPGSV,2,2,05,25,00,000,24*4D,1594022124337
NMEA,$GLGSV,2,1,06,69,33,213,31,68,00,000,30,82,53,077,,83,42,355,*62,1594022124338
NMEA,$GLGSV,2,2,06,81,15,120,,67,33,025,*6B,1594022124338
NMEA,$GAGSV,1,1,0,*74,1594022124339
Raw,1252370,1255724000000,,,-1278056086725186816,0.0,1150.8602183312178,10.145384071989893,66.22991304228296,1,5,0.0,207,39324377849650,13,31.0,-605.4500122070312,0.2506999969482422,0,0.0,0.0,,,,,0,,3,,
Raw,1252371,1255724000000,,,-1278056086725186816,0.0,1150.8602183312178,10.145384071989893,66.22991304228296,1,4,0.0,207,39324385267495,14,30.1,51.10917663574219,0.23330000042915344,0,0.0,0.0,,,,,0,,3,,
Raw,1252371,1255724000000,,,-1278056086725186816,0.0,1150.8602183312178,10.145384071989893,66.22991304228296,1,5,0.0,15,114942379178953,7,37.6,-123.81871795654297,0.04910000041127205,0,0.0,0.0,,,,,0,,1,,
Raw,1252372,1255724000000,,,-1278056086725186816,0.0,1150.8602183312178,10.145384071989893,66.22991304228296,1,6,0.0,15,114942376385824,572,19.5,76.23164367675781,2.680500030517578,0,0.0,0.0,,,,,0,,1,,
Raw,1252372,1255724000000,,,-1278056086725186816,0.0,1150.8602183312178,10.145384071989893,66.22991304228296,1,12,0.0,15,114942372009289,6,38.9,159.24508666992188,0.038100000470876694,0,0.0,0.0,,,,,0,,1,,
Raw,1252372,1255724000000,,,-1278056086725186816,0.0,1150.8602183312178,10.145384071989893,66.22991304228296,1,13,0.0,15,114942370829178,19,27.2,-671.8637084960938,0.056300003081560135,0,0.0,0.0,,,,,0,,1,,
Raw,1252373,1255724000000,,,-1278056086725186816,0.0,1150.8602183312178,10.145384071989893,66.22991304228296,1,25,0.0,15,114942367038377,31,23.5,-66.2983169555664,0.6769999861717224,0,0.0,0.0,,,,,0,,1,,
Raw,1252373,1255724000000,,,-1278056086725186816,0.0,1150.8602183312178,10.145384071989893,66.22991304228296,1,3,0.0,783,114928328658089,13,31.1,6.366109371185303,0.3634999990463257,0,0.0,0.0,,,,,0,,5,,
Raw,1252374,1255724000000,,,-1278056086725186816,0.0,1150.8602183312178,10.145384071989893,66.22991304228296,1,10,0.0,3,1758550,13,31.4,307.6553955078125,0.02670000120997429,0,0.0,0.0,,,,,0,,5,,
NMEA,$PQGSV,1,1,02,193,70,064,13,195,72,127,19,0,5*60,1594022124339
NMEA,$PQGSV,1,1,02,03,00,000,31,10,00,000,31,0,4*6B,1594022124340
NMEA,$GPGSA,A,1,,,,,,,,,,,,,,,*1E,1594022124341
NMEA,$GNGSA,A,1,,,,,,,,,,,,,,,*00,1594022124341
NMEA,$PQGSA,A,1,,,,,,,,,,,,,,,*08,1594022124343
NMEA,$GPVTG,,T,,M,,N,,K,N*2C,1594022124344
NMEA,$GPRMC,,V,,,,,,,,,,N*53,1594022124344
NMEA,$GPGGA,,,,,,0,,,,,,,,*66,1594022124345
NMEA,$GPGSV,2,1,05,05,53,279,37,06,44,049,19,12,25,271,39,13,21,185,27*75,1594022125337
Raw,1253376,1256724000000,,,-1278056086725186816,0.0,1142.3301184549928,9.077616542911931,66.08454880646053,1,5,0.0,207,39325377851662,13,31.8,-605.1014404296875,0.2506999969482422,0,0.0,0.0,,,,,0,,3,,
Raw,1253377,1256724000000,,,-1278056086725186816,0.0,1142.3301184549928,9.077616542911931,66.08454880646053,1,4,0.0,207,39325385267363,16,29.7,51.523284912109375,0.23420000076293945,0,0.0,0.0,,,,,0,,3,,
Raw,1253377,1256724000000,,,-1278056086725186816,0.0,1142.3301184549928,9.077616542911931,66.08454880646053,1,5,0.0,15,114943379179373,7,37.2,-123.48650360107422,0.04910000041127205,0,0.0,0.0,,,,,0,,1,,
Raw,1253378,1256724000000,,,-1278056086725186816,0.0,1142.3301184549928,9.077616542911931,66.08454880646053,1,6,0.0,15,114943376385563,666,19.3,76.174560546875,3.510500192642212,0,0.0,0.0,,,,,0,,1,,
Raw,1253378,1256724000000,,,-1278056086725186816,0.0,1142.3301184549928,9.077616542911931,66.08454880646053,1,12,0.0,15,114943372008752,6,38.8,159.59791564941406,0.038100000470876694,0,0.0,0.0,,,,,0,,1,,
Raw,1253379,1256724000000,,,-1278056086725186816,0.0,1142.3301184549928,9.077616542911931,66.08454880646053,1,13,0.0,15,114943370831426,21,26.8,-671.5621337890625,0.12620000541210175,0,0.0,0.0,,,,,0,,1,,
Raw,1253380,1256724000000,,,-1278056086725186816,0.0,1142.3301184549928,9.077616542911931,66.08454880646053,1,25,0.0,15,114943367038649,31,23.2,-66.00335693359375,0.7369999885559082,0,0.0,0.0,,,,,0,,1,,
Raw,1253380,1256724000000,,,-1278056086725186816,0.0,1142.3301184549928,9.077616542911931,66.08454880646053,1,3,0.0,783,114929328658081,13,31.0,5.7611846923828125,0.3634999990463257,0,0.0,0.0,,,,,0,,5,,
Raw,1253381,1256724000000,,,-1278056086725186816,0.0,1142.3301184549928,9.077616542911931,66.08454880646053,1,10,0.0,3,1757521,13,31.1,307.9378967285156,0.02670000120997429,0,0.0,0.0,,,,,0,,5,,
NMEA,$GPGSV,2,2,05,25,00,000,23*4A,1594022125337
NMEA,$GLGSV,2,1,06,69,33,213,32,68,00,000,30,82,53,077,,83,42,355,*61,1594022125338
NMEA,$GLGSV,2,2,06,81,15,120,,67,33,025,*6B,1594022125339
NMEA,$GAGSV,1,1,0,*74,1594022125340
NMEA,$PQGSV,1,1,02,193,70,064,13,195,72,127,20,0,5*6A,1594022125340
NMEA,$PQGSV,1,1,02,03,00,000,31,10,00,000,31,0,4*6B,1594022125351
NMEA,$GPGSA,A,1,,,,,,,,,,,,,,,*1E,1594022125351
NMEA,$GNGSA,A,1,,,,,,,,,,,,,,,*00,1594022125352
NMEA,$PQGSA,A,1,,,,,,,,,,,,,,,*08,1594022125352
NMEA,$GPVTG,,T,,M,,N,,K,N*2C,1594022125353
NMEA,$GPRMC,,V,,,,,,,,,,N*53,1594022125355
NMEA,$GPGGA,,,,,,0,,,,,,,,*66,1594022125356
NMEA,$GPGSV,2,1,05,05,53,279,37,06,44,049,19,12,25,271,39,13,21,185,26*74,1594022126338
Raw,1254397,1257724000000,,,-1278056086725186816,0.0,1136.3433441147208,9.819687192557069,67.35518161271393,1,5,0.0,207,39326377853682,13,31.6,-604.8844604492188,0.2506999969482422,0,0.0,0.0,,,,,0,,3,,
Raw,1254397,1257724000000,,,-1278056086725186816,0.0,1136.3433441147208,9.819687192557069,67.35518161271393,1,4,0.0,207,39326385267196,16,29.3,51.779850006103516,0.23420000076293945,0,0.0,0.0,,,,,0,,3,,
Raw,1254398,1257724000000,,,-1278056086725186816,0.0,1136.3433441147208,9.819687192557069,67.35518161271393,1,5,0.0,15,114944379179782,7,37.4,-123.31250762939453,0.04910000041127205,0,0.0,0.0,,,,,0,,1,,
Raw,1254398,1257724000000,,,-1278056086725186816,0.0,1136.3433441147208,9.819687192557069,67.35518161271393,1,6,0.0,15,114944376385310,678,19.0,75.93669128417969,4.260499954223633,0,0.0,0.0,,,,,0,,1,,
Raw,1254399,1257724000000,,,-1278056086725186816,0.0,1136.3433441147208,9.819687192557069,67.35518161271393,1,12,0.0,15,114944372008221,6,38.8,159.80494689941406,0.038100000470876694,0,0.0,0.0,,,,,0,,1,,
Raw,1254399,1257724000000,,,-1278056086725186816,0.0,1136.3433441147208,9.819687192557069,67.35518161271393,1,13,0.0,15,114944370833655,21,26.3,-671.4285278320312,0.12620000541210175,0,0.0,0.0,,,,,0,,1,,
Raw,1254399,1257724000000,,,-1278056086725186816,0.0,1136.3433441147208,9.819687192557069,67.35518161271393,1,25,0.0,15,114944367038908,35,22.6,-66.06996154785156,0.7369999885559082,0,0.0,0.0,,,,,0,,1,,
Raw,1254400,1257724000000,,,-1278056086725186816,0.0,1136.3433441147208,9.819687192557069,67.35518161271393,1,3,0.0,783,114930328658055,13,31.5,7.508744716644287,0.3634999990463257,0,0.0,0.0,,,,,0,,5,,
Raw,1254400,1257724000000,,,-1278056086725186816,0.0,1136.3433441147208,9.819687192557069,67.35518161271393,1,10,0.0,3,1756500,13,31.6,308.031494140625,0.02670000120997429,0,0.0,0.0,,,,,0,,5,,
NMEA,$GPGSV,2,2,05,25,00,000,23*4A,1594022126338
NMEA,$GLGSV,2,1,06,69,33,213,32,68,82,299,29,82,53,077,,83,42,355,*61,1594022126339
NMEA,$GLGSV,2,2,06,81,15,120,,67,33,025,*6B,1594022126339
NMEA,$GAGSV,1,1,0,*74,1594022126340
NMEA,$PQGSV,1,1,02,193,70,064,13,195,72,127,19,0,5*60,1594022126340
NMEA,$PQGSV,1,1,02,03,00,000,32,10,00,000,32,0,4*6B,1594022126341
NMEA,$GPGSA,A,1,,,,,,,,,,,,,,,*1E,1594022126341
NMEA,$GNGSA,A,1,,,,,,,,,,,,,,,*00,1594022126342
NMEA,$PQGSA,A,1,,,,,,,,,,,,,,,*08,1594022126342
NMEA,$GPVTG,,T,,M,,N,,K,N*2C,1594022126343
NMEA,$GPRMC,,V,,,,,,,,,,N*53,1594022126343
NMEA,$GPGGA,,,,,,0,,,,,,,,*66,1594022126344
NMEA,$GPGSV,2,1,05,05,53,279,38,06,44,049,19,12,25,271,39,13,21,185,26*7B,1594022127330
NMEA,$GPGSV,2,2,05,25,00,000,23*4A,1594022127330
NMEA,$GLGSV,2,1,06,82,53,077,13,69,33,213,31,68,82,300,30,83,42,355,*69,1594022127331
NMEA,$GLGSV,2,2,06,81,15,120,,67,33,025,*6B,1594022127331
NMEA,$GAGSV,1,1,0,*74,1594022127331
NMEA,$PQGSV,1,1,02,193,70,064,13,195,72,127,21,0,5*6B,1594022127331
Raw,1255366,1258724000000,,,-1278056086725186816,0.0,1129.4520227238536,10.164152651107372,67.43582288061701,1,18,0.0,207,39327382075407,1703,12.9,29.926559448242188,10.079500198364258,0,0.0,0.0,,,,,0,,3,,
Raw,1255366,1258724000000,,,-1278056086725186816,0.0,1129.4520227238536,10.164152651107372,67.43582288061701,1,5,0.0,207,39327377855681,13,31.4,-604.4534301757812,0.2506999969482422,0,0.0,0.0,,,,,0,,3,,
Raw,1255366,1258724000000,,,-1278056086725186816,0.0,1129.4520227238536,10.164152651107372,67.43582288061701,1,4,0.0,207,39327385267005,16,29.8,52.24788284301758,0.23420000076293945,0,0.0,0.0,,,,,0,,3,,
Raw,1255366,1258724000000,,,-1278056086725186816,0.0,1129.4520227238536,10.164152651107372,67.43582288061701,1,5,0.0,15,114945379180189,7,37.5,-122.9048080444336,0.04910000041127205,0,0.0,0.0,,,,,0,,1,,
Raw,1255367,1258724000000,,,-1278056086725186816,0.0,1129.4520227238536,10.164152651107372,67.43582288061701,1,6,0.0,15,114945376385044,692,19.1,75.59416198730469,5.010500431060791,0,0.0,0.0,,,,,0,,1,,
Raw,1255367,1258724000000,,,-1278056086725186816,0.0,1129.4520227238536,10.164152651107372,67.43582288061701,1,12,0.0,15,114945372007678,6,39.3,160.2236785888672,0.03760000318288803,0,0.0,0.0,,,,,0,,1,,
Raw,1255367,1258724000000,,,-1278056086725186816,0.0,1129.4520227238536,10.164152651107372,67.43582288061701,1,13,0.0,15,114945370835890,24,25.9,-671.1029052734375,0.3968000113964081,0,0.0,0.0,,,,,0,,1,,
Raw,1255368,1258724000000,,,-1278056086725186816,0.0,1129.4520227238536,10.164152651107372,67.43582288061701,1,25,0.0,15,114945367039138,35,22.9,-65.62277221679688,0.7369999885559082,0,0.0,0.0,,,,,0,,1,,
Raw,1255368,1258724000000,,,-1278056086725186816,0.0,1129.4520227238536,10.164152651107372,67.43582288061701,1,3,0.0,783,114931328658040,13,31.1,7.9888434410095215,0.3634999990463257,0,0.0,0.0,,,,,0,,5,,
Raw,1255368,1258724000000,,,-1278056086725186816,0.0,1129.4520227238536,10.164152651107372,67.43582288061701,1,10,0.0,15,114931321755463,13,31.2,308.3606872558594,0.02670000120997429,0,0.0,0.0,,,,,0,,5,,
NMEA,$PQGSV,1,1,02,03,00,000,31,10,00,000,31,0,4*6B,1594022127331
NMEA,$GPGSA,A,1,,,,,,,,,,,,,,,*1E,1594022127331
NMEA,$GNGSA,A,1,,,,,,,,,,,,,,,*00,1594022127332
NMEA,$PQGSA,A,1,,,,,,,,,,,,,,,*08,1594022127332
NMEA,$GPVTG,,T,,M,,N,,K,N*2C,1594022127332
NMEA,$GPRMC,,V,,,,,,,,,,N*53,1594022127332
NMEA,$GPGGA,,,,,,0,,,,,,,,*66,1594022127332
NMEA,$GPGSV,2,1,05,05,53,279,38,06,44,049,19,12,25,271,39,13,21,185,27*7A,1594022128340
NMEA,$GPGSV,2,2,05,25,00,000,23*4A,1594022128341
NMEA,$GLGSV,2,1,06,82,53,077,13,69,33,213,31,68,82,300,30,83,42,355,*69,1594022128350
NMEA,$GLGSV,2,2,06,81,15,120,,67,33,025,*6B,1594022128356
NMEA,$GAGSV,1,1,0,*74,1594022128357
NMEA,$PQGSV,1,1,02,193,70,064,16,195,72,127,20,0,5*6F,1594022128360
Raw,1256389,1259724000000,,,-1278056086725186816,0.0,1091.8696643784642,11.860692234262983,35.87768818611947,1,18,0.0,207,39328382075323,374,12.9,30.0108585357666,11.204500198364258,0,0.0,0.0,,,,,0,,3,,
Raw,1256389,1259724000000,,,-1278056086725186816,0.0,1091.8696643784642,11.860692234262983,35.87768818611947,1,5,0.0,207,39328377857690,13,31.4,-605.2349243164062,0.2506999969482422,0,0.0,0.0,,,,,0,,3,,
Raw,1256390,1259724000000,,,-1278056086725186816,0.0,1091.8696643784642,11.860692234262983,35.87768818611947,1,4,0.0,207,39328385266853,16,29.9,51.52835464477539,0.23420000076293945,0,0.0,0.0,,,,,0,,3,,
Raw,1256390,1259724000000,,,-1278056086725186816,0.0,1091.8696643784642,11.860692234262983,35.87768818611947,1,5,0.0,15,114946379180601,7,37.5,-123.69727325439453,0.04910000041127205,0,0.0,0.0,,,,,0,,1,,
Raw,1256391,1259724000000,,,-1278056086725186816,0.0,1091.8696643784642,11.860692234262983,35.87768818611947,1,6,0.0,15,114946376384806,53,19.0,76.01280975341797,1.0295000076293945,0,0.0,0.0,,,,,0,,1,,
Raw,1256391,1259724000000,,,-1278056086725186816,0.0,1091.8696643784642,11.860692234262983,35.87768818611947,1,12,0.0,15,114946372007153,6,38.9,159.44764709472656,0.038100000470876694,0,0.0,0.0,,,,,0,,1,,
Raw,1256391,1259724000000,,,-1278056086725186816,0.0,1091.8696643784642,11.860692234262983,35.87768818611947,1,13,0.0,15,114946370838136,21,26.6,-671.9593505859375,0.12620000541210175,0,0.0,0.0,,,,,0,,1,,
Raw,1256392,1259724000000,,,-1278056086725186816,0.0,1091.8696643784642,11.860692234262983,35.87768818611947,1,25,0.0,15,114946367039265,31,23.3,-66.0985107421875,0.7369999885559082,0,0.0,0.0,,,,,0,,1,,
Raw,1256392,1259724000000,,,-1278056086725186816,0.0,1091.8696643784642,11.860692234262983,35.87768818611947,1,3,0.0,783,114932328658019,14,30.9,6.308497905731201,0.3634999990463257,0,0.0,0.0,,,,,0,,5,,
Raw,1256393,1259724000000,,,-1278056086725186816,0.0,1091.8696643784642,11.860692234262983,35.87768818611947,1,10,0.0,15,114932321754443,13,31.3,307.497314453125,0.02670000120997429,0,0.0,0.0,,,,,0,,5,,
Raw,1256393,1259724000000,,,-1278056086725186816,0.0,1091.8696643784642,11.860692234262983,35.87768818611947,1,13,0.0,1,494183,41,27.6,1.0178093910217285,67.64849853515625,0,0.0,0.0,,,,,0,,5,,
NMEA,$PQGSV,1,1,03,03,00,000,31,10,00,000,31,13,00,000,28,0,4*52,1594022128361
NMEA,$GPGSA,A,1,,,,,,,,,,,,,,,*1E,1594022128362
NMEA,$GNGSA,A,1,,,,,,,,,,,,,,,*00,1594022128363
NMEA,$PQGSA,A,1,,,,,,,,,,,,,,,*08,1594022128363
NMEA,$GPVTG,,T,,M,,N,,K,N*2C,1594022128365
NMEA,$GPRMC,,V,,,,,,,,,,N*53,1594022128366
NMEA,$GPGGA,,,,,,0,,,,,,,,*66,1594022128367
NMEA,$GPGSV,2,1,05,05,53,279,38,12,25,271,39,13,21,185,26,25,00,000,24*79,1594022129338
NMEA,$GPGSV,2,2,05,06,44,049,*47,1594022129339
NMEA,$GLGSV,2,1,06,82,53,077,13,69,33,213,32,68,82,300,30,83,42,355,*6A,1594022129344
Raw,1257381,1260724000000,,,-1278056086725186816,0.0,1091.8905027210712,11.860692234262983,42.47888058098159,1,18,0.0,207,39329382075223,448,12.9,30.0108585357666,12.704500198364258,0,0.0,0.0,,,,,0,,3,,
Raw,1257381,1260724000000,,,-1278056086725186816,0.0,1091.8905027210712,11.860692234262983,42.47888058098159,1,5,0.0,207,39329377859735,13,31.8,-605.3811645507812,0.2506999969482422,0,0.0,0.0,,,,,0,,3,,
Raw,1257382,1260724000000,,,-1278056086725186816,0.0,1091.8905027210712,11.860692234262983,42.47888058098159,1,4,0.0,207,39329385266652,16,29.8,51.4260139465332,0.23420000076293945,0,0.0,0.0,,,,,0,,3,,
Raw,1257382,1260724000000,,,-1278056086725186816,0.0,1091.8905027210712,11.860692234262983,42.47888058098159,1,5,0.0,15,114947379181005,6,38.0,-123.88764953613281,0.048600003123283386,0,0.0,0.0,,,,,0,,1,,
Raw,1257383,1260724000000,,,-1278056086725186816,0.0,1091.8905027210712,11.860692234262983,42.47888058098159,1,12,0.0,15,114947372006611,6,39.3,159.27830505371094,0.03760000318288803,0,0.0,0.0,,,,,0,,1,,
Raw,1257384,1260724000000,,,-1278056086725186816,0.0,1091.8905027210712,11.860692234262983,42.47888058098159,1,13,0.0,15,114947370840376,21,26.3,-672.2069702148438,0.12620000541210175,0,0.0,0.0,,,,,0,,1,,
Raw,1257384,1260724000000,,,-1278056086725186816,0.0,1091.8905027210712,11.860692234262983,42.47888058098159,1,25,0.0,15,114947367039580,27,24.3,-66.51715850830078,0.6769999861717224,0,0.0,0.0,,,,,0,,1,,
Raw,1257384,1260724000000,,,-1278056086725186816,0.0,1091.8905027210712,11.860692234262983,42.47888058098159,1,3,0.0,783,114933328658012,13,31.0,3.763974189758301,0.3634999990463257,0,0.0,0.0,,,,,0,,5,,
Raw,1257385,1260724000000,,,-1278056086725186816,0.0,1091.8905027210712,11.860692234262983,42.47888058098159,1,10,0.0,15,114933321753412,13,31.6,307.25848388671875,0.02670000120997429,0,0.0,0.0,,,,,0,,5,,
Raw,1257385,1260724000000,,,-1278056086725186816,0.0,1091.8905027210712,11.860692234262983,42.47888058098159,1,13,0.0,3,3494360,19,27.4,-44.159481048583984,0.5839999914169312,0,0.0,0.0,,,,,0,,5,,
NMEA,$GLGSV,2,2,06,81,15,120,,67,33,025,*6B,1594022129345
NMEA,$GAGSV,1,1,0,*74,1594022129347
NMEA,$PQGSV,1,1,02,193,70,064,16,195,72,127,20,0,5*6F,1594022129348
NMEA,$PQGSV,1,1,03,03,00,000,31,10,00,000,32,13,00,000,27,0,4*5E,1594022129349
NMEA,$GPGSA,A,1,,,,,,,,,,,,,,,*1E,1594022129350
NMEA,$GNGSA,A,1,,,,,,,,,,,,,,,*00,1594022129351
NMEA,$PQGSA,A,1,,,,,,,,,,,,,,,*08,1594022129352
NMEA,$GPVTG,,T,,M,,N,,K,N*2C,1594022129353
NMEA,$GPRMC,,V,,,,,,,,,,N*53,1594022129354
NMEA,$GPGGA,,,,,,0,,,,,,,,*66,1594022129355
Raw,1258368,1261724000000,,,-1278056086725186816,0.0,1091.8362531811,11.860692234262983,48.72342861811522,1,18,0.0,207,39330382075122,532,12.9,30.0108585357666,14.204501152038574,0,0.0,0.0,,,,,0,,3,,
Raw,1258369,1261724000000,,,-1278056086725186816,0.0,1091.8362531811,11.860692234262983,48.72342861811522,1,5,0.0,207,39330377861701,13,31.4,-605.4928588867188,0.2506999969482422,0,0.0,0.0,,,,,0,,3,,
Raw,1258369,1261724000000,,,-1278056086725186816,0.0,1091.8362531811,11.860692234262983,48.72342861811522,1,4,0.0,207,39330385266480,17,28.6,51.408870697021484,0.24080000817775726,0,0.0,0.0,,,,,0,,3,,
Raw,1258370,1261724000000,,,-1278056086725186816,0.0,1091.8362531811,11.860692234262983,48.72342861811522,1,5,0.0,15,114948379181417,7,37.8,-124.02275085449219,0.04910000041127205,0,0.0,0.0,,,,,0,,1,,
Raw,1258371,1261724000000,,,-1278056086725186816,0.0,1091.8362531811,11.860692234262983,48.72342861811522,1,12,0.0,15,114948372006082,6,39.2,159.17169189453125,0.03760000318288803,0,0.0,0.0,,,,,0,,1,,
Raw,1258372,1261724000000,,,-1278056086725186816,0.0,1091.8362531811,11.860692234262983,48.72342861811522,1,13,0.0,15,114948370842615,21,26.2,-672.4067993164062,0.12620000541210175,0,0.0,0.0,,,,,0,,1,,
Raw,1258372,1261724000000,,,-1278056086725186816,0.0,1091.8362531811,11.860692234262983,48.72342861811522,1,25,0.0,15,114948367039780,27,24.5,-66.53617858886719,0.6270000338554382,0,0.0,0.0,,,,,0,,1,,
Raw,1258373,1261724000000,,,-1278056086725186816,0.0,1091.8362531811,11.860692234262983,48.72342861811522,1,3,0.0,783,114934328657992,14,30.9,7.748794078826904,0.3634999990463257,0,0.0,0.0,,,,,0,,5,,
Raw,1258373,1261724000000,,,-1278056086725186816,0.0,1091.8362531811,11.860692234262983,48.72342861811522,1,10,0.0,15,114934321752394,13,31.0,307.052978515625,0.02670000120997429,0,0.0,0.0,,,,,0,,5,,
Raw,1258374,1261724000000,,,-1278056086725186816,0.0,1091.8362531811,11.860692234262983,48.72342861811522,1,13,0.0,3,3494515,19,27.4,-44.55036163330078,0.04580000042915344,0,0.0,0.0,,,,,0,,5,,
NMEA,$GPGSV,2,1,05,05,53,279,38,12,25,271,39,13,21,185,26,25,00,000,25*78,1594022130337
NMEA,$GPGSV,2,2,05,06,44,049,*47,1594022130337
NMEA,$GLGSV,2,1,06,82,53,077,13,69,33,213,31,68,82,300,29,83,42,355,*61,1594022130338
NMEA,$GLGSV,2,2,06,81,15,120,,67,33,025,*6B,1594022130338
NMEA,$GAGSV,1,1,0,*74,1594022130339
NMEA,$PQGSV,1,1,02,193,70,064,16,195,72,127,19,0,5*65,1594022130340
NMEA,$PQGSV,1,1,03,03,00,000,31,10,00,000,31,13,00,000,27,0,4*5D,1594022130340
NMEA,$GPGSA,A,1,,,,,,,,,,,,,,,*1E,1594022130341
NMEA,$GNGSA,A,1,,,,,,,,,,,,,,,*00,1594022130341
NMEA,$PQGSA,A,1,,,,,,,,,,,,,,,*08,1594022130342
NMEA,$GPVTG,,T,,M,,N,,K,N*2C,1594022130342
NMEA,$GPRMC,,V,,,,,,,,,,N*53,1594022130342
NMEA,$GPGGA,,,,,,0,,,,,,,,*66,1594022130344
NMEA,$GPGSV,2,1,05,05,53,279,38,06,44,049,20,12,25,271,39,13,21,185,26*71,1594022131339
NMEA,$GPGSV,2,2,05,25,00,000,24*4D,1594022131340
NMEA,$GLGSV,2,1,06,82,53,077,13,69,33,213,32,68,82,300,29,83,42,355,*62,1594022131340
NMEA,$GLGSV,2,2,06,81,15,120,,67,33,025,*6B,1594022131341
NMEA,$GAGSV,1,1,0,*74,1594022131341
NMEA,$PQGSV,1,1,02,193,70,064,16,195,72,127,19,0,5*65,1594022131342
NMEA,$PQGSV,1,1,03,03,00,000,30,10,00,000,31,13,00,000,28,0,4*53,1594022131342
NMEA,$GPGSA,A,1,,,,,,,,,,,,,,,*1E,1594022131343
NMEA,$GNGSA,A,1,,,,,,,,,,,,,,,*00,1594022131343
NMEA,$PQGSA,A,1,,,,,,,,,,,,,,,*08,1594022131344
Raw,1259404,1262724000000,,,-1278056086725186816,0.0,1092.0398635789752,11.860692234262983,54.95546214842714,1,18,0.0,207,39331382075022,625,12.9,30.0108585357666,15.704501152038574,0,0.0,0.0,,,,,0,,3,,
Raw,1259404,1262724000000,,,-1278056086725186816,0.0,1092.0398635789752,11.860692234262983,54.95546214842714,1,5,0.0,207,39331377863719,13,31.5,-605.298095703125,0.2506999969482422,0,0.0,0.0,,,,,0,,3,,
Raw,1259405,1262724000000,,,-1278056086725186816,0.0,1092.0398635789752,11.860692234262983,54.95546214842714,1,4,0.0,207,39331385266321,17,28.6,51.64700698852539,0.24080000817775726,0,0.0,0.0,,,,,0,,3,,
Raw,1259405,1262724000000,,,-1278056086725186816,0.0,1092.0398635789752,11.860692234262983,54.95546214842714,1,5,0.0,15,114949379181839,7,37.6,-123.83712768554688,0.04910000041127205,0,0.0,0.0,,,,,0,,1,,
Raw,1259406,1262724000000,,,-1278056086725186816,0.0,1092.0398635789752,11.860692234262983,54.95546214842714,1,6,0.0,15,114949376384049,565,19.7,75.47998046875,1.9005000591278076,0,0.0,0.0,,,,,0,,1,,
Raw,1259406,1262724000000,,,-1278056086725186816,0.0,1092.0398635789752,11.860692234262983,54.95546214842714,1,12,0.0,15,114949372005558,6,38.8,159.36813354492188,0.038100000470876694,0,0.0,0.0,,,,,0,,1,,
Raw,1259406,1262724000000,,,-1278056086725186816,0.0,1092.0398635789752,11.860692234262983,54.95546214842714,1,13,0.0,15,114949370844852,24,25.7,-672.1636352539062,0.3968000113964081,0,0.0,0.0,,,,,0,,1,,
Raw,1259407,1262724000000,,,-1278056086725186816,0.0,1092.0398635789752,11.860692234262983,54.95546214842714,1,25,0.0,15,114949367039940,27,24.2,-66.35540771484375,0.6769999861717224,0,0.0,0.0,,,,,0,,1,,
Raw,1259407,1262724000000,,,-1278056086725186816,0.0,1092.0398635789752,11.860692234262983,54.95546214842714,1,3,0.0,783,114935328657977,14,30.4,4.138451099395752,0.3935000002384186,0,0.0,0.0,,,,,0,,5,,
Raw,1259407,1262724000000,,,-1278056086725186816,0.0,1092.0398635789752,11.860692234262983,54.95546214842714,1,10,0.0,15,114935321751374,13,31.4,307.16961669921875,0.02670000120997429,0,0.0,0.0,,,,,0,,5,,
Raw,1259408,1262724000000,,,-1278056086725186816,0.0,1092.0398635789752,11.860692234262983,54.95546214842714,1,13,0.0,3,3494637,17,28.0,-44.45856475830078,0.03779999911785126,0,0.0,0.0,,,,,0,,5,,
NMEA,$GPVTG,,T,,M,,N,,K,N*2C,1594022131345
NMEA,$GPRMC,,V,,,,,,,,,,N*53,1594022131345
NMEA,$GPGGA,,,,,,0,,,,,,,,*66,1594022131346
NMEA,$GPGSV,2,1,05,05,53,279,38,06,44,049,19,12,25,271,39,13,21,185,26*7B,1594022132339
NMEA,$GPGSV,2,2,05,25,00,000,24*4D,1594022132340
Raw,1260401,1263724000000,,,-1278056086725186816,0.0,1092.8246192634106,11.860692234262983,60.82458134313928,1,18,0.0,207,39332382074922,729,12.9,30.0108585357666,17.204500198364258,0,0.0,0.0,,,,,0,,3,,
Raw,1260402,1263724000000,,,-1278056086725186816,0.0,1092.8246192634106,11.860692234262983,60.82458134313928,1,5,0.0,207,39332377865730,13,31.4,-605.0795288085938,0.2506999969482422,0,0.0,0.0,,,,,0,,3,,
Raw,1260402,1263724000000,,,-1278056086725186816,0.0,1092.8246192634106,11.860692234262983,60.82458134313928,1,4,0.0,207,39332385266122,16,29.6,51.90446472167969,0.23420000076293945,0,0.0,0.0,,,,,0,,3,,
Raw,1260402,1263724000000,,,-1278056086725186816,0.0,1092.8246192634106,11.860692234262983,60.82458134313928,1,5,0.0,15,114950379182255,7,37.9,-123.64221954345703,0.04910000041127205,0,0.0,0.0,,,,,0,,1,,
Raw,1260403,1263724000000,,,-1278056086725186816,0.0,1092.8246192634106,11.860692234262983,60.82458134313928,1,6,0.0,15,114950376383771,657,19.0,75.55610656738281,2.7305002212524414,0,0.0,0.0,,,,,0,,1,,
Raw,1260403,1263724000000,,,-1278056086725186816,0.0,1092.8246192634106,11.860692234262983,60.82458134313928,1,12,0.0,15,114950372005021,6,39.3,159.5691375732422,0.03760000318288803,0,0.0,0.0,,,,,0,,1,,
Raw,1260403,1263724000000,,,-1278056086725186816,0.0,1092.8246192634106,11.860692234262983,60.82458134313928,1,13,0.0,15,114950370847108,21,26.3,-672.1603393554688,0.12620000541210175,0,0.0,0.0,,,,,0,,1,,
Raw,1260404,1263724000000,,,-1278056086725186816,0.0,1092.8246192634106,11.860692234262983,60.82458134313928,1,25,0.0,15,114950367040241,31,23.8,-65.917724609375,0.6769999861717224,0,0.0,0.0,,,,,0,,1,,
Raw,1260404,1263724000000,,,-1278056086725186816,0.0,1092.8246192634106,11.860692234262983,60.82458134313928,1,3,0.0,783,114936328657957,14,30.5,4.541733741760254,0.3935000002384186,0,0.0,0.0,,,,,0,,5,,
Raw,1260404,1263724000000,,,-1278056086725186816,0.0,1092.8246192634106,11.860692234262983,60.82458134313928,1,10,0.0,15,114936321750339,13,31.5,307.2998962402344,0.02670000120997429,0,0.0,0.0,,,,,0,,5,,
Raw,1260404,1263724000000,,,-1278056086725186816,0.0,1092.8246192634106,11.860692234262983,60.82458134313928,1,13,0.0,3,3494809,19,27.5,-44.38554382324219,0.04580000042915344,0,0.0,0.0,,,,,0,,5,,
NMEA,$GLGSV,2,1,06,82,53,077,13,69,33,213,31,68,82,300,30,83,42,355,*69,1594022132341
NMEA,$GLGSV,2,2,06,81,15,120,,67,33,025,*6B,1594022132341
NMEA,$GAGSV,1,1,0,*74,1594022132342
NMEA,$PQGSV,1,1,02,193,70,064,16,195,72,127,18,0,5*64,1594022132342
NMEA,$PQGSV,1,1,03,03,00,000,31,10,00,000,32,13,00,000,28,0,4*51,1594022132343
NMEA,$GPGSA,A,1,,,,,,,,,,,,,,,*1E,1594022132344
NMEA,$GNGSA,A,1,,,,,,,,,,,,,,,*00,1594022132344
NMEA,$PQGSA,A,1,,,,,,,,,,,,,,,*08,1594022132345
NMEA,$GPVTG,,T,,M,,N,,K,N*2C,1594022132345
NMEA,$GPRMC,,V,,,,,,,,,,N*53,1594022132346
NMEA,$GPGGA,,,,,,0,,,,,,,,*66,1594022132347
Raw,1261366,1264724000000,,,-1278056086725186816,0.0,1093.391445465386,11.860692234262983,67.06286894574694,1,18,0.0,207,39333382074822,843,12.9,30.0108585357666,18.704500198364258,0,0.0,0.0,,,,,0,,3,,
Raw,1261367,1264724000000,,,-1278056086725186816,0.0,1093.391445465386,11.860692234262983,67.06286894574694,1,5,0.0,207,39333377867800,13,31.4,-604.5625,0.2506999969482422,0,0.0,0.0,,,,,0,,3,,
Raw,1261368,1264724000000,,,-1278056086725186816,0.0,1093.391445465386,11.860692234262983,67.06286894574694,1,3,0.0,207,39333377607943,1711,12.2,661.0682373046875,10.282000541687012,0,0.0,0.0,,,,,0,,3,,
Raw,1261368,1264724000000,,,-1278056086725186816,0.0,1093.391445465386,11.860692234262983,67.06286894574694,1,4,0.0,207,39333385265964,16,29.6,52.489261627197266,0.23420000076293945,0,0.0,0.0,,,,,0,,3,,
Raw,1261369,1264724000000,,,-1278056086725186816,0.0,1093.391445465386,11.860692234262983,67.06286894574694,1,5,0.0,15,114951379182665,6,38.2,-123.16454315185547,0.048600003123283386,0,0.0,0.0,,,,,0,,1,,
Raw,1261369,1264724000000,,,-1278056086725186816,0.0,1093.391445465386,11.860692234262983,67.06286894574694,1,12,0.0,15,114951372004490,6,39.5,160.08413696289062,0.03760000318288803,0,0.0,0.0,,,,,0,,1,,
Raw,1261370,1264724000000,,,-1278056086725186816,0.0,1093.391445465386,11.860692234262983,67.06286894574694,1,13,0.0,15,114951370849350,21,26.6,-671.7440185546875,0.12620000541210175,0,0.0,0.0,,,,,0,,1,,
Raw,1261370,1264724000000,,,-1278056086725186816,0.0,1093.391445465386,11.860692234262983,67.06286894574694,1,25,0.0,15,114951367040426,31,23.5,-65.2802505493164,0.6769999861717224,0,0.0,0.0,,,,,0,,1,,
Raw,1261371,1264724000000,,,-1278056086725186816,0.0,1093.391445465386,11.860692234262983,67.06286894574694,1,3,0.0,783,114937328657953,14,30.4,6.010836124420166,0.3935000002384186,0,0.0,0.0,,,,,0,,5,,
Raw,1261371,1264724000000,,,-1278056086725186816,0.0,1093.391445465386,11.860692234262983,67.06286894574694,1,10,0.0,15,114937321749321,13,31.2,307.7200622558594,0.02670000120997429,0,0.0,0.0,,,,,0,,5,,
Raw,1261371,1264724000000,,,-1278056086725186816,0.0,1093.391445465386,11.860692234262983,67.06286894574694,1,13,0.0,15,114937323494941,19,27.7,-43.96337127685547,0.04580000042915344,0,0.0,0.0,,,,,0,,5,,
NMEA,$GPGSV,2,1,05,05,53,279,38,12,25,271,40,13,21,185,27,25,00,000,24*76,1594022133338
NMEA,$GPGSV,2,2,05,06,44,049,*47,1594022133338
NMEA,$GLGSV,2,1,06,82,53,077,13,69,33,213,31,67,33,025,12,68,82,300,30*62,1594022133339
NMEA,$GLGSV,2,2,06,83,42,355,,81,15,120,*63,1594022133339
NMEA,$GAGSV,1,1,0,*74,1594022133340
NMEA,$PQGSV,1,1,02,193,70,064,16,195,72,127,19,0,5*65,1594022133340
NMEA,$PQGSV,1,1,03,03,00,000,30,10,00,000,31,13,00,000,28,0,4*53,1594022133341
NMEA,$GPGSA,A,1,,,,,,,,,,,,,,,*1E,1594022133342
NMEA,$GNGSA,A,1,,,,,,,,,,,,,,,*00,1594022133343
NMEA,$PQGSA,A,1,,,,,,,,,,,,,,,*08,1594022133345
NMEA,$GPVTG,,T,,M,,N,,K,N*2C,1594022133347
