# 
# Header Description:
# 
# Version: v2.0.0.1 Platform: 8.0.0 Manufacturer: Sony Model: G8142
# 
# Raw,ElapsedRealtimeMillis,TimeNanos,LeapSecond,TimeUncertaintyNanos,FullBiasNanos,BiasNanos,BiasUncertaintyNanos,DriftNanosPerSecond,DriftUncertaintyNanosPerSecond,HardwareClockDiscontinuityCount,Svid,TimeOffsetNanos,State,ReceivedSvTimeNanos,ReceivedSvTimeUncertaintyNanos,Cn0DbHz,PseudorangeRateMetersPerSecond,PseudorangeRateUncertaintyMetersPerSecond,AccumulatedDeltaRangeState,AccumulatedDeltaRangeMeters,AccumulatedDeltaRangeUncertaintyMeters,CarrierFrequencyHz,CarrierCycles,CarrierPhase,CarrierPhaseUncertainty,MultipathIndicator,SnrInDb,ConstellationType,AgcDb,CarrierFrequencyHz
# 
# Fix,Provider,Latitude,Longitude,Altitude,Speed,Accuracy,(UTC)TimeInMs
# 
# Nav,Svid,Type,Status,MessageId,Sub-messageId,Data(Bytes)
# 
Fix,gps,22.925297,120.294676,52.247437,0.000000,5.360000,1594024235000
Raw,3362384,3366737000000,,,-1278056086042160128,0.0,4216.8814688920975,10.82175594665731,11.71544729025697,1190,18,0.0,207,41434711048242,16,29.5,264.98138427734375,0.24620001018047333,0,0.0,0.0,,,,,0,,3,,
Raw,3362384,3366737000000,,,-1278056086042160128,0.0,4216.8814688920975,10.82175594665731,11.71544729025697,1190,5,0.0,207,41434711294567,7,37.4,-367.9322814941406,0.22910000383853912,0,0.0,0.0,,,,,0,,3,,
Raw,3362384,3366737000000,,,-1278056086042160128,0.0,4216.8814688920975,10.82175594665731,11.71544729025697,1190,4,0.0,207,41434713853706,35,22.4,332.26239013671875,0.9309999942779541,0,0.0,0.0,,,,,0,,3,,
Raw,3362384,3366737000000,,,-1278056086042160128,0.0,4216.8814688920975,10.82175594665731,11.71544729025697,1190,5,0.0,15,117052709536683,9,35.8,10.889385223388672,0.02850000187754631,0,0.0,0.0,,,,,0,,1,,
Raw,3362385,3366737000000,,,-1278056086042160128,0.0,4216.8814688920975,10.82175594665731,11.71544729025697,1190,9,0.0,15,117052697479212,40,21.4,601.9274291992188,0.8569999933242798,0,0.0,0.0,,,,,0,,1,,
Raw,3362385,3366737000000,,,-1278056086042160128,0.0,4216.8814688920975,10.82175594665731,11.71544729025697,1190,12,0.0,15,117052700279793,8,36.2,314.50469970703125,0.04400000348687172,0,0.0,0.0,,,,,0,,1,,
Raw,3362385,3366737000000,,,-1278056086042160128,0.0,4216.8814688920975,10.82175594665731,11.71544729025697,1190,13,0.0,15,117052705368588,14,30.8,-606.5769653320312,0.06430000066757202,0,0.0,0.0,,,,,0,,1,,
Raw,3362385,3366737000000,,,-1278056086042160128,0.0,4216.8814688920975,10.82175594665731,11.71544729025697,1190,15,0.0,15,117052697965569,27,24.7,-721.412841796875,0.6270000338554382,0,0.0,0.0,,,,,0,,1,,
Raw,3362386,3366737000000,,,-1278056086042160128,0.0,4216.8814688920975,10.82175594665731,11.71544729025697,1190,19,0.0,15,117052704307718,21,26.3,612.8224487304688,0.13369999825954437,0,0.0,0.0,,,,,0,,1,,
Raw,3362386,3366737000000,,,-1278056086042160128,0.0,4216.8814688920975,10.82175594665731,11.71544729025697,1190,25,0.0,15,117052696806983,14,30.6,121.22123718261719,0.05079999938607216,0,0.0,0.0,,,,,0,,1,,
Raw,3362386,3366737000000,,,-1278056086042160128,0.0,4216.8814688920975,10.82175594665731,11.71544729025697,1190,29,0.0,15,117052696891144,24,25.9,-660.0115966796875,0.20340000092983246,0,0.0,0.0,,,,,0,,1,,
NMEA,$GPGSV,4,1,13,05,55,309,36,09,12,039,21,12,21,254,36,13,37,182,31*7E,1594024234184
NMEA,$GPGSV,4,2,13,15,13,208,25,19,35,150,26,25,10,282,31,29,09,322,26*71,1594024234184
NMEA,$GPGSV,4,3,13,02,55,009,,06,40,071,,07,06,082,,17,16,150,*7D,1594024234184
NMEA,$GPGSV,4,4,13,30,10,113,*4A,1594024234185
NMEA,$GLGSV,2,1,07,82,47,109,30,69,48,232,37,68,65,354,22,84,09,330,*6D,1594024234185
NMEA,$GLGSV,2,2,07,83,58,014,,81,04,135,,67,16,026,*59,1594024234185
NMEA,$GAGSV,1,1,0,*74,1594024234186
NMEA,$PQGSV,1,1,03,195,68,146,23,193,69,052,,194,11,158,,0,5*6B,1594024234187
NMEA,$PQGSV,1,1,0,*73,1594024234187
NMEA,$GNGSA,A,3,05,12,13,15,19,25,29,,,,,,1.4,1.1,0.9,1*39,1594024234189
NMEA,$GNGSA,A,2,68,69,,,,,,,,,,,1.4,1.1,0.9,2*3E,1594024234189
NMEA,$GNVTG,,T,,M,0.0,N,0.0,K,A*3D,1594024234189
NMEA,$GNRMC,083035.00,A,2255.517833,N,12017.680565,E,0.0,,060720,2.8,W,A*15,1594024234189
NMEA,$GNGGA,083035.00,2255.517833,N,12017.680565,E,1,09,1.1,34.8,M,17.5,M,,*4C,1594024234189
Raw,3363394,3367727000000,,,-1278056086042110208,0.0,4238.363821059465,1.6226597754074878,11.56509108955655,1191,18,0.0,207,41435700997613,17,28.7,262.9403991699219,0.27079999446868896,0,0.0,0.0,,,,,0,,3,,
Raw,3363395,3367727000000,,,-1278056086042110208,0.0,4238.363821059465,1.6226597754074878,11.56509108955655,1191,5,0.0,207,41435701246013,7,37.4,-370.03314208984375,0.24410000443458557,0,0.0,0.0,,,,,0,,3,,
Raw,3363395,3367727000000,,,-1278056086042110208,0.0,4238.363821059465,1.6226597754074878,11.56509108955655,1191,4,0.0,207,41435703803039,16,29.1,330.14141845703125,0.23420000076293945,0,0.0,0.0,,,,,0,,3,,
Raw,3363396,3367727000000,,,-1278056086042110208,0.0,4238.363821059465,1.6226597754074878,11.56509108955655,1191,5,0.0,15,117053699486885,10,34.4,8.9694185256958,0.04560000076889992,0,0.0,0.0,,,,,0,,1,,
Raw,3363396,3367727000000,,,-1278056086042110208,0.0,4238.363821059465,1.6226597754074878,11.56509108955655,1191,12,0.0,15,117053690229064,10,34.6,312.2231140136719,0.032099999487400055,0,0.0,0.0,,,,,0,,1,,
Raw,3363396,3367727000000,,,-1278056086042110208,0.0,4238.363821059465,1.6226597754074878,11.56509108955655,1191,13,0.0,15,117053695320820,11,33.4,-608.65087890625,0.04150000214576721,0,0.0,0.0,,,,,0,,1,,
Raw,3363397,3367727000000,,,-1278056086042110208,0.0,4238.363821059465,1.6226597754074878,11.56509108955655,1191,15,0.0,15,117053687918193,13,31.6,-722.6878051757812,0.3619999885559082,0,0.0,0.0,,,,,0,,1,,
Raw,3363397,3367727000000,,,-1278056086042110208,0.0,4238.363821059465,1.6226597754074878,11.56509108955655,1191,19,0.0,15,117053694255911,16,29.0,611.116455078125,0.050700001418590546,0,0.0,0.0,,,,,0,,1,,
Raw,3363397,3367727000000,,,-1278056086042110208,0.0,4238.363821059465,1.6226597754074878,11.56509108955655,1191,25,0.0,15,117053686756845,14,30.2,118.9550552368164,0.03579999879002571,0,0.0,0.0,,,,,0,,1,,
Raw,3363398,3367727000000,,,-1278056086042110208,0.0,4238.363821059465,1.6226597754074878,11.56509108955655,1191,29,0.0,15,117053686843555,31,23.6,-661.8889770507812,0.6604999899864197,0,0.0,0.0,,,,,0,,1,,
Fix,gps,22.925297,120.294676,52.222961,0.000000,5.360000,1594024236000
NMEA,$GPGSV,3,1,12,05,55,309,34,12,21,254,35,13,37,182,33,15,13,208,32*75,1594024235184
NMEA,$GPGSV,3,2,12,19,35,150,29,25,10,282,30,29,09,322,24,02,55,009,*7B,1594024235184
NMEA,$GPGSV,3,3,12,06,40,071,,07,06,082,,17,16,150,,30,10,113,*71,1594024235184
NMEA,$GLGSV,2,1,07,82,47,109,29,69,48,232,37,68,65,354,29,84,09,330,*6E,1594024235185
NMEA,$GLGSV,2,2,07,83,58,014,,81,04,135,,67,16,026,*59,1594024235185
NMEA,$GAGSV,1,1,0,*74,1594024235185
NMEA,$PQGSV,1,1,02,193,69,052,,194,11,158,,0,5*6B,1594024235186
NMEA,$PQGSV,1,1,0,*73,1594024235186
NMEA,$GNGSA,A,3,05,12,13,15,19,25,29,,,,,,1.4,1.1,0.9,1*39,1594024235187
NMEA,$GNGSA,A,2,68,69,,,,,,,,,,,1.4,1.1,0.9,2*3E,1594024235187
NMEA,$GNVTG,,T,,M,0.0,N,0.0,K,A*3D,1594024235187
NMEA,$GNRMC,083036.00,A,2255.517833,N,12017.680565,E,0.0,,060720,2.8,W,A*16,1594024235187
NMEA,$GNGGA,083036.00,2255.517833,N,12017.680565,E,1,09,1.1,34.8,M,17.5,M,,*4F,1594024235188
Raw,3364391,3368720000000,,,-1278056086041702912,0.0,4255.976062268019,-5.485248070442283,12.362082896204825,1192,18,0.0,207,41436693589571,16,29.1,263.27886962890625,0.2492000013589859,0,0.0,0.0,,,,,0,,3,,
Raw,3364392,3368720000000,,,-1278056086041702912,0.0,4255.976062268019,-5.485248070442283,12.362082896204825,1192,5,0.0,207,41436693840080,8,36.8,-369.70806884765625,0.23350000381469727,0,0.0,0.0,,,,,0,,3,,
Raw,3364392,3368720000000,,,-1278056086041702912,0.0,4255.976062268019,-5.485248070442283,12.362082896204825,1192,4,0.0,207,41436696394673,16,29.9,330.4764404296875,0.25370001792907715,0,0.0,0.0,,,,,0,,3,,
Raw,3364393,3368720000000,,,-1278056086041702912,0.0,4255.976062268019,-5.485248070442283,12.362082896204825,1192,5,0.0,15,117054692079665,10,34.7,9.272647857666016,0.035100001841783524,0,0.0,0.0,,,,,0,,1,,
Raw,3364393,3368720000000,,,-1278056086041702912,0.0,4255.976062268019,-5.485248070442283,12.362082896204825,1192,12,0.0,15,117054682820822,9,35.4,312.52532958984375,0.04800000041723251,0,0.0,0.0,,,,,0,,1,,
Raw,3364393,3368720000000,,,-1278056086041702912,0.0,4255.976062268019,-5.485248070442283,12.362082896204825,1192,13,0.0,15,117054687915642,13,31.2,-608.3968505859375,0.034299999475479126,0,0.0,0.0,,,,,0,,1,,
Raw,3364394,3368720000000,,,-1278056086041702912,0.0,4255.976062268019,-5.485248070442283,12.362082896204825,1192,15,0.0,15,117054680513374,13,31.3,-722.3804321289062,0.05380000174045563,0,0.0,0.0,,,,,0,,1,,
Raw,3364394,3368720000000,,,-1278056086041702912,0.0,4255.976062268019,-5.485248070442283,12.362082896204825,1192,19,0.0,15,117054686846736,21,26.0,611.38818359375,0.10669999569654465,0,0.0,0.0,,,,,0,,1,,
Raw,3364395,3368720000000,,,-1278056086041702912,0.0,4255.976062268019,-5.485248070442283,12.362082896204825,1192,25,0.0,15,117054679349292,16,29.1,119.30450439453125,0.05820000171661377,0,0.0,0.0,,,,,0,,1,,
Raw,3364395,3368720000000,,,-1278056086041702912,0.0,4255.976062268019,-5.485248070442283,12.362082896204825,1192,29,0.0,15,117054679438595,31,23.5,-661.9365234375,0.6800000071525574,0,0.0,0.0,,,,,0,,1,,
Fix,gps,22.925297,120.294676,52.222412,0.000000,6.432000,1594024237000
NMEA,$GPGSV,4,1,13,05,55,309,35,12,21,254,35,13,37,182,31,15,13,208,31*73,1594024236190
NMEA,$GPGSV,4,2,13,19,35,150,26,25,10,282,29,29,09,322,24,02,55,009,*7A,1594024236191
NMEA,$GPGSV,4,3,13,06,40,071,,07,06,082,,09,12,039,,17,16,150,*76,1594024236192
NMEA,$GPGSV,4,4,13,30,10,113,*4A,1594024236192
NMEA,$GLGSV,2,1,07,82,47,109,29,69,48,232,37,68,65,354,30,84,09,330,*66,1594024236192
NMEA,$GLGSV,2,2,07,83,58,014,,81,04,135,,67,16,026,*59,1594024236193
NMEA,$GAGSV,1,1,0,*74,1594024236193
NMEA,$PQGSV,1,1,03,193,69,052,,194,11,158,,195,68,146,,0,5*6A,1594024236193
NMEA,$PQGSV,1,1,0,*73,1594024236193
NMEA,$GNGSA,A,3,05,12,13,15,19,25,29,,,,,,1.4,1.1,0.9,1*39,1594024236194
NMEA,$GNGSA,A,2,68,69,,,,,,,,,,,1.4,1.1,0.9,2*3E,1594024236194
NMEA,$GNVTG,,T,,M,0.0,N,0.0,K,A*3D,1594024236194
NMEA,$GNRMC,083037.00,A,2255.517833,N,12017.680564,E,0.0,,060720,2.8,W,A*16,1594024236195
NMEA,$GNGGA,083037.00,2255.517833,N,12017.680564,E,1,09,1.1,34.8,M,17.5,M,,*4F,1594024236195
Raw,3365391,3369733000000,,,-1278056086040718336,0.0,4277.331288903952,-4.42881843323671,14.132666909815223,1193,18,0.0,207,41437705603477,16,29.5,264.8289489746094,0.23720000684261322,0,0.0,0.0,,,,,0,,3,,
Raw,3365393,3369733000000,,,-1278056086040718336,0.0,4277.331288903952,-4.42881843323671,14.132666909815223,1193,5,0.0,207,41437705856223,7,37.2,-368.0673828125,0.22010000050067902,0,0.0,0.0,,,,,0,,3,,
Raw,3365394,3369733000000,,,-1278056086040718336,0.0,4277.331288903952,-4.42881843323671,14.132666909815223,1193,4,0.0,207,41437708408479,16,29.9,332.119384765625,0.24170000851154327,0,0.0,0.0,,,,,0,,3,,
Raw,3365395,3369733000000,,,-1278056086040718336,0.0,4277.331288903952,-4.42881843323671,14.132666909815223,1193,5,0.0,15,117055704094591,10,34.7,10.78711986541748,0.05310000106692314,0,0.0,0.0,,,,,0,,1,,
Raw,3365397,3369733000000,,,-1278056086040718336,0.0,4277.331288903952,-4.42881843323671,14.132666909815223,1193,12,0.0,15,117055694834702,9,35.7,314.0865173339844,0.036000002175569534,0,0.0,0.0,,,,,0,,1,,
Raw,3365398,3369733000000,,,-1278056086040718336,0.0,4277.331288903952,-4.42881843323671,14.132666909815223,1193,13,0.0,15,117055699932657,13,31.1,-606.8065795898438,0.05230000242590904,0,0.0,0.0,,,,,0,,1,,
Raw,3365399,3369733000000,,,-1278056086040718336,0.0,4277.331288903952,-4.42881843323671,14.132666909815223,1193,15,0.0,15,117055692530793,12,32.1,-720.9144897460938,0.039400000125169754,0,0.0,0.0,,,,,0,,1,,
Raw,3365400,3369733000000,,,-1278056086040718336,0.0,4277.331288903952,-4.42881843323671,14.132666909815223,1193,19,0.0,15,117055698859684,19,27.9,612.8922119140625,0.09059999883174896,0,0.0,0.0,,,,,0,,1,,
Raw,3365400,3369733000000,,,-1278056086040718336,0.0,4277.331288903952,-4.42881843323671,14.132666909815223,1193,25,0.0,15,117055691363794,16,29.3,120.91637420654297,0.04619999974966049,0,0.0,0.0,,,,,0,,1,,
Raw,3365400,3369733000000,,,-1278056086040718336,0.0,4277.331288903952,-4.42881843323671,14.132666909815223,1193,29,0.0,15,117055691455819,27,24.6,-660.62353515625,0.6180000305175781,0,0.0,0.0,,,,,0,,1,,
Fix,gps,22.925297,120.294676,52.201294,0.000000,6.432000,1594024238000
NMEA,$GPGSV,4,1,13,05,55,309,35,12,21,254,36,13,37,182,31,15,13,208,32*73,1594024237185
NMEA,$GPGSV,4,2,13,19,35,150,28,25,10,282,29,29,09,322,25,02,55,009,*75,1594024237185
NMEA,$GPGSV,4,3,13,06,40,071,,07,06,082,,09,12,039,,17,16,150,*76,1594024237185
NMEA,$GPGSV,4,4,13,30,10,113,*4A,1594024237186
NMEA,$GLGSV,2,1,07,82,47,109,30,69,48,232,37,68,65,354,30,84,09,330,*6E,1594024237186
NMEA,$GLGSV,2,2,07,83,58,014,,81,04,135,,67,16,026,*59,1594024237186
NMEA,$GAGSV,1,1,0,*74,1594024237186
NMEA,$PQGSV,1,1,03,195,68,146,24,193,69,052,,194,11,158,,0,5*6C,1594024237187
NMEA,$PQGSV,1,1,0,*73,1594024237187
NMEA,$GNGSA,A,3,05,12,13,15,19,25,29,,,,,,1.4,1.1,0.9,1*39,1594024237189
NMEA,$GNGSA,A,2,68,69,,,,,,,,,,,1.4,1.1,0.9,2*3E,1594024237189
NMEA,$GNVTG,,T,,M,0.0,N,0.0,K,A*3D,1594024237189
NMEA,$GNRMC,083038.00,A,2255.517833,N,12017.680565,E,0.0,,060720,2.8,W,A*18,1594024237190
NMEA,$GNGGA,083038.00,2255.517833,N,12017.680565,E,1,09,1.1,34.7,M,17.5,M,,*4E,1594024237190
Raw,3366369,3370725000000,,,-1278056086040176896,0.0,4284.971859306097,0.5067073490851192,9.446901856787552,1194,18,0.0,207,41438697061572,17,28.5,266.5050964355469,0.2662999927997589,0,0.0,0.0,,,,,0,,3,,
Raw,3366369,3370725000000,,,-1278056086040176896,0.0,4284.971859306097,0.5067073490851192,9.446901856787552,1194,5,0.0,207,41438697316414,9,35.0,-366.42987060546875,0.24050000309944153,0,0.0,0.0,,,,,0,,3,,
Raw,3366369,3370725000000,,,-1278056086040176896,0.0,4284.971859306097,0.5067073490851192,9.446901856787552,1194,4,0.0,207,41438699866360,16,29.2,333.7358703613281,0.2582000195980072,0,0.0,0.0,,,,,0,,3,,
Raw,3366370,3370725000000,,,-1278056086040176896,0.0,4284.971859306097,0.5067073490851192,9.446901856787552,1194,2,0.0,15,117056693018337,46,20.4,-203.6427764892578,0.9210000038146973,0,0.0,0.0,,,,,0,,1,,
Raw,3366370,3370725000000,,,-1278056086040176896,0.0,4284.971859306097,0.5067073490851192,9.446901856787552,1194,5,0.0,15,117056695553468,10,34.4,12.40915584564209,0.03959999978542328,0,0.0,0.0,,,,,0,,1,,
Raw,3366370,3370725000000,,,-1278056086040176896,0.0,4284.971859306097,0.5067073490851192,9.446901856787552,1194,12,0.0,15,117056686292559,8,36.7,315.6521301269531,0.023000000044703484,0,0.0,0.0,,,,,0,,1,,
Raw,3366370,3370725000000,,,-1278056086040176896,0.0,4284.971859306097,0.5067073490851192,9.446901856787552,1194,13,0.0,15,117056691393587,12,32.0,-605.18115234375,0.03790000081062317,0,0.0,0.0,,,,,0,,1,,
Raw,3366371,3370725000000,,,-1278056086040176896,0.0,4284.971859306097,0.5067073490851192,9.446901856787552,1194,15,0.0,15,117056683992061,16,29.8,-719.3323974609375,0.06419999897480011,0,0.0,0.0,,,,,0,,1,,
Raw,3366371,3370725000000,,,-1278056086040176896,0.0,4284.971859306097,0.5067073490851192,9.446901856787552,1194,19,0.0,15,117056690316547,17,28.9,614.5216674804688,0.055799998342990875,0,0.0,0.0,,,,,0,,1,,
Raw,3366371,3370725000000,,,-1278056086040176896,0.0,4284.971859306097,0.5067073490851192,9.446901856787552,1194,25,0.0,15,117056682822308,17,28.6,122.50071716308594,0.0737999975681305,0,0.0,0.0,,,,,0,,1,,
Raw,3366371,3370725000000,,,-1278056086040176896,0.0,4284.971859306097,0.5067073490851192,9.446901856787552,1194,29,0.0,15,117056682916897,27,24.8,-658.3970947265625,0.6345000267028809,0,0.0,0.0,,,,,0,,1,,
Fix,gps,22.925297,120.294676,52.208679,0.000000,6.432000,1594024239000
NMEA,$GPGSV,4,1,13,02,55,009,20,05,55,309,34,12,21,254,37,13,37,182,32*74,1594024238182
NMEA,$GPGSV,4,2,13,15,13,208,30,19,35,150,29,25,10,282,29,29,09,322,25*70,1594024238182
NMEA,$GPGSV,4,3,13,06,40,071,,07,06,082,,09,12,039,,17,16,150,*76,1594024238182
NMEA,$GPGSV,4,4,13,30,10,113,*4A,1594024238182
NMEA,$GLGSV,2,1,07,82,47,109,29,69,48,232,35,68,65,354,29,84,09,330,*6C,1594024238183
NMEA,$GLGSV,2,2,07,83,58,014,,81,04,135,,67,16,026,*59,1594024238184
NMEA,$GAGSV,1,1,0,*74,1594024238185
NMEA,$PQGSV,1,1,03,195,68,146,24,193,69,052,,194,11,158,,0,5*6C,1594024238185
NMEA,$PQGSV,1,1,0,*73,1594024238185
NMEA,$GNGSA,A,3,05,12,13,15,19,25,29,,,,,,1.3,1.0,0.9,1*3F,1594024238186
NMEA,$GNGSA,A,2,68,69,,,,,,,,,,,1.3,1.0,0.9,2*38,1594024238186
NMEA,$GNVTG,,T,,M,0.0,N,0.0,K,A*3D,1594024238186
NMEA,$GNRMC,083039.00,A,2255.517833,N,12017.680567,E,0.0,,060720,2.8,W,A*1B,1594024238186
NMEA,$GNGGA,083039.00,2255.517833,N,12017.680567,E,1,09,1.0,34.7,M,17.5,M,,*4C,1594024238187
Raw,3367387,3371739000000,,,-1278056086039539200,0.0,4286.659881472588,6.1485749873442765,10.52504697861568,1195,18,0.0,207,41439710422891,16,29.5,267.85302734375,0.24469999969005585,0,0.0,0.0,,,,,0,,3,,
Raw,3367388,3371739000000,,,-1278056086039539200,0.0,4286.659881472588,6.1485749873442765,10.52504697861568,1195,5,0.0,207,41439710679790,7,37.0,-365.0933837890625,0.22759999334812164,0,0.0,0.0,,,,,0,,3,,
Raw,3367388,3371739000000,,,-1278056086039539200,0.0,4286.659881472588,6.1485749873442765,10.52504697861568,1195,4,0.0,207,41439713227395,14,30.6,335.029052734375,0.24629999697208405,0,0.0,0.0,,,,,0,,3,,
Raw,3367388,3371739000000,,,-1278056086039539200,0.0,4286.659881472588,6.1485749873442765,10.52504697861568,1195,2,0.0,15,117057706381096,53,19.8,-202.97674560546875,0.9104999899864197,0,0.0,0.0,,,,,0,,1,,
Raw,3367388,3371739000000,,,-1278056086039539200,0.0,4286.659881472588,6.1485749873442765,10.52504697861568,1195,5,0.0,15,117057708915561,10,34.7,13.625463485717773,0.029100000858306885,0,0.0,0.0,,,,,0,,1,,
Raw,3367389,3371739000000,,,-1278056086039539200,0.0,4286.659881472588,6.1485749873442765,10.52504697861568,1195,12,0.0,15,117057699653650,8,36.0,316.9341125488281,0.042500000447034836,0,0.0,0.0,,,,,0,,1,,
Raw,3367389,3371739000000,,,-1278056086039539200,0.0,4286.659881472588,6.1485749873442765,10.52504697861568,1195,13,0.0,15,117057704757789,13,31.2,-603.96435546875,0.02979999966919422,0,0.0,0.0,,,,,0,,1,,
Raw,3367389,3371739000000,,,-1278056086039539200,0.0,4286.659881472588,6.1485749873442765,10.52504697861568,1195,15,0.0,15,117057697356652,14,30.5,-718.1358642578125,0.05230000242590904,0,0.0,0.0,,,,,0,,1,,
Raw,3367389,3371739000000,,,-1278056086039539200,0.0,4286.659881472588,6.1485749873442765,10.52504697861568,1195,19,0.0,15,117057703676593,19,27.6,615.853759765625,0.09809999912977219,0,0.0,0.0,,,,,0,,1,,
Raw,3367389,3371739000000,,,-1278056086039539200,0.0,4286.659881472588,6.1485749873442765,10.52504697861568,1195,25,0.0,15,117057696184048,17,28.5,123.71585845947266,0.06480000168085098,0,0.0,0.0,,,,,0,,1,,
Raw,3367390,3371739000000,,,-1278056086039539200,0.0,4286.659881472588,6.1485749873442765,10.52504697861568,1195,29,0.0,15,117057696281248,35,22.8,-657.3504638671875,0.7354999780654907,0,0.0,0.0,,,,,0,,1,,
Fix,gps,22.925297,120.294676,52.221924,0.000000,5.360000,1594024240000
NMEA,$GPGSV,4,1,13,02,55,009,20,05,55,309,35,12,21,254,36,13,37,182,31*77,1594024239182
NMEA,$GPGSV,4,2,13,15,13,208,31,19,35,150,28,25,10,282,29,29,09,322,23*76,1594024239182
NMEA,$GPGSV,4,3,13,06,40,071,,07,06,082,,09,12,039,,17,16,150,*76,1594024239182
NMEA,$GPGSV,4,4,13,30,10,113,*4A,1594024239183
NMEA,$GLGSV,2,1,07,82,47,109,30,69,48,232,37,68,65,354,31,84,09,330,*6F,1594024239184
NMEA,$GLGSV,2,2,07,83,58,014,,81,04,135,,67,16,026,*59,1594024239185
NMEA,$GAGSV,1,1,0,*74,1594024239185
NMEA,$PQGSV,1,1,03,195,68,146,25,193,69,052,,194,11,158,,0,5*6D,1594024239185
NMEA,$PQGSV,1,1,0,*73,1594024239185
NMEA,$GNGSA,A,3,02,05,12,13,15,19,25,29,,,,,1.3,1.0,0.9,1*3D,1594024239186
NMEA,$GNGSA,A,2,68,69,,,,,,,,,,,1.3,1.0,0.9,2*38,1594024239187
NMEA,$GNVTG,,T,,M,0.0,N,0.0,K,A*3D,1594024239187
NMEA,$GNRMC,083040.00,A,2255.517831,N,12017.680568,E,0.0,,060720,2.8,W,A*18,1594024239187
NMEA,$GNGGA,083040.00,2255.517831,N,12017.680568,E,1,10,1.0,34.8,M,17.5,M,,*48,1594024239189
Raw,3368387,3372731000000,,,-1278056086039020032,0.0,4269.736353307962,9.848892215054155,10.256546548764602,1196,18,0.0,207,41440701903040,16,29.4,266.4735107421875,0.2612000107765198,0,0.0,0.0,,,,,0,,3,,
Raw,3368387,3372731000000,,,-1278056086039020032,0.0,4269.736353307962,9.848892215054155,10.256546548764602,1196,5,0.0,207,41440702162150,9,35.1,-366.4549255371094,0.24800001084804535,0,0.0,0.0,,,,,0,,3,,
Raw,3368387,3372731000000,,,-1278056086039020032,0.0,4269.736353307962,9.848892215054155,10.256546548764602,1196,4,0.0,207,41440704707374,17,28.3,333.69915771484375,0.2768000066280365,0,0.0,0.0,,,,,0,,3,,
Raw,3368388,3372731000000,,,-1278056086039020032,0.0,4269.736353307962,9.848892215054155,10.256546548764602,1196,2,0.0,15,117058697863005,40,21.9,-203.9757843017578,0.796999990940094,0,0.0,0.0,,,,,0,,1,,
Raw,3368388,3372731000000,,,-1278056086039020032,0.0,4269.736353307962,9.848892215054155,10.256546548764602,1196,5,0.0,15,117058700396649,10,34.8,12.198809623718262,0.0471000000834465,0,0.0,0.0,,,,,0,,1,,
Raw,3368388,3372731000000,,,-1278056086039020032,0.0,4269.736353307962,9.848892215054155,10.256546548764602,1196,12,0.0,15,117058691133721,9,35.6,315.4719543457031,0.03150000050663948,0,0.0,0.0,,,,,0,,1,,
Raw,3368388,3372731000000,,,-1278056086039020032,0.0,4269.736353307962,9.848892215054155,10.256546548764602,1196,13,0.0,15,117058696240910,13,31.7,-605.424072265625,0.04780000075697899,0,0.0,0.0,,,,,0,,1,,
Raw,3368389,3372731000000,,,-1278056086039020032,0.0,4269.736353307962,9.848892215054155,10.256546548764602,1196,15,0.0,15,117058688840149,14,30.2,-719.7858276367188,0.41350001096725464,0,0.0,0.0,,,,,0,,1,,
Raw,3368389,3372731000000,,,-1278056086039020032,0.0,4269.736353307962,9.848892215054155,10.256546548764602,1196,19,0.0,15,117058695155646,17,28.4,614.3916015625,0.0632999986410141,0,0.0,0.0,,,,,0,,1,,
Raw,3368389,3372731000000,,,-1278056086039020032,0.0,4269.736353307962,9.848892215054155,10.256546548764602,1196,25,0.0,15,117058687664770,16,29.4,122.29695892333984,0.04020000249147415,0,0.0,0.0,,,,,0,,1,,
Raw,3368389,3372731000000,,,-1278056086039020032,0.0,4269.736353307962,9.848892215054155,10.256546548764602,1196,29,0.0,15,117058687764503,31,23.6,-659.234375,0.6620000004768372,0,0.0,0.0,,,,,0,,1,,
Fix,gps,22.925297,120.294676,52.224915,0.000000,5.360000,1594024241000
NMEA,$GPGSV,4,1,13,02,55,009,22,05,55,309,35,12,21,254,36,13,37,182,32*76,1594024240182
NMEA,$GPGSV,4,2,13,15,13,208,30,19,35,150,28,25,10,282,29,29,09,322,24*70,1594024240182
NMEA,$GPGSV,4,3,13,06,40,071,,07,06,082,,09,12,039,,17,16,150,*76,1594024240182
NMEA,$GPGSV,4,4,13,30,10,113,*4A,1594024240182
NMEA,$GLGSV,2,1,07,82,47,109,29,69,48,232,35,68,65,354,28,84,09,330,*6D,1594024240183
NMEA,$GLGSV,2,2,07,83,58,014,,81,04,135,,67,16,026,*59,1594024240183
NMEA,$GAGSV,1,1,0,*74,1594024240183
NMEA,$PQGSV,1,1,03,195,68,146,25,193,69,052,,194,11,158,,0,5*6D,1594024240183
NMEA,$PQGSV,1,1,0,*73,1594024240183
NMEA,$GNGSA,A,3,02,05,12,13,15,19,25,29,,,,,1.3,1.0,0.9,1*3D,1594024240189
NMEA,$GNGSA,A,2,68,69,,,,,,,,,,,1.3,1.0,0.9,2*38,1594024240189
NMEA,$GNVTG,,T,,M,0.0,N,0.0,K,A*3D,1594024240189
NMEA,$GNRMC,083041.00,A,2255.517830,N,12017.680568,E,0.0,,060720,2.8,W,A*18,1594024240189
NMEA,$GNGGA,083041.00,2255.517830,N,12017.680568,E,1,10,1.0,34.8,M,17.5,M,,*48,1594024240190
Raw,3369393,3373724000000,,,-1278056086038039808,0.0,4267.474636435509,4.830761074776745,11.541911099067685,1197,18,0.0,207,41441693921992,16,29.7,266.9176330566406,0.2492000013589859,0,0.0,0.0,,,,,0,,3,,
Raw,3369393,3373724000000,,,-1278056086038039808,0.0,4267.474636435509,4.830761074776745,11.541911099067685,1197,5,0.0,207,41441694183115,9,35.3,-365.99896240234375,0.23600001633167267,0,0.0,0.0,,,,,0,,3,,
Raw,3369394,3373724000000,,,-1278056086038039808,0.0,4267.474636435509,4.830761074776745,11.541911099067685,1197,4,0.0,207,41441696726126,14,30.8,334.11944580078125,0.2508000135421753,0,0.0,0.0,,,,,0,,3,,
Raw,3369394,3373724000000,,,-1278056086038039808,0.0,4267.474636435509,4.830761074776745,11.541911099067685,1197,2,0.0,15,117059689883532,40,21.3,-203.4049072265625,0.8449999690055847,0,0.0,0.0,,,,,0,,1,,
Raw,3369394,3373724000000,,,-1278056086038039808,0.0,4267.474636435509,4.830761074776745,11.541911099067685,1197,5,0.0,15,117059692416431,10,34.6,12.62467098236084,0.035100001841783524,0,0.0,0.0,,,,,0,,1,,
Raw,3369395,3373724000000,,,-1278056086038039808,0.0,4267.474636435509,4.830761074776745,11.541911099067685,1197,12,0.0,15,117059683152489,9,35.9,315.8655090332031,0.0495000034570694,0,0.0,0.0,,,,,0,,1,,
Raw,3369395,3373724000000,,,-1278056086038039808,0.0,4267.474636435509,4.830761074776745,11.541911099067685,1197,13,0.0,15,117059688262703,16,29.9,-605.0009765625,0.04170000180602074,0,0.0,0.0,,,,,0,,1,,
Raw,3369396,3373724000000,,,-1278056086038039808,0.0,4267.474636435509,4.830761074776745,11.541911099067685,1197,15,0.0,15,117059680862393,14,30.6,-719.2688598632812,0.0568000003695488,0,0.0,0.0,,,,,0,,1,,
Raw,3369396,3373724000000,,,-1278056086038039808,0.0,4267.474636435509,4.830761074776745,11.541911099067685,1197,19,0.0,15,117059687173472,16,29.1,614.8107299804688,0.04020000249147415,0,0.0,0.0,,,,,0,,1,,
Raw,3369396,3373724000000,,,-1278056086038039808,0.0,4267.474636435509,4.830761074776745,11.541911099067685,1197,25,0.0,15,117059679684182,19,27.6,122.77220153808594,0.09210000187158585,0,0.0,0.0,,,,,0,,1,,
Raw,3369397,3373724000000,,,-1278056086038039808,0.0,4267.474636435509,4.830761074776745,11.541911099067685,1197,29,0.0,15,117059679786540,35,22.6,-658.3685302734375,0.7400000095367432,0,0.0,0.0,,,,,0,,1,,
Fix,gps,22.925297,120.294676,52.216675,0.000000,5.360000,1594024242000
NMEA,$GPGSV,4,1,13,02,55,009,21,05,55,309,35,12,21,254,36,13,37,182,30*77,1594024241183
NMEA,$GPGSV,4,2,13,15,13,208,31,19,35,150,29,25,10,282,28,29,09,322,23*76,1594024241183
NMEA,$GPGSV,4,3,13,06,40,071,,07,06,082,,09,12,039,,17,16,150,*76,1594024241184
NMEA,$GPGSV,4,4,13,30,10,113,*4A,1594024241184
NMEA,$GLGSV,2,1,07,82,47,109,30,69,48,232,35,68,65,354,31,84,09,330,*6D,1594024241186
NMEA,$GLGSV,2,2,07,83,58,014,,81,04,135,,67,16,026,*59,1594024241188
NMEA,$GAGSV,1,1,0,*74,1594024241188
NMEA,$PQGSV,1,1,03,195,68,146,26,193,69,052,,194,11,158,,0,5*6E,1594024241188
NMEA,$PQGSV,1,1,0,*73,1594024241188
NMEA,$GNGSA,A,3,02,05,12,13,15,19,25,29,,,,,1.3,1.0,0.9,1*3D,1594024241195
NMEA,$GNGSA,A,2,68,69,,,,,,,,,,,1.3,1.0,0.9,2*38,1594024241196
NMEA,$GNVTG,,T,,M,0.0,N,0.0,K,A*3D,1594024241196
NMEA,$GNRMC,083042.00,A,2255.517830,N,12017.680570,E,0.0,,060720,2.8,W,A*12,1594024241196
NMEA,$GNGGA,083042.00,2255.517830,N,12017.680570,E,1,10,1.0,34.7,M,17.5,M,,*4D,1594024241196
Fix,gps,22.925297,120.294676,52.204285,0.000000,6.432000,1594024243000
Raw,3370384,3374738000000,,,-1278056086037123584,0.0,4275.423474609852,5.984141159387581,9.945130490315364,1198,18,0.0,207,41442707004600,16,29.3,268.298583984375,0.2401999980211258,0,0.0,0.0,,,,,0,,3,,
Raw,3370384,3374738000000,,,-1278056086037123584,0.0,4275.423474609852,5.984141159387581,9.945130490315364,1198,5,0.0,207,41442707267885,8,36.4,-364.5678405761719,0.22450000047683716,0,0.0,0.0,,,,,0,,3,,
Raw,3370384,3374738000000,,,-1278056086037123584,0.0,4275.423474609852,5.984141159387581,9.945130490315364,1198,4,0.0,207,41442709808534,14,30.6,335.4772644042969,0.2402999997138977,0,0.0,0.0,,,,,0,,3,,
Raw,3370384,3374738000000,,,-1278056086037123584,0.0,4275.423474609852,5.984141159387581,9.945130490315364,1198,2,0.0,15,117060702967671,40,21.5,-201.56857299804688,0.8044999837875366,0,0.0,0.0,,,,,0,,1,,
Raw,3370385,3374738000000,,,-1278056086037123584,0.0,4275.423474609852,5.984141159387581,9.945130490315364,1198,5,0.0,15,117060705499865,9,35.7,13.912528991699219,0.02250000089406967,0,0.0,0.0,,,,,0,,1,,
Raw,3370385,3374738000000,,,-1278056086037123584,0.0,4275.423474609852,5.984141159387581,9.945130490315364,1198,12,0.0,15,117060696234957,9,35.6,317.2052001953125,0.039000000804662704,0,0.0,0.0,,,,,0,,1,,
Raw,3370385,3374738000000,,,-1278056086037123584,0.0,4275.423474609852,5.984141159387581,9.945130490315364,1198,13,0.0,15,117060701348275,12,32.1,-603.654052734375,0.05290000140666962,0,0.0,0.0,,,,,0,,1,,
Raw,3370385,3374738000000,,,-1278056086037123584,0.0,4275.423474609852,5.984141159387581,9.945130490315364,1198,15,0.0,15,117060693948283,16,29.0,-717.9924926757812,0.04920000210404396,0,0.0,0.0,,,,,0,,1,,
Raw,3370386,3374738000000,,,-1278056086037123584,0.0,4275.423474609852,5.984141159387581,9.945130490315364,1198,19,0.0,15,117060700254917,19,27.8,616.1459350585938,0.09360000491142273,0,0.0,0.0,,,,,0,,1,,
Raw,3370386,3374738000000,,,-1278056086037123584,0.0,4275.423474609852,5.984141159387581,9.945130490315364,1198,25,0.0,15,117060692767252,16,29.6,124.1254653930664,0.047700002789497375,0,0.0,0.0,,,,,0,,1,,
Raw,3370386,3374738000000,,,-1278056086037123584,0.0,4275.423474609852,5.984141159387581,9.945130490315364,1198,29,0.0,15,117060692872371,31,23.8,-657.6644287109375,0.6694999933242798,0,0.0,0.0,,,,,0,,1,,
NMEA,$GPGSV,4,1,13,02,55,009,22,05,55,309,36,12,21,254,36,13,37,182,32*75,1594024242181
NMEA,$GPGSV,4,2,13,15,13,208,29,19,35,150,28,25,10,282,30,29,09,322,24*70,1594024242181
NMEA,$GPGSV,4,3,13,06,40,071,,07,06,082,,09,12,039,,17,16,150,*76,1594024242182
NMEA,$GPGSV,4,4,13,30,10,113,*4A,1594024242182
NMEA,$GLGSV,2,1,07,82,47,109,29,69,48,232,36,68,65,354,31,84,09,330,*66,1594024242182
NMEA,$GLGSV,2,2,07,83,58,014,,81,04,135,,67,16,026,*59,1594024242182
NMEA,$GAGSV,1,1,0,*74,1594024242182
NMEA,$PQGSV,1,1,03,195,68,146,25,193,69,052,,194,11,158,,0,5*6D,1594024242182
NMEA,$PQGSV,1,1,0,*73,1594024242182
NMEA,$GNGSA,A,3,02,05,12,13,15,19,25,29,,,,,1.3,1.0,0.9,1*3D,1594024242183
NMEA,$GNGSA,A,2,68,69,,,,,,,,,,,1.3,1.0,0.9,2*38,1594024242183
NMEA,$GNVTG,,T,,M,0.0,N,0.0,K,A*3D,1594024242184
NMEA,$GNRMC,083043.00,A,2255.517828,N,12017.680572,E,0.0,,060720,2.8,W,A*18,1594024242184
NMEA,$GNGGA,083043.00,2255.517828,N,12017.680572,E,1,10,1.0,34.7,M,17.5,M,,*47,1594024242184
Raw,3371404,3375729000000,,,-1278056086036923648,0.0,4281.282424926758,10.072538126650784,11.848601611028954,1199,18,0.0,207,41443697803670,17,28.8,267.61712646484375,0.2662999927997589,0,0.0,0.0,,,,,0,,3,,
Raw,3371404,3375729000000,,,-1278056086036923648,0.0,4281.282424926758,10.072538126650784,11.848601611028954,1199,5,0.0,207,41443698069020,8,36.5,-365.3240051269531,0.2410000115633011,0,0.0,0.0,,,,,0,,3,,
Raw,3371404,3375729000000,,,-1278056086036923648,0.0,4281.282424926758,10.072538126650784,11.848601611028954,1199,4,0.0,207,41443700607278,14,30.7,334.7585144042969,0.25679999589920044,0,0.0,0.0,,,,,0,,3,,
Raw,3371404,3375729000000,,,-1278056086036923648,0.0,4281.282424926758,10.072538126650784,11.848601611028954,1199,2,0.0,15,117061693768216,31,23.4,-202.96722412109375,0.7310000061988831,0,0.0,0.0,,,,,0,,1,,
Raw,3371405,3375729000000,,,-1278056086036923648,0.0,4281.282424926758,10.072538126650784,11.848601611028954,1199,5,0.0,15,117061696299773,10,34.7,13.115541458129883,0.041099999099969864,0,0.0,0.0,,,,,0,,1,,
Raw,3371405,3375729000000,,,-1278056086036923648,0.0,4281.282424926758,10.072538126650784,11.848601611028954,1199,12,0.0,15,117061687033820,10,34.9,316.3871765136719,0.02759999968111515,0,0.0,0.0,,,,,0,,1,,
Raw,3371405,3375729000000,,,-1278056086036923648,0.0,4281.282424926758,10.072538126650784,11.848601611028954,1199,13,0.0,15,117061692150182,13,31.2,-604.4813232421875,0.04179999977350235,0,0.0,0.0,,,,,0,,1,,
Raw,3371405,3375729000000,,,-1278056086036923648,0.0,4281.282424926758,10.072538126650784,11.848601611028954,1199,15,0.0,15,117061684750616,14,30.0,-718.5774536132812,0.4074999988079071,0,0.0,0.0,,,,,0,,1,,
Raw,3371406,3375729000000,,,-1278056086036923648,0.0,4281.282424926758,10.072538126650784,11.848601611028954,1199,19,0.0,15,117061691052769,21,26.8,615.2761840820312,0.11419999599456787,0,0.0,0.0,,,,,0,,1,,
Raw,3371406,3375729000000,,,-1278056086036923648,0.0,4281.282424926758,10.072538126650784,11.848601611028954,1199,25,0.0,15,117061683566775,16,29.3,123.40746307373047,0.06419999897480011,0,0.0,0.0,,,,,0,,1,,
Raw,3371406,3375729000000,,,-1278056086036923648,0.0,4281.282424926758,10.072538126650784,11.848601611028954,1199,29,0.0,15,117061683674357,31,23.0,-657.502685546875,0.7459999918937683,0,0.0,0.0,,,,,0,,1,,
Fix,gps,22.925297,120.294676,52.208618,0.000000,5.360000,1594024244000
NMEA,$GPGSV,4,1,13,02,55,009,23,05,55,309,35,12,21,254,35,13,37,182,31*77,1594024243191
NMEA,$GPGSV,4,2,13,15,13,208,30,19,35,150,27,25,10,282,29,29,09,322,23*78,1594024243192
NMEA,$GPGSV,4,3,13,06,40,071,,07,06,082,,09,12,039,,17,16,150,*76,1594024243193
NMEA,$GPGSV,4,4,13,30,10,113,*4A,1594024243193
NMEA,$GLGSV,2,1,07,82,47,109,29,69,48,232,37,68,65,354,31,84,09,330,*67,1594024243196
NMEA,$GLGSV,2,2,07,83,58,014,,81,04,135,,67,16,026,*59,1594024243197
NMEA,$GAGSV,1,1,0,*74,1594024243197
NMEA,$PQGSV,1,1,03,195,68,146,26,193,69,052,,194,11,158,,0,5*6E,1594024243198
NMEA,$PQGSV,1,1,0,*73,1594024243199
NMEA,$GNGSA,A,3,02,05,12,13,15,19,25,29,,,,,1.3,1.0,0.9,1*3D,1594024243202
NMEA,$GNGSA,A,2,68,69,,,,,,,,,,,1.3,1.0,0.9,2*38,1594024243203
NMEA,$GNVTG,,T,,M,0.0,N,0.0,K,A*3D,1594024243204
NMEA,$GNRMC,083044.00,A,2255.517826,N,12017.680571,E,0.0,,060720,2.8,W,A*12,1594024243205
NMEA,$GNGGA,083044.00,2255.517826,N,12017.680571,E,1,10,1.0,34.7,M,17.5,M,,*4D,1594024243205
Raw,3372405,3376743000000,,,-1278056086036592896,0.0,4280.73713555932,7.13058084611883,12.539260668910167,1200,18,0.0,207,41444711472225,17,28.8,268.58673095703125,0.2572999894618988,0,0.0,0.0,,,,,0,,3,,
Raw,3372406,3376743000000,,,-1278056086036592896,0.0,4280.73713555932,7.13058084611883,12.539260668910167,1200,5,0.0,207,41444711739746,8,36.0,-364.3067932128906,0.2305000126361847,0,0.0,0.0,,,,,0,,3,,
Raw,3372406,3376743000000,,,-1278056086036592896,0.0,4280.73713555932,7.13058084611883,12.539260668910167,1200,4,0.0,207,41444714275671,14,30.9,335.7540588378906,0.24780000746250153,0,0.0,0.0,,,,,0,,3,,
Raw,3372406,3376743000000,,,-1278056086036592896,0.0,4280.73713555932,7.13058084611883,12.539260668910167,1200,2,0.0,15,117062707438482,31,23.1,-201.78741455078125,0.722000002861023,0,0.0,0.0,,,,,0,,1,,
Raw,3372406,3376743000000,,,-1278056086036592896,0.0,4280.73713555932,7.13058084611883,12.539260668910167,1200,5,0.0,15,117062709969223,9,35.1,14.064300537109375,0.02850000187754631,0,0.0,0.0,,,,,0,,1,,
Raw,3372407,3376743000000,,,-1278056086036592896,0.0,4280.73713555932,7.13058084611883,12.539260668910167,1200,12,0.0,15,117062700702222,8,36.2,317.3571472167969,0.04400000348687172,0,0.0,0.0,,,,,0,,1,,
Raw,3372407,3376743000000,,,-1278056086036592896,0.0,4280.73713555932,7.13058084611883,12.539260668910167,1200,13,0.0,15,117062705821715,13,31.5,-603.57421875,0.06130000203847885,0,0.0,0.0,,,,,0,,1,,
Raw,3372407,3376743000000,,,-1278056086036592896,0.0,4280.73713555932,7.13058084611883,12.539260668910167,1200,15,0.0,15,117062698422509,14,30.1,-717.9317626953125,0.05380000174045563,0,0.0,0.0,,,,,0,,1,,
Raw,3372407,3376743000000,,,-1278056086036592896,0.0,4280.73713555932,7.13058084611883,12.539260668910167,1200,19,0.0,15,117062704720175,21,26.1,616.2905883789062,0.13369999825954437,0,0.0,0.0,,,,,0,,1,,
Raw,3372408,3376743000000,,,-1278056086036592896,0.0,4280.73713555932,7.13058084611883,12.539260668910167,1200,25,0.0,15,117062697235814,16,29.0,124.3892822265625,0.0552000030875206,0,0.0,0.0,,,,,0,,1,,
Raw,3372408,3376743000000,,,-1278056086036592896,0.0,4280.73713555932,7.13058084611883,12.539260668910167,1200,29,0.0,15,117062697346021,35,22.6,-657.7500610351562,0.7369999885559082,0,0.0,0.0,,,,,0,,1,,
Fix,gps,22.925297,120.294676,52.223877,0.000000,5.360000,1594024245000
NMEA,$GPGSV,4,1,13,02,55,009,23,05,55,309,35,12,21,254,36,13,37,182,32*77,1594024244189
NMEA,$GPGSV,4,2,13,15,13,208,30,19,35,150,26,25,10,282,29,29,09,322,23*79,1594024244198
NMEA,$GPGSV,4,3,13,06,40,071,,07,06,082,,09,12,039,,17,16,150,*76,1594024244199
NMEA,$GPGSV,4,4,13,30,10,113,*4A,1594024244200
NMEA,$GLGSV,2,1,07,82,47,109,29,69,48,232,36,68,65,354,31,84,09,330,*66,1594024244200
NMEA,$GLGSV,2,2,07,83,58,014,,81,04,135,,67,16,026,*59,1594024244201
NMEA,$GAGSV,1,1,0,*74,1594024244202
NMEA,$PQGSV,1,1,03,195,68,146,26,193,69,052,,194,11,158,,0,5*6E,1594024244204
NMEA,$PQGSV,1,1,0,*73,1594024244207
NMEA,$GNGSA,A,3,02,05,12,13,15,19,25,29,,,,,1.3,1.0,0.9,1*3D,1594024244209
NMEA,$GNGSA,A,2,68,69,,,,,,,,,,,1.3,1.0,0.9,2*38,1594024244209
NMEA,$GNVTG,,T,,M,0.0,N,0.0,K,A*3D,1594024244209
NMEA,$GNRMC,083045.00,A,2255.517825,N,12017.680572,E,0.0,,060720,2.8,W,A*13,1594024244219
NMEA,$GNGGA,083045.00,2255.517825,N,12017.680572,E,1,10,1.0,34.8,M,17.5,M,,*43,1594024244219
Raw,3373389,3377735000000,,,-1278056086035918848,0.0,4256.401676684618,10.30748892605059,10.4636944021497,1201,18,0.0,207,41445702797366,16,29.1,267.9487609863281,0.26269999146461487,0,0.0,0.0,,,,,0,,3,,
Raw,3373389,3377735000000,,,-1278056086035918848,0.0,4256.401676684618,10.30748892605059,10.4636944021497,1201,5,0.0,207,41445703066901,8,36.3,-364.9265441894531,0.2485000044107437,0,0.0,0.0,,,,,0,,3,,
Raw,3373390,3377735000000,,,-1278056086035918848,0.0,4256.401676684618,10.30748892605059,10.4636944021497,1201,4,0.0,207,41445705600487,14,30.5,335.0652770996094,0.23430000245571136,0,0.0,0.0,,,,,0,,3,,
Raw,3373390,3377735000000,,,-1278056086035918848,0.0,4256.401676684618,10.30748892605059,10.4636944021497,1201,2,0.0,15,117063698765083,40,21.3,-202.64373779296875,0.8585000038146973,0,0.0,0.0,,,,,0,,1,,
Raw,3373390,3377735000000,,,-1278056086035918848,0.0,4256.401676684618,10.30748892605059,10.4636944021497,1201,5,0.0,15,117063701295140,9,35.2,13.408769607543945,0.04650000110268593,0,0.0,0.0,,,,,0,,1,,
Raw,3373390,3377735000000,,,-1278056086035918848,0.0,4256.401676684618,10.30748892605059,10.4636944021497,1201,12,0.0,15,117063692027120,9,35.6,316.6327209472656,0.032999999821186066,0,0.0,0.0,,,,,0,,1,,
Raw,3373391,3377735000000,,,-1278056086035918848,0.0,4256.401676684618,10.30748892605059,10.4636944021497,1201,13,0.0,15,117063697149649,13,31.1,-604.2462158203125,0.049300000071525574,0,0.0,0.0,,,,,0,,1,,
Raw,3373391,3377735000000,,,-1278056086035918848,0.0,4256.401676684618,10.30748892605059,10.4636944021497,1201,15,0.0,15,117063689750816,14,30.1,-718.7498168945312,0.040300000458955765,0,0.0,0.0,,,,,0,,1,,
Raw,3373391,3377735000000,,,-1278056086035918848,0.0,4256.401676684618,10.30748892605059,10.4636944021497,1201,19,0.0,15,117063696044045,19,27.3,615.6691284179688,0.08760000020265579,0,0.0,0.0,,,,,0,,1,,
Raw,3373391,3377735000000,,,-1278056086035918848,0.0,4256.401676684618,10.30748892605059,10.4636944021497,1201,25,0.0,15,117063688561343,17,28.4,123.65986633300781,0.052799999713897705,0,0.0,0.0,,,,,0,,1,,
Raw,3373392,3377735000000,,,-1278056086035918848,0.0,4256.401676684618,10.30748892605059,10.4636944021497,1201,29,0.0,15,117063688674225,31,23.6,-658.3495483398438,0.6634999513626099,0,0.0,0.0,,,,,0,,1,,
Fix,gps,22.925297,120.294676,52.234131,0.000000,5.360000,1594024246000
NMEA,$GPGSV,4,1,13,02,55,009,21,05,55,309,35,12,21,254,36,13,37,182,31*76,1594024245187
NMEA,$GPGSV,4,2,13,15,13,208,30,19,35,150,27,25,10,282,28,29,09,322,24*7E,1594024245188
NMEA,$GPGSV,4,3,13,06,40,071,,07,06,082,,09,12,039,,17,16,150,*76,1594024245189
NMEA,$GPGSV,4,4,13,30,10,113,*4A,1594024245190
NMEA,$GLGSV,2,1,07,82,47,109,29,69,48,232,36,68,65,354,31,84,09,330,*66,1594024245190
NMEA,$GLGSV,2,2,07,83,58,014,,81,04,135,,67,16,026,*59,1594024245191
NMEA,$GAGSV,1,1,0,*74,1594024245191
NMEA,$PQGSV,1,1,03,195,68,146,25,193,69,052,,194,11,158,,0,5*6D,1594024245192
NMEA,$PQGSV,1,1,0,*73,1594024245193
NMEA,$GNGSA,A,3,02,05,12,13,15,19,25,29,,,,,1.3,1.0,0.9,1*3D,1594024245195
NMEA,$GNGSA,A,2,68,69,,,,,,,,,,,1.3,1.0,0.9,2*38,1594024245195
NMEA,$GNVTG,,T,,M,0.0,N,0.0,K,A*3D,1594024245203
NMEA,$GNRMC,083046.00,A,2255.517824,N,12017.680572,E,0.0,,060720,2.8,W,A*11,1594024245204
NMEA,$GNGGA,083046.00,2255.517824,N,12017.680572,E,1,10,1.0,34.8,M,17.5,M,,*41,1594024245205
Fix,gps,22.925297,120.294676,52.234131,0.000000,5.360000,1594024247000
Raw,3374417,3378746000000,,,-1278056086035341824,0.0,4237.463232129812,7.111041641867247,9.286610238336507,1202,18,0.0,207,41446713219746,16,29.2,267.9241027832031,0.2492000013589859,0,0.0,0.0,,,,,0,,3,,
Raw,3374417,3378746000000,,,-1278056086035341824,0.0,4237.463232129812,7.111041641867247,9.286610238336507,1202,5,0.0,207,41446713491422,9,35.6,-364.9481506347656,0.2345000058412552,0,0.0,0.0,,,,,0,,3,,
Raw,3374417,3378746000000,,,-1278056086035341824,0.0,4237.463232129812,7.111041641867247,9.286610238336507,1202,4,0.0,207,41446716022598,14,30.8,335.0911560058594,0.2508000135421753,0,0.0,0.0,,,,,0,,3,,
Raw,3374417,3378746000000,,,-1278056086035341824,0.0,4237.463232129812,7.111041641867247,9.286610238336507,1202,2,0.0,15,117064709189082,35,22.6,-201.84451293945312,0.7249999642372131,0,0.0,0.0,,,,,0,,1,,
Raw,3374418,3378746000000,,,-1278056086035341824,0.0,4237.463232129812,7.111041641867247,9.286610238336507,1202,5,0.0,15,117064711718384,9,35.5,13.271306991577148,0.03150000050663948,0,0.0,0.0,,,,,0,,1,,
Raw,3374418,3378746000000,,,-1278056086035341824,0.0,4237.463232129812,7.111041641867247,9.286610238336507,1202,12,0.0,15,117064702449358,9,35.9,316.5825500488281,0.04800000041723251,0,0.0,0.0,,,,,0,,1,,
Raw,3374418,3378746000000,,,-1278056086035341824,0.0,4237.463232129812,7.111041641867247,9.286610238336507,1202,13,0.0,15,117064707574990,14,30.7,-604.3613891601562,0.037300001829862595,0,0.0,0.0,,,,,0,,1,,
Raw,3374419,3378746000000,,,-1278056086035341824,0.0,4237.463232129812,7.111041641867247,9.286610238336507,1202,15,0.0,15,117064700176503,14,30.5,-718.7849731445312,0.0568000003695488,0,0.0,0.0,,,,,0,,1,,
Raw,3374419,3378746000000,,,-1278056086035341824,0.0,4237.463232129812,7.111041641867247,9.286610238336507,1202,19,0.0,15,117064706465272,21,26.5,615.5632934570312,0.10669999569654465,0,0.0,0.0,,,,,0,,1,,
Raw,3374419,3378746000000,,,-1278056086035341824,0.0,4237.463232129812,7.111041641867247,9.286610238336507,1202,25,0.0,15,117064698984276,16,29.0,123.59725952148438,0.056700002402067184,0,0.0,0.0,,,,,0,,1,,
Raw,3374419,3378746000000,,,-1278056086035341824,0.0,4237.463232129812,7.111041641867247,9.286610238336507,1202,29,0.0,15,117064699099795,35,22.8,-657.6359252929688,0.7400000095367432,0,0.0,0.0,,,,,0,,1,,
NMEA,$GPGSV,4,1,13,02,55,009,23,05,55,309,36,12,21,254,36,13,37,182,31*77,1594024246180
NMEA,$GPGSV,4,2,13,15,13,208,31,19,35,150,27,25,10,282,29,29,09,322,23*79,1594024246180
NMEA,$GPGSV,4,3,13,06,40,071,,07,06,082,,09,12,039,,17,16,150,*76,1594024246181
NMEA,$GPGSV,4,4,13,30,10,113,*4A,1594024246181
NMEA,$GLGSV,2,1,07,82,47,109,29,69,48,232,36,68,65,354,31,84,09,330,*66,1594024246181
NMEA,$GLGSV,2,2,07,83,58,014,,81,04,135,,67,16,026,*59,1594024246181
NMEA,$GAGSV,1,1,0,*74,1594024246181
NMEA,$PQGSV,1,1,03,195,68,146,26,193,69,052,,194,11,158,,0,5*6E,1594024246182
NMEA,$PQGSV,1,1,0,*73,1594024246182
NMEA,$GNGSA,A,3,02,05,12,13,15,19,25,29,,,,,1.3,1.0,0.9,1*3D,1594024246182
NMEA,$GNGSA,A,2,68,69,,,,,,,,,,,1.3,1.0,0.9,2*38,1594024246183
NMEA,$GNVTG,,T,,M,0.0,N,0.0,K,A*3D,1594024246183
NMEA,$GNRMC,083047.00,A,2255.517822,N,12017.680569,E,0.0,,060720,2.8,W,A*1C,1594024246183
NMEA,$GNGGA,083047.00,2255.517822,N,12017.680569,E,1,10,1.0,34.8,M,17.5,M,,*4C,1594024246183
Raw,3375393,3379739000000,,,-1278056086035070720,0.0,4252.297803759575,7.185634814677588,9.351431025545342,1203,18,0.0,207,41447705947283,16,29.5,267.9864807128906,0.23720000684261322,0,0.0,0.0,,,,,0,,3,,
Raw,3375393,3379739000000,,,-1278056086035070720,0.0,4252.297803759575,7.185634814677588,9.351431025545342,1203,5,0.0,207,41447706221103,8,36.2,-364.9038391113281,0.22300000488758087,0,0.0,0.0,,,,,0,,3,,
Raw,3375394,3379739000000,,,-1278056086035070720,0.0,4252.297803759575,7.185634814677588,9.351431025545342,1203,4,0.0,207,41447708750018,14,30.4,335.1500549316406,0.23880000412464142,0,0.0,0.0,,,,,0,,3,,
Raw,3375394,3379739000000,,,-1278056086035070720,0.0,4252.297803759575,7.185634814677588,9.351431025545342,1203,2,0.0,15,117065701918171,31,23.5,-203.13848876953125,0.6829999685287476,0,0.0,0.0,,,,,0,,1,,
Raw,3375394,3379739000000,,,-1278056086035070720,0.0,4252.297803759575,7.185634814677588,9.351431025545342,1203,5,0.0,15,117065704446768,9,35.1,13.232413291931152,0.05100000277161598,0,0.0,0.0,,,,,0,,1,,
Raw,3375394,3379739000000,,,-1278056086035070720,0.0,4252.297803759575,7.185634814677588,9.351431025545342,1203,12,0.0,15,117065695176763,9,35.9,316.5374755859375,0.03750000149011612,0,0.0,0.0,,,,,0,,1,,
Raw,3375395,3379739000000,,,-1278056086035070720,0.0,4252.297803759575,7.185634814677588,9.351431025545342,1203,13,0.0,15,117065700305459,13,31.7,-604.37841796875,0.05380000174045563,0,0.0,0.0,,,,,0,,1,,
Raw,3375395,3379739000000,,,-1278056086035070720,0.0,4252.297803759575,7.185634814677588,9.351431025545342,1203,15,0.0,15,117065692907394,13,31.1,-718.9009399414062,0.3894999921321869,0,0.0,0.0,,,,,0,,1,,
Raw,3375395,3379739000000,,,-1278056086035070720,0.0,4252.297803759575,7.185634814677588,9.351431025545342,1203,19,0.0,15,117065699191705,19,27.1,615.442138671875,0.09210000187158585,0,0.0,0.0,,,,,0,,1,,
Raw,3375396,3379739000000,,,-1278056086035070720,0.0,4252.297803759575,7.185634814677588,9.351431025545342,1203,25,0.0,15,117065691712298,17,28.9,123.54896545410156,0.05729999765753746,0,0.0,0.0,,,,,0,,1,,
Raw,3375396,3379739000000,,,-1278056086035070720,0.0,4252.297803759575,7.185634814677588,9.351431025545342,1203,29,0.0,15,117065691830348,35,22.9,-658.6635131835938,0.7279999852180481,0,0.0,0.0,,,,,0,,1,,
Fix,gps,22.925297,120.294676,52.240112,0.000000,5.360000,1594024248000
NMEA,$GPGSV,4,1,13,02,55,009,24,05,55,309,35,12,21,254,36,13,37,182,32*70,1594024247185
NMEA,$GPGSV,4,2,13,15,13,208,31,19,35,150,27,25,10,282,29,29,09,322,23*79,1594024247185
NMEA,$GPGSV,4,3,13,06,40,071,,07,06,082,,09,12,039,,17,16,150,*76,1594024247186
NMEA,$GPGSV,4,4,13,30,10,113,*4A,1594024247186
NMEA,$GLGSV,2,1,07,82,47,109,30,69,48,232,36,68,65,354,30,84,09,330,*6F,1594024247187
NMEA,$GLGSV,2,2,07,83,58,014,,81,04,135,,67,16,026,*59,1594024247187
NMEA,$GAGSV,1,1,0,*74,1594024247188
NMEA,$PQGSV,1,1,03,195,68,146,26,193,69,052,,194,11,158,,0,5*6E,1594024247188
NMEA,$PQGSV,1,1,0,*73,1594024247188
NMEA,$GNGSA,A,3,02,05,12,13,15,19,25,29,,,,,1.3,1.0,0.9,1*3D,1594024247190
NMEA,$GNGSA,A,2,68,69,,,,,,,,,,,1.3,1.0,0.9,2*38,1594024247191
NMEA,$GNVTG,,T,,M,0.0,N,0.0,K,A*3D,1594024247191
NMEA,$GNRMC,083048.00,A,2255.517821,N,12017.680568,E,0.0,,060720,2.8,W,A*11,1594024247192
NMEA,$GNGGA,083048.00,2255.517821,N,12017.680568,E,1,10,1.0,34.8,M,17.5,M,,*41,1594024247192
Raw,3376408,3380729000000,,,-1278056086034878720,0.0,4246.136639267206,6.9058533553866175,11.554974348244961,1204,18,0.0,207,41448695754471,16,29.0,268.28277587890625,0.25220000743865967,0,0.0,0.0,,,,,0,,3,,
Raw,3376408,3380729000000,,,-1278056086034878720,0.0,4246.136639267206,6.9058533553866175,11.554974348244961,1204,5,0.0,207,41448696030364,9,35.9,-364.54473876953125,0.23900000751018524,0,0.0,0.0,,,,,0,,3,,
Raw,3376408,3380729000000,,,-1278056086034878720,0.0,4246.136639267206,6.9058533553866175,11.554974348244961,1204,4,0.0,207,41448698556972,14,30.9,335.4391784667969,0.25380000472068787,0,0.0,0.0,,,,,0,,3,,
Raw,3376409,3380729000000,,,-1278056086034878720,0.0,4246.136639267206,6.9058533553866175,11.554974348244961,1204,2,0.0,15,117066691726890,35,22.1,-204.0328826904297,0.7879999876022339,0,0.0,0.0,,,,,0,,1,,
Raw,3376409,3380729000000,,,-1278056086034878720,0.0,4246.136639267206,6.9058533553866175,11.554974348244961,1204,5,0.0,15,117066694254794,9,35.1,13.534634590148926,0.036000002175569534,0,0.0,0.0,,,,,0,,1,,
Raw,3376409,3380729000000,,,-1278056086034878720,0.0,4246.136639267206,6.9058533553866175,11.554974348244961,1204,12,0.0,15,117066684983806,9,35.5,316.7977600097656,0.021000001579523087,0,0.0,0.0,,,,,0,,1,,
Raw,3376409,3380729000000,,,-1278056086034878720,0.0,4246.136639267206,6.9058533553866175,11.554974348244961,1204,13,0.0,15,117066690115552,13,31.0,-604.076171875,0.03880000114440918,0,0.0,0.0,,,,,0,,1,,
Raw,3376410,3380729000000,,,-1278056086034878720,0.0,4246.136639267206,6.9058533553866175,11.554974348244961,1204,15,0.0,15,117066682717809,13,31.1,-718.646728515625,0.026799999177455902,0,0.0,0.0,,,,,0,,1,,
Raw,3376410,3380729000000,,,-1278056086034878720,0.0,4246.136639267206,6.9058533553866175,11.554974348244961,1204,19,0.0,15,117066688997710,21,26.6,615.7862548828125,0.10969999432563782,0,0.0,0.0,,,,,0,,1,,
Raw,3376410,3380729000000,,,-1278056086034878720,0.0,4246.136639267206,6.9058533553866175,11.554974348244961,1204,25,0.0,15,117066681519926,16,29.1,123.92266845703125,0.06120000034570694,0,0.0,0.0,,,,,0,,1,,
Raw,3376410,3380729000000,,,-1278056086034878720,0.0,4246.136639267206,6.9058533553866175,11.554974348244961,1204,29,0.0,15,117066681640592,31,23.3,-658.51123046875,0.7429999709129333,0,0.0,0.0,,,,,0,,1,,
Fix,gps,22.925297,120.294676,52.237122,0.000000,5.360000,1594024249000
NMEA,$GPGSV,4,1,13,02,55,009,22,05,55,309,35,12,21,254,36,13,37,182,31*75,1594024248190
NMEA,$GPGSV,4,2,13,15,13,208,31,19,35,150,27,25,10,282,29,29,09,322,23*79,1594024248191
NMEA,$GPGSV,4,3,13,06,40,071,,07,06,082,,09,12,039,,17,16,150,*76,1594024248192
NMEA,$GPGSV,4,4,13,30,10,113,*4A,1594024248193
NMEA,$GLGSV,2,1,07,82,47,109,29,69,48,232,36,68,65,354,31,84,09,330,*66,1594024248194
NMEA,$GLGSV,2,2,07,83,58,014,,81,04,135,,67,16,026,*59,1594024248195
NMEA,$GAGSV,1,1,0,*74,1594024248195
NMEA,$PQGSV,1,1,03,195,68,146,26,193,69,052,,194,11,158,,0,5*6E,1594024248196
NMEA,$PQGSV,1,1,0,*73,1594024248197
NMEA,$GNGSA,A,3,02,05,12,13,15,19,25,29,,,,,1.3,1.0,0.9,1*3D,1594024248199
NMEA,$GNGSA,A,2,68,69,,,,,,,,,,,1.3,1.0,0.9,2*38,1594024248200
NMEA,$GNVTG,,T,,M,0.0,N,0.0,K,A*3D,1594024248201
NMEA,$GNRMC,083049.00,A,2255.517818,N,12017.680567,E,0.0,,060720,2.8,W,A*15,1594024248201
NMEA,$GNGGA,083049.00,2255.517818,N,12017.680567,E,1,10,1.0,34.8,M,17.5,M,,*45,1594024248202
Raw,3377392,3381744000000,,,-1278056086034048768,0.0,4248.98648634553,7.526577188249483,9.415560715497687,1205,18,0.0,207,41449709923714,16,29.4,267.6020202636719,0.24320000410079956,0,0.0,0.0,,,,,0,,3,,
Raw,3377392,3381744000000,,,-1278056086034048768,0.0,4248.98648634553,7.526577188249483,9.415560715497687,1205,5,0.0,207,41449710201852,9,35.7,-365.2810974121094,0.23000000417232513,0,0.0,0.0,,,,,0,,3,,
Raw,3377393,3381744000000,,,-1278056086034048768,0.0,4248.98648634553,7.526577188249483,9.415560715497687,1205,4,0.0,207,41449712726081,13,31.1,334.7100830078125,0.24180001020431519,0,0.0,0.0,,,,,0,,3,,
Raw,3377393,3381744000000,,,-1278056086034048768,0.0,4248.98648634553,7.526577188249483,9.415560715497687,1205,2,0.0,15,117067705897890,35,22.7,-203.3192901611328,0.718999981880188,0,0.0,0.0,,,,,0,,1,,
Raw,3377393,3381744000000,,,-1278056086034048768,0.0,4248.98648634553,7.526577188249483,9.415560715497687,1205,5,0.0,15,117067708425000,10,34.6,12.760618209838867,0.029100000858306885,0,0.0,0.0,,,,,0,,1,,
Raw,3377393,3381744000000,,,-1278056086034048768,0.0,4248.98648634553,7.526577188249483,9.415560715497687,1205,12,0.0,15,117067699152960,9,35.6,316.02593994140625,0.04350000247359276,0,0.0,0.0,,,,,0,,1,,
Raw,3377394,3381744000000,,,-1278056086034048768,0.0,4248.98648634553,7.526577188249483,9.415560715497687,1205,13,0.0,15,117067704287800,14,30.5,-604.9266357421875,0.06280000507831573,0,0.0,0.0,,,,,0,,1,,
Raw,3377394,3381744000000,,,-1278056086034048768,0.0,4248.98648634553,7.526577188249483,9.415560715497687,1205,15,0.0,15,117067696890476,13,31.3,-719.4989013671875,0.04780000075697899,0,0.0,0.0,,,,,0,,1,,
Raw,3377394,3381744000000,,,-1278056086034048768,0.0,4248.98648634553,7.526577188249483,9.415560715497687,1205,19,0.0,15,117067703165830,21,26.6,614.9395141601562,0.13220000267028809,0,0.0,0.0,,,,,0,,1,,
Raw,3377394,3381744000000,,,-1278056086034048768,0.0,4248.98648634553,7.526577188249483,9.415560715497687,1205,25,0.0,15,117067695689794,17,28.5,123.13249206542969,0.0632999986410141,0,0.0,0.0,,,,,0,,1,,
Raw,3377395,3381744000000,,,-1278056086034048768,0.0,4248.98648634553,7.526577188249483,9.415560715497687,1205,29,0.0,15,117067695812959,27,24.1,-659.0060424804688,0.6739999651908875,0,0.0,0.0,,,,,0,,1,,
Fix,gps,22.925297,120.294676,52.246521,0.000000,5.360000,1594024250000
NMEA,$GPGSV,4,1,13,02,55,009,23,05,55,309,35,12,21,254,36,13,37,182,31*74,1594024249189
NMEA,$GPGSV,4,2,13,15,13,208,31,19,35,150,27,25,10,282,29,29,09,322,24*7E,1594024249189
NMEA,$GPGSV,4,3,13,06,40,071,,07,06,082,,09,12,039,,17,16,150,*76,1594024249193
NMEA,$GPGSV,4,4,13,30,10,113,*4A,1594024249198
NMEA,$GLGSV,2,1,07,82,47,109,29,69,48,232,36,68,65,354,31,84,09,330,*66,1594024249199
NMEA,$GLGSV,2,2,07,83,58,014,,81,04,135,,67,16,026,*59,1594024249200
NMEA,$GAGSV,1,1,0,*74,1594024249202
NMEA,$PQGSV,1,1,03,195,68,146,27,193,69,052,,194,11,158,,0,5*6F,1594024249204
NMEA,$PQGSV,1,1,0,*73,1594024249205
NMEA,$GNGSA,A,3,02,05,12,13,15,19,25,29,,,,,1.3,1.0,0.9,1*3D,1594024249206
NMEA,$GNGSA,A,2,68,69,,,,,,,,,,,1.3,1.0,0.9,2*38,1594024249206
NMEA,$GNVTG,,T,,M,0.0,N,0.0,K,A*3D,1594024249207
NMEA,$GNRMC,083050.00,A,2255.517816,N,12017.680565,E,0.0,,060720,2.8,W,A*11,1594024249207
NMEA,$GNGGA,083050.00,2255.517816,N,12017.680565,E,1,10,1.0,34.8,M,17.5,M,,*41,1594024249207
Raw,3378391,3382738000000,,,-1278056086033339904,0.0,4244.241863489151,4.750790624521367,9.298168820069282,1206,18,0.0,207,41450703213639,16,29.7,267.6380615234375,0.26420000195503235,0,0.0,0.0,,,,,0,,3,,
Raw,3378391,3382738000000,,,-1278056086033339904,0.0,4244.241863489151,4.750790624521367,9.298168820069282,1206,5,0.0,207,41450703493762,9,35.5,-365.2402648925781,0.24950000643730164,0,0.0,0.0,,,,,0,,3,,
Raw,3378392,3382738000000,,,-1278056086033339904,0.0,4244.241863489151,4.750790624521367,9.298168820069282,1206,4,0.0,207,41450706015672,14,30.9,334.68157958984375,0.23579999804496765,0,0.0,0.0,,,,,0,,3,,
Raw,3378392,3382738000000,,,-1278056086033339904,0.0,4244.241863489151,4.750790624521367,9.298168820069282,1206,2,0.0,15,117068699189268,40,21.0,-203.50006103515625,0.8600000143051147,0,0.0,0.0,,,,,0,,1,,
Raw,3378392,3382738000000,,,-1278056086033339904,0.0,4244.241863489151,4.750790624521367,9.298168820069282,1206,5,0.0,15,117068701715674,10,34.5,12.715611457824707,0.04859999939799309,0,0.0,0.0,,,,,0,,1,,
Raw,3378392,3382738000000,,,-1278056086033339904,0.0,4244.241863489151,4.750790624521367,9.298168820069282,1206,12,0.0,15,117068692442622,9,35.4,315.95001220703125,0.032999999821186066,0,0.0,0.0,,,,,0,,1,,
Raw,3378393,3382738000000,,,-1278056086033339904,0.0,4244.241863489151,4.750790624521367,9.298168820069282,1206,13,0.0,15,117068697580542,14,30.8,-604.9762573242188,0.05230000242590904,0,0.0,0.0,,,,,0,,1,,
Raw,3378393,3382738000000,,,-1278056086033339904,0.0,4244.241863489151,4.750790624521367,9.298168820069282,1206,15,0.0,15,117068690183595,14,30.8,-719.4718627929688,0.3865000009536743,0,0.0,0.0,,,,,0,,1,,
Raw,3378393,3382738000000,,,-1278056086033339904,0.0,4244.241863489151,4.750790624521367,9.298168820069282,1206,19,0.0,15,117068696454602,24,25.7,614.9473266601562,0.20340000092983246,0,0.0,0.0,,,,,0,,1,,
Raw,3378393,3382738000000,,,-1278056086033339904,0.0,4244.241863489151,4.750790624521367,9.298168820069282,1206,25,0.0,15,117068688980071,19,27.8,123.37299346923828,0.07559999823570251,0,0.0,0.0,,,,,0,,1,,
Raw,3378393,3382738000000,,,-1278056086033339904,0.0,4244.241863489151,4.750790624521367,9.298168820069282,1206,29,0.0,15,117068689105957,31,23.4,-659.576904296875,0.7249999642372131,0,0.0,0.0,,,,,0,,1,,
Fix,gps,22.925297,120.294676,52.248779,0.000000,4.288000,1594024251000
NMEA,$GPGSV,4,1,13,02,55,009,21,05,55,309,35,12,21,254,35,13,37,182,31*75,1594024250189
NMEA,$GPGSV,4,2,13,15,13,208,31,19,35,150,26,25,10,282,28,29,09,322,23*79,1594024250189
NMEA,$GPGSV,4,3,13,06,40,071,,07,06,082,,09,12,039,,17,16,150,*76,1594024250190
NMEA,$GPGSV,4,4,13,30,10,113,*4A,1594024250190
NMEA,$GLGSV,2,1,07,82,47,109,30,69,48,232,36,68,65,354,31,84,09,330,*6E,1594024250194
NMEA,$GLGSV,2,2,07,83,58,014,,81,04,135,,67,16,026,*59,1594024250195
NMEA,$GAGSV,1,1,0,*74,1594024250196
NMEA,$PQGSV,1,1,03,195,68,146,26,193,69,052,,194,11,158,,0,5*6E,1594024250196
NMEA,$PQGSV,1,1,0,*73,1594024250196
NMEA,$GNGSA,A,3,02,05,12,13,15,19,25,29,,,,,1.3,1.0,0.9,1*3D,1594024250198
NMEA,$GNGSA,A,2,68,69,,,,,,,,,,,1.3,1.0,0.9,2*38,1594024250198
NMEA,$GNVTG,,T,,M,0.0,N,0.0,K,A*3D,1594024250199
NMEA,$GNRMC,083051.00,A,2255.517815,N,12017.680564,E,0.0,,060720,2.8,W,A*12,1594024250199
NMEA,$GNGGA,083051.00,2255.517815,N,12017.680564,E,1,10,1.0,34.8,M,17.5,M,,*42,1594024250200
Raw,3379405,3383727000000,,,-1278056086032918784,0.0,4235.327709466219,4.410952495530177,11.549195057378576,1207,18,0.0,207,41451691791998,16,29.9,268.1022033691406,0.24620001018047333,0,0.0,0.0,,,,,0,,3,,
Raw,3379405,3383727000000,,,-1278056086032918784,0.0,4235.327709466219,4.410952495530177,11.549195057378576,1207,5,0.0,207,41451692074238,9,35.6,-364.81781005859375,0.2330000102519989,0,0.0,0.0,,,,,0,,3,,
Raw,3379405,3383727000000,,,-1278056086032918784,0.0,4235.327709466219,4.410952495530177,11.549195057378576,1207,4,0.0,207,41451694593813,13,31.2,335.20721435546875,0.24480001628398895,0,0.0,0.0,,,,,0,,3,,
Raw,3379406,3383727000000,,,-1278056086032918784,0.0,4235.327709466219,4.410952495530177,11.549195057378576,1207,2,0.0,15,117069687769247,40,21.9,-204.1851043701172,0.7820000052452087,0,0.0,0.0,,,,,0,,1,,
Raw,3379406,3383727000000,,,-1278056086032918784,0.0,4235.327709466219,4.410952495530177,11.549195057378576,1207,5,0.0,15,117069690294871,10,34.7,13.066679000854492,0.032099999487400055,0,0.0,0.0,,,,,0,,1,,
Raw,3379406,3383727000000,,,-1278056086032918784,0.0,4235.327709466219,4.410952495530177,11.549195057378576,1207,12,0.0,15,117069681020795,9,35.8,316.37384033203125,0.04650000110268593,0,0.0,0.0,,,,,0,,1,,
Raw,3379407,3383727000000,,,-1278056086032918784,0.0,4235.327709466219,4.410952495530177,11.549195057378576,1207,13,0.0,15,117069686161777,14,30.8,-604.575927734375,0.03579999879002571,0,0.0,0.0,,,,,0,,1,,
Raw,3379407,3383727000000,,,-1278056086032918784,0.0,4235.327709466219,4.410952495530177,11.549195057378576,1207,15,0.0,15,117069678765184,14,30.4,-719.2100830078125,0.05380000174045563,0,0.0,0.0,,,,,0,,1,,
Raw,3379407,3383727000000,,,-1278056086032918784,0.0,4235.327709466219,4.410952495530177,11.549195057378576,1207,19,0.0,15,117069685031810,24,25.6,615.4012451171875,0.18690000474452972,0,0.0,0.0,,,,,0,,1,,
Raw,3379407,3383727000000,,,-1278056086032918784,0.0,4235.327709466219,4.410952495530177,11.549195057378576,1207,25,0.0,15,117069677558945,17,28.4,123.52072143554688,0.06629999727010727,0,0.0,0.0,,,,,0,,1,,
Raw,3379408,3383727000000,,,-1278056086032918784,0.0,4235.327709466219,4.410952495530177,11.549195057378576,1207,29,0.0,15,117069677687348,40,21.5,-658.3685302734375,0.796999990940094,0,0.0,0.0,,,,,0,,1,,
Fix,gps,22.925297,120.294676,52.251038,0.000000,5.360000,1594024252000
NMEA,$GPGSV,4,1,13,02,55,009,22,05,55,309,35,12,21,254,36,13,37,182,31*75,1594024251190
NMEA,$GPGSV,4,2,13,15,13,208,30,19,35,150,26,25,10,282,28,29,09,322,22*79,1594024251191
NMEA,$GPGSV,4,3,13,06,40,071,,07,06,082,,09,12,039,,17,16,150,*76,1594024251191
NMEA,$GPGSV,4,4,13,30,10,113,*4A,1594024251193
NMEA,$GLGSV,2,1,07,82,47,109,30,69,48,232,36,68,65,354,31,84,09,330,*6E,1594024251197
NMEA,$GLGSV,2,2,07,83,58,014,,81,04,135,,67,16,026,*59,1594024251197
NMEA,$GAGSV,1,1,0,*74,1594024251198
NMEA,$PQGSV,1,1,03,195,68,146,26,193,69,052,,194,11,158,,0,5*6E,1594024251201
NMEA,$PQGSV,1,1,0,*73,1594024251202
NMEA,$GNGSA,A,3,02,05,12,13,15,19,25,29,,,,,1.3,1.0,0.9,1*3D,1594024251205
NMEA,$GNGSA,A,2,68,69,,,,,,,,,,,1.3,1.0,0.9,2*38,1594024251205
NMEA,$GNVTG,,T,,M,0.0,N,0.0,K,A*3D,1594024251206
NMEA,$GNRMC,083052.00,A,2255.517812,N,12017.680564,E,0.0,,060720,2.8,W,A*16,1594024251206
NMEA,$GNGGA,083052.00,2255.517812,N,12017.680564,E,1,10,1.0,34.8,M,17.5,M,,*46,1594024251206
Raw,3380389,3384741000000,,,-1278056086032858624,0.0,4239.767789840698,5.721630769278573,9.439299786966195,1208,18,0.0,207,41452705730715,16,29.7,268.4287414550781,0.23720000684261322,0,0.0,0.0,,,,,0,,3,,
