# 
# Header Description:
# 
# Version: v2.0.0.1 Platform: 8.0.0 Manufacturer: Sony Model: G8142
# 
# Raw,ElapsedRealtimeMillis,TimeNanos,LeapSecond,TimeUncertaintyNanos,FullBiasNanos,BiasNanos,BiasUncertaintyNanos,DriftNanosPerSecond,DriftUncertaintyNanosPerSecond,HardwareClockDiscontinuityCount,Svid,TimeOffsetNanos,State,ReceivedSvTimeNanos,ReceivedSvTimeUncertaintyNanos,Cn0DbHz,PseudorangeRateMetersPerSecond,PseudorangeRateUncertaintyMetersPerSecond,AccumulatedDeltaRangeState,AccumulatedDeltaRangeMeters,AccumulatedDeltaRangeUncertaintyMeters,CarrierFrequencyHz,CarrierCycles,CarrierPhase,CarrierPhaseUncertainty,MultipathIndicator,SnrInDb,ConstellationType,AgcDb,CarrierFrequencyHz
# 
# Fix,Provider,Latitude,Longitude,Altitude,Speed,Accuracy,(UTC)TimeInMs
# 
# Nav,Svid,Type,Status,MessageId,Sub-messageId,Data(Bytes)
# 
Raw,3723039,3743015000000,,,-1278313578426118144,0.0,100.68623669212684,12.770509445606928,18.919608919304086,14,1,0.0,207,40103359998207,197,19.8,-705.565185546875,8.61500072479248,0,0.0,0.0,,,,,0,,3,,
Raw,3723040,3743015000000,,,-1278313578426118144,0.0,100.68623669212684,12.770509445606928,18.919608919304086,14,21,0.0,207,40103374162046,577,16.2,132.811279296875,15.637500762939453,0,0.0,0.0,,,,,0,,3,,
Raw,3723040,3743015000000,,,-1278313578426118144,0.0,100.68623669212684,12.770509445606928,18.919608919304086,14,8,0.0,207,40103372141073,172,12.1,-443.7292785644531,4.814500331878662,0,0.0,0.0,,,,,0,,3,,
Raw,3723040,3743015000000,,,-1278313578426118144,0.0,100.68623669212684,12.770509445606928,18.919608919304086,14,2,0.0,15,374921368532192,557,14.0,-209.10418701171875,14.988500595092773,0,0.0,0.0,,,,,0,,1,,
Raw,3723040,3743015000000,,,-1278313578426118144,0.0,100.68623669212684,12.770509445606928,18.919608919304086,14,5,0.0,15,374921371479564,2461,12.9,-23.67253303527832,33.11300277709961,0,0.0,0.0,,,,,0,,1,,
Raw,3723040,3743015000000,,,-1278313578426118144,0.0,100.68623669212684,12.770509445606928,18.919608919304086,14,6,0.0,15,374921367814723,1236,13.8,125.33692932128906,23.132001876831055,0,0.0,0.0,,,,,0,,1,,
Raw,3723040,3743015000000,,,-1278313578426118144,0.0,100.68623669212684,12.770509445606928,18.919608919304086,14,12,0.0,15,374921362827439,12,32.3,280.8588562011719,0.026900000870227814,0,0.0,0.0,,,,,0,,1,,
Raw,3723041,3743015000000,,,-1278313578426118144,0.0,100.68623669212684,12.770509445606928,18.919608919304086,14,13,0.0,15,374921366098792,27,24.6,-632.4790649414062,0.6255000233650208,0,0.0,0.0,,,,,0,,1,,
Raw,3723041,3743015000000,,,-1278313578426118144,0.0,100.68623669212684,12.770509445606928,18.919608919304086,14,15,0.0,15,374921358471356,10,34.6,-723.571044921875,0.04910000041127205,0,0.0,0.0,,,,,0,,1,,
Raw,3723041,3743015000000,,,-1278313578426118144,0.0,100.68623669212684,12.770509445606928,18.919608919304086,14,17,0.0,15,374921363362013,1238,16.1,637.084228515625,11.191000938415527,0,0.0,0.0,,,,,0,,1,,
Raw,3723041,3743015000000,,,-1278313578426118144,0.0,100.68623669212684,12.770509445606928,18.919608919304086,14,19,0.0,15,374921367456727,16,29.0,575.3734741210938,0.03720000013709068,0,0.0,0.0,,,,,0,,1,,
Raw,3723041,3743015000000,,,-1278313578426118144,0.0,100.68623669212684,12.770509445606928,18.919608919304086,14,25,0.0,15,374921358941058,31,23.2,73.65316772460938,0.7534999847412109,0,0.0,0.0,,,,,0,,1,,
Raw,3723042,3743015000000,,,-1278313578426118144,0.0,100.68623669212684,12.770509445606928,18.919608919304086,14,29,0.0,15,374921357569516,483,22.4,-668.4541015625,14.582000732421875,0,0.0,0.0,,,,,0,,1,,
Raw,3723042,3743015000000,,,-1278313578426118144,0.0,100.68623669212684,12.770509445606928,18.919608919304086,14,4,0.0,783,374907314622677,702,18.3,15.238332748413086,17.443500518798828,0,0.0,0.0,,,,,0,,5,,
Raw,3723042,3743015000000,,,-1278313578426118144,0.0,100.68623669212684,12.770509445606928,18.919608919304086,14,5,0.0,783,374907307961409,26,25.8,0.8065659403800964,1.2450000047683716,0,0.0,0.0,,,,,0,,5,,
Raw,3723042,3743015000000,,,-1278313578426118144,0.0,100.68623669212684,12.770509445606928,18.919608919304086,14,6,0.0,15,374907317569605,1244,13.4,-221.06626892089844,7.4720001220703125,0,0.0,0.0,,,,,0,,5,,
Raw,3723042,3743015000000,,,-1278313578426118144,0.0,100.68623669212684,12.770509445606928,18.919608919304086,14,7,0.0,15,374907310510704,19,27.1,283.0754699707031,0.056300003081560135,0,0.0,0.0,,,,,0,,5,,
Raw,3723043,3743015000000,,,-1278313578426118144,0.0,100.68623669212684,12.770509445606928,18.919608919304086,14,9,0.0,15,374907311834820,53,19.0,-255.1532745361328,0.8629999756813049,0,0.0,0.0,,,,,0,,5,,
Raw,3723043,3743015000000,,,-1278313578426118144,0.0,100.68623669212684,12.770509445606928,18.919608919304086,14,10,0.0,15,374907312159180,78,17.5,311.804931640625,2.514500141143799,0,0.0,0.0,,,,,0,,5,,
Raw,3723043,3743015000000,,,-1278313578426118144,0.0,100.68623669212684,12.770509445606928,18.919608919304086,14,16,0.0,15,374907315504962,372,11.6,-251.99423217773438,10.619000434875488,0,0.0,0.0,,,,,0,,5,,
Raw,3723043,3743015000000,,,-1278313578426118144,0.0,100.68623669212684,12.770509445606928,18.919608919304086,14,19,0.0,15,374907353576949,24,25.8,-502.0026550292969,0.40130001306533813,0,0.0,0.0,,,,,0,,5,,
Raw,3723043,3743015000000,,,-1278313578426118144,0.0,100.68623669212684,12.770509445606928,18.919608919304086,14,20,0.0,15,374907365335366,211,17.8,-208.37245178222656,8.42400074005127,0,0.0,0.0,,,,,0,,5,,
Raw,3723044,3743015000000,,,-1278313578426118144,0.0,100.68623669212684,12.770509445606928,18.919608919304086,14,27,0.0,15,374907365072262,27,24.8,346.4392395019531,0.5339999794960022,0,0.0,0.0,,,,,0,,5,,
Raw,3723044,3743015000000,,,-1278313578426118144,0.0,100.68623669212684,12.770509445606928,18.919608919304086,14,29,0.0,15,374907357545158,97,17.6,-556.9529418945312,4.022000312805176,0,0.0,0.0,,,,,0,,5,,
Raw,3723044,3743015000000,,,-1278313578426118144,0.0,100.68623669212684,12.770509445606928,18.919608919304086,14,30,0.0,15,374907368901731,2902,12.2,-191.2809295654297,35.988502502441406,0,0.0,0.0,,,,,0,,5,,
Raw,3723044,3743015000000,,,-1278313578426118144,0.0,100.68623669212684,12.770509445606928,18.919608919304086,14,4,0.0,7183,374921357074568,136,16.3,-430.729736328125,5.522000312805176,0,0.0,0.0,,,,,0,,6,,
Raw,3723044,3743015000000,,,-1278313578426118144,0.0,100.68623669212684,12.770509445606928,18.919608919304086,14,11,0.0,7183,374921350977204,46,20.8,-404.53582763671875,0.7534999847412109,0,0.0,0.0,,,,,0,,6,,
Raw,3723045,3743015000000,,,-1278313578426118144,0.0,100.68623669212684,12.770509445606928,18.919608919304086,14,24,0.0,7183,374921352657419,14,30.9,291.1260070800781,0.049800001084804535,0,0.0,0.0,,,,,0,,6,,
Raw,3723045,3743015000000,,,-1278313578426118144,0.0,100.68623669212684,12.770509445606928,18.919608919304086,14,31,0.0,7183,374921347180018,19,27.1,342.5093994140625,0.06980000436306,0,0.0,0.0,,,,,0,,6,,
Fix,gps,22.925270,120.294587,50.189758,0.200000,11.792000,1594282104000
NMEA,$GPGSV,4,1,13,02,54,004,14,05,55,300,13,06,42,066,14,12,22,258,32*70,1594282103454
NMEA,$GPGSV,4,2,13,13,33,182,25,15,09,208,35,17,20,149,16,19,40,147,29*78,1594282103454
NMEA,$GPGSV,4,3,13,25,10,286,23,29,06,323,22,07,04,087,,09,16,040,*7E,1594282103454
NMEA,$GPGSV,4,4,13,30,09,118,*49,1594282103454
NMEA,$GLGSV,2,1,06,65,02,216,20,85,54,095,16,72,43,226,12,70,25,025,*61,1594282103454
NMEA,$GLGSV,2,2,06,84,06,130,,71,73,341,*6F,1594282103454
NMEA,$GAGSV,1,1,04,04,40,208,16,11,05,312,21,24,07,261,31,31,07,215,27*67,1594282103455
NMEA,$PQGSV,1,1,0,*73,1594282103455
NMEA,$PQGSV,4,1,16,04,37,113,18,05,17,258,26,06,48,172,13,07,20,195,27,0,4*6A,1594282103455
NMEA,$PQGSV,4,2,16,09,26,191,19,10,26,220,18,16,44,178,12,19,06,229,26,0,4*63,1594282103455
NMEA,$PQGSV,4,3,16,20,53,248,18,27,47,126,25,29,18,320,18,30,72,341,12,0,4*65,1594282103455
NMEA,$PQGSV,4,4,16,01,50,130,,03,62,203,,08,49,007,,13,41,330,,0,4*69,1594282103455
NMEA,$GNGSA,A,3,12,13,15,17,19,25,,,,,,,1.5,1.2,0.9,1*33,1594282103455
NMEA,$GNGSA,A,2,72,,,,,,,,,,,,1.5,1.2,0.9,2*38,1594282103455
NMEA,$GNGSA,A,3,04,11,24,31,,,,,,,,,1.5,1.2,0.9,3*3D,1594282103455
NMEA,$PQGSA,A,3,05,07,09,10,,,,,,,,,1.5,1.2,0.9,4*38,1594282103456
NMEA,$GNVTG,80.5,T,80.5,M,0.4,N,0.7,K,A*3E,1594282103456
NMEA,$GNRMC,080824.00,A,2255.516215,N,12017.675221,E,0.4,80.5,090720,2.8,W,A*04,1594282103456
NMEA,$GNGGA,080824.00,2255.516215,N,12017.675221,E,1,12,1.2,32.7,M,17.5,M,,*45,1594282103456
Fix,gps,22.925273,120.294583,51.775940,0.000000,11.792000,1594282105000
NMEA,$GPGSV,4,1,13,02,54,004,10,05,55,300,13,06,42,066,12,12,22,258,32*72,1594282104457
NMEA,$GPGSV,4,2,13,13,33,182,24,15,09,208,33,17,20,149,13,19,40,147,28*7B,1594282104457
Raw,3724076,3744015000000,,,-1278313578426118144,0.0,98.32658543018624,10.315470343848176,16.19838603476922,14,1,0.0,207,40104360000560,255,19.8,-705.565185546875,10.11500072479248,0,0.0,0.0,,,,,0,,3,,
Raw,3724076,3744015000000,,,-1278313578426118144,0.0,98.32658543018624,10.315470343848176,16.19838603476922,14,21,0.0,207,40104374161603,682,16.2,132.811279296875,17.137500762939453,0,0.0,0.0,,,,,0,,3,,
Raw,3724077,3744015000000,,,-1278313578426118144,0.0,98.32658543018624,10.315470343848176,16.19838603476922,14,8,0.0,207,40104372142682,93,15.7,-444.7376708984375,1.474500060081482,0,0.0,0.0,,,,,0,,3,,
Raw,3724077,3744015000000,,,-1278313578426118144,0.0,98.32658543018624,10.315470343848176,16.19838603476922,14,2,0.0,15,374922368532967,289,9.6,-209.10418701171875,8.03849983215332,0,0.0,0.0,,,,,0,,1,,
Raw,3724078,3744015000000,,,-1278313578426118144,0.0,98.32658543018624,10.315470343848176,16.19838603476922,14,5,0.0,15,374922371479643,2682,12.9,-23.67253303527832,34.61300277709961,0,0.0,0.0,,,,,0,,1,,
Raw,3724078,3744015000000,,,-1278313578426118144,0.0,98.32658543018624,10.315470343848176,16.19838603476922,14,6,0.0,15,374922367814305,242,12.2,123.4815673828125,7.707000255584717,0,0.0,0.0,,,,,0,,1,,
Raw,3724079,3744015000000,,,-1278313578426118144,0.0,98.32658543018624,10.315470343848176,16.19838603476922,14,12,0.0,15,374922362826495,12,32.4,279.370361328125,0.026900000870227814,0,0.0,0.0,,,,,0,,1,,
Raw,3724079,3744015000000,,,-1278313578426118144,0.0,98.32658543018624,10.315470343848176,16.19838603476922,14,13,0.0,15,374922366100876,31,23.9,-633.7445678710938,0.6754999756813049,0,0.0,0.0,,,,,0,,1,,
Raw,3724080,3744015000000,,,-1278313578426118144,0.0,98.32658543018624,10.315470343848176,16.19838603476922,14,15,0.0,15,374922358473789,11,33.3,-725.1400146484375,0.04990000277757645,0,0.0,0.0,,,,,0,,1,,
Raw,3724080,3744015000000,,,-1278313578426118144,0.0,98.32658543018624,10.315470343848176,16.19838603476922,14,17,0.0,15,374922363359916,1662,12.7,635.9043579101562,8.906000137329102,0,0.0,0.0,,,,,0,,1,,
Raw,3724080,3744015000000,,,-1278313578426118144,0.0,98.32658543018624,10.315470343848176,16.19838603476922,14,19,0.0,15,374922367454750,17,28.0,574.05908203125,0.043800000101327896,0,0.0,0.0,,,,,0,,1,,
Raw,3724080,3744015000000,,,-1278313578426118144,0.0,98.32658543018624,10.315470343848176,16.19838603476922,14,25,0.0,15,374922358940862,31,23.2,72.24498748779297,0.7534999847412109,0,0.0,0.0,,,,,0,,1,,
Raw,3724081,3744015000000,,,-1278313578426118144,0.0,98.32658543018624,10.315470343848176,16.19838603476922,14,29,0.0,15,374922357571746,583,22.4,-668.4541015625,16.082000732421875,0,0.0,0.0,,,,,0,,1,,
Raw,3724081,3744015000000,,,-1278313578426118144,0.0,98.32658543018624,10.315470343848176,16.19838603476922,14,4,0.0,783,374908314622626,821,18.3,15.238332748413086,18.943500518798828,0,0.0,0.0,,,,,0,,5,,
Raw,3724081,3744015000000,,,-1278313578426118144,0.0,98.32658543018624,10.315470343848176,16.19838603476922,14,5,0.0,783,374908307961406,38,25.8,0.8065659403800964,2.745000123977661,0,0.0,0.0,,,,,0,,5,,
Raw,3724081,3744015000000,,,-1278313578426118144,0.0,98.32658543018624,10.315470343848176,16.19838603476922,14,6,0.0,15,374908317570359,1115,13.8,-221.46954345703125,8.122000694274902,0,0.0,0.0,,,,,0,,5,,
Raw,3724081,3744015000000,,,-1278313578426118144,0.0,98.32658543018624,10.315470343848176,16.19838603476922,14,7,0.0,15,374908310509768,21,26.9,281.8013916015625,0.12620000541210175,0,0.0,0.0,,,,,0,,5,,
Raw,3724081,3744015000000,,,-1278313578426118144,0.0,98.32658543018624,10.315470343848176,16.19838603476922,14,9,0.0,15,374908311835727,46,20.1,-255.93104553222656,0.8029999732971191,0,0.0,0.0,,,,,0,,5,,
Raw,3724082,3744015000000,,,-1278313578426118144,0.0,98.32658543018624,10.315470343848176,16.19838603476922,14,10,0.0,15,374908312158182,96,15.3,310.028564453125,1.934499979019165,0,0.0,0.0,,,,,0,,5,,
Raw,3724082,3744015000000,,,-1278313578426118144,0.0,98.32658543018624,10.315470343848176,16.19838603476922,14,16,0.0,15,374908315505802,443,11.6,-251.99423217773438,12.119000434875488,0,0.0,0.0,,,,,0,,5,,
Raw,3724082,3744015000000,,,-1278313578426118144,0.0,98.32658543018624,10.315470343848176,16.19838603476922,14,19,0.0,15,374908353578644,24,25.3,-503.51263427734375,0.40130001306533813,0,0.0,0.0,,,,,0,,5,,
Raw,3724082,3744015000000,,,-1278313578426118144,0.0,98.32658543018624,10.315470343848176,16.19838603476922,14,20,0.0,15,374908365336061,269,17.8,-208.37245178222656,9.92400074005127,0,0.0,0.0,,,,,0,,5,,
Raw,3724082,3744015000000,,,-1278313578426118144,0.0,98.32658543018624,10.315470343848176,16.19838603476922,14,27,0.0,15,374908365071103,27,24.5,345.7958984375,0.5839999914169312,0,0.0,0.0,,,,,0,,5,,
Raw,3724083,3744015000000,,,-1278313578426118144,0.0,98.32658543018624,10.315470343848176,16.19838603476922,14,29,0.0,15,374908357547016,126,17.6,-556.9529418945312,5.522000312805176,0,0.0,0.0,,,,,0,,5,,
Raw,3724083,3744015000000,,,-1278313578426118144,0.0,98.32658543018624,10.315470343848176,16.19838603476922,14,30,0.0,15,374908368902369,3143,12.2,-191.2809295654297,37.488502502441406,0,0.0,0.0,,,,,0,,5,,
Raw,3724083,3744015000000,,,-1278313578426118144,0.0,98.32658543018624,10.315470343848176,16.19838603476922,14,4,0.0,7183,374922357075988,158,12.2,-431.728759765625,3.632000207901001,0,0.0,0.0,,,,,0,,6,,
Raw,3724083,3744015000000,,,-1278313578426118144,0.0,98.32658543018624,10.315470343848176,16.19838603476922,14,11,0.0,7183,374922350978536,46,20.5,-406.02960205078125,0.7534999847412109,0,0.0,0.0,,,,,0,,6,,
Raw,3724083,3744015000000,,,-1278313578426118144,0.0,98.32658543018624,10.315470343848176,16.19838603476922,14,24,0.0,7183,374922352656454,16,29.5,290.2073669433594,0.390500009059906,0,0.0,0.0,,,,,0,,6,,
Raw,3724084,3744015000000,,,-1278313578426118144,0.0,98.32658543018624,10.315470343848176,16.19838603476922,14,31,0.0,7183,374922347178877,21,26.1,341.64373779296875,0.48500001430511475,0,0.0,0.0,,,,,0,,6,,
NMEA,$GPGSV,4,3,13,25,10,286,23,29,06,323,22,07,04,087,,09,16,040,*7E,1594282104457
NMEA,$GPGSV,4,4,13,30,09,118,*49,1594282104457
NMEA,$GLGSV,2,1,06,65,02,216,20,85,54,095,16,72,43,226,16,70,25,025,*65,1594282104458
NMEA,$GLGSV,2,2,06,84,06,130,,71,73,341,*6F,1594282104458
NMEA,$GAGSV,1,1,04,04,40,208,12,11,05,312,21,24,07,261,30,31,07,215,26*63,1594282104458
NMEA,$PQGSV,1,1,0,*73,1594282104458
NMEA,$PQGSV,4,1,16,04,37,113,18,05,17,258,26,06,48,172,14,07,20,195,27,0,4*6D,1594282104459
NMEA,$PQGSV,4,2,16,09,26,191,20,10,26,220,15,16,44,178,12,19,06,229,25,0,4*67,1594282104459
NMEA,$PQGSV,4,3,16,20,53,248,18,27,47,126,25,29,18,320,18,30,72,341,12,0,4*65,1594282104459
NMEA,$PQGSV,4,4,16,01,50,130,,03,62,203,,08,49,007,,13,41,330,,0,4*69,1594282104459
NMEA,$GNGSA,A,3,12,13,15,19,25,,,,,,,,1.1,0.8,0.8,1*3B,1594282104460
NMEA,$GNGSA,A,2,72,,,,,,,,,,,,1.1,0.8,0.8,2*36,1594282104462
NMEA,$GNGSA,A,2,11,24,31,,,,,,,,,,1.1,0.8,0.8,3*36,1594282104463
NMEA,$PQGSA,A,3,05,06,07,09,10,,,,,,,,1.1,0.8,0.8,4*30,1594282104463
NMEA,$GNVTG,,T,,M,0.0,N,0.0,K,A*3D,1594282104463
NMEA,$GNRMC,080825.00,A,2255.516358,N,12017.675009,E,0.0,,090720,2.8,W,A*12,1594282104463
NMEA,$GNGGA,080825.00,2255.516358,N,12017.675009,E,1,12,0.8,34.3,M,17.5,M,,*4D,1594282104464
Fix,gps,22.925273,120.294578,52.892517,0.000000,11.792000,1594282106000
NMEA,$GPGSV,4,1,13,02,54,004,17,05,55,300,13,06,42,066,12,12,22,258,33*74,1594282105457
NMEA,$GPGSV,4,2,13,13,33,182,25,15,09,208,33,17,20,149,13,19,40,147,29*7B,1594282105458
NMEA,$GPGSV,4,3,13,25,10,286,23,29,06,323,22,07,04,087,,09,16,040,*7E,1594282105458
NMEA,$GPGSV,4,4,13,30,09,118,*49,1594282105458
NMEA,$GLGSV,2,1,06,65,02,216,20,85,54,095,16,72,43,226,19,70,25,025,*6A,1594282105459
NMEA,$GLGSV,2,2,06,84,06,130,,71,73,341,*6F,1594282105459
NMEA,$GAGSV,1,1,04,04,40,208,12,11,05,312,21,24,07,261,31,31,07,215,27*63,1594282105459
NMEA,$PQGSV,1,1,0,*73,1594282105459
NMEA,$PQGSV,4,1,16,04,37,113,18,05,17,258,26,06,48,172,14,07,20,195,28,0,4*62,1594282105460
NMEA,$PQGSV,4,2,16,09,26,191,20,10,26,220,18,16,44,178,12,19,06,229,25,0,4*6A,1594282105461
NMEA,$PQGSV,4,3,16,20,53,248,18,27,47,126,25,29,18,320,15,01,50,130,,0,4*6D,1594282105461
Raw,3725077,3745015000000,,,-1278313578426118144,0.0,101.96030780207366,6.263969142486957,15.012485410443471,14,1,0.0,207,40105360002914,324,19.8,-705.565185546875,11.61500072479248,0,0.0,0.0,,,,,0,,3,,
Raw,3725077,3745015000000,,,-1278313578426118144,0.0,101.96030780207366,6.263969142486957,15.012485410443471,14,21,0.0,207,40105374161160,797,16.2,132.811279296875,18.637500762939453,0,0.0,0.0,,,,,0,,3,,
Raw,3725077,3745015000000,,,-1278313578426118144,0.0,101.96030780207366,6.263969142486957,15.012485410443471,14,8,0.0,207,40105372143984,53,19.2,-444.8870849609375,1.1345000267028809,0,0.0,0.0,,,,,0,,3,,
Raw,3725077,3745015000000,,,-1278313578426118144,0.0,101.96030780207366,6.263969142486957,15.012485410443471,14,2,0.0,15,374923368533846,70,17.2,-214.93670654296875,1.1784999370574951,0,0.0,0.0,,,,,0,,1,,
Raw,3725078,3745015000000,,,-1278313578426118144,0.0,101.96030780207366,6.263969142486957,15.012485410443471,14,5,0.0,15,374923371479722,2912,12.9,-23.67253303527832,36.11300277709961,0,0.0,0.0,,,,,0,,1,,
Raw,3725078,3745015000000,,,-1278313578426118144,0.0,101.96030780207366,6.263969142486957,15.012485410443471,14,6,0.0,15,374923367813893,293,12.2,123.4815673828125,9.207000732421875,0,0.0,0.0,,,,,0,,1,,
Raw,3725078,3745015000000,,,-1278313578426118144,0.0,101.96030780207366,6.263969142486957,15.012485410443471,14,12,0.0,15,374923362825579,11,33.3,279.4241943359375,0.02590000070631504,0,0.0,0.0,,,,,0,,1,,
Raw,3725078,3745015000000,,,-1278313578426118144,0.0,101.96030780207366,6.263969142486957,15.012485410443471,14,13,0.0,15,374923366103006,27,24.5,-634.0014038085938,0.6255000233650208,0,0.0,0.0,,,,,0,,1,,
Raw,3725078,3745015000000,,,-1278313578426118144,0.0,101.96030780207366,6.263969142486957,15.012485410443471,14,15,0.0,15,374923358476197,11,33.3,-725.1237182617188,0.04990000277757645,0,0.0,0.0,,,,,0,,1,,
Raw,3725079,3745015000000,,,-1278313578426118144,0.0,101.96030780207366,6.263969142486957,15.012485410443471,14,17,0.0,15,374923363357794,1721,12.7,635.9043579101562,10.406000137329102,0,0.0,0.0,,,,,0,,1,,
Raw,3725079,3745015000000,,,-1278313578426118144,0.0,101.96030780207366,6.263969142486957,15.012485410443471,14,19,0.0,15,374923367452859,16,29.3,573.9302368164062,0.03720000013709068,0,0.0,0.0,,,,,0,,1,,
Raw,3725079,3745015000000,,,-1278313578426118144,0.0,101.96030780207366,6.263969142486957,15.012485410443471,14,25,0.0,15,374923358940715,31,23.2,72.40673828125,0.7534999847412109,0,0.0,0.0,,,,,0,,1,,
Raw,3725079,3745015000000,,,-1278313578426118144,0.0,101.96030780207366,6.263969142486957,15.012485410443471,14,29,0.0,15,374923357573976,692,22.4,-668.4541015625,17.582000732421875,0,0.0,0.0,,,,,0,,1,,
Raw,3725080,3745015000000,,,-1278313578426118144,0.0,101.96030780207366,6.263969142486957,15.012485410443471,14,4,0.0,783,374909314622575,949,18.3,15.238332748413086,20.443500518798828,0,0.0,0.0,,,,,0,,5,,
Raw,3725080,3745015000000,,,-1278313578426118144,0.0,101.96030780207366,6.263969142486957,15.012485410443471,14,5,0.0,783,374909307961419,26,25.8,0.5761184692382812,1.2450000047683716,0,0.0,0.0,,,,,0,,5,,
Raw,3725080,3745015000000,,,-1278313578426118144,0.0,101.96030780207366,6.263969142486957,15.012485410443471,14,6,0.0,15,374909317571094,1141,13.8,-221.50796508789062,8.872000694274902,0,0.0,0.0,,,,,0,,5,,
Raw,3725080,3745015000000,,,-1278313578426118144,0.0,101.96030780207366,6.263969142486957,15.012485410443471,14,7,0.0,15,374909310508825,19,27.9,281.4944152832031,0.056300003081560135,0,0.0,0.0,,,,,0,,5,,
Raw,3725080,3745015000000,,,-1278313578426118144,0.0,101.96030780207366,6.263969142486957,15.012485410443471,14,9,0.0,15,374909311836627,53,19.9,-255.74859619140625,0.8029999732971191,0,0.0,0.0,,,,,0,,5,,
Raw,3725081,3745015000000,,,-1278313578426118144,0.0,101.96030780207366,6.263969142486957,15.012485410443471,14,10,0.0,15,374909312157125,70,17.8,310.4894714355469,0.934499979019165,0,0.0,0.0,,,,,0,,5,,
Raw,3725081,3745015000000,,,-1278313578426118144,0.0,101.96030780207366,6.263969142486957,15.012485410443471,14,16,0.0,15,374909315506643,523,11.6,-251.99423217773438,13.619000434875488,0,0.0,0.0,,,,,0,,5,,
Raw,3725081,3745015000000,,,-1278313578426118144,0.0,101.96030780207366,6.263969142486957,15.012485410443471,14,19,0.0,15,374909353580328,24,25.3,-503.5072937011719,0.40130001306533813,0,0.0,0.0,,,,,0,,5,,
Raw,3725081,3745015000000,,,-1278313578426118144,0.0,101.96030780207366,6.263969142486957,15.012485410443471,14,20,0.0,15,374909365336756,337,17.8,-208.37245178222656,11.42400074005127,0,0.0,0.0,,,,,0,,5,,
Raw,3725082,3745015000000,,,-1278313578426118144,0.0,101.96030780207366,6.263969142486957,15.012485410443471,14,27,0.0,15,374909365069970,27,24.6,345.08538818359375,0.5839999914169312,0,0.0,0.0,,,,,0,,5,,
Raw,3725082,3745015000000,,,-1278313578426118144,0.0,101.96030780207366,6.263969142486957,15.012485410443471,14,29,0.0,15,374909357548879,124,14.6,-559.0653686523438,3.5320000648498535,0,0.0,0.0,,,,,0,,5,,
Raw,3725082,3745015000000,,,-1278313578426118144,0.0,101.96030780207366,6.263969142486957,15.012485410443471,14,4,0.0,7183,374923357077428,182,12.2,-431.728759765625,5.13200044631958,0,0.0,0.0,,,,,0,,6,,
Raw,3725082,3745015000000,,,-1278313578426118144,0.0,101.96030780207366,6.263969142486957,15.012485410443471,14,11,0.0,7183,374923350979910,40,21.0,-406.6575622558594,0.6934999823570251,0,0.0,0.0,,,,,0,,6,,
Raw,3725082,3745015000000,,,-1278313578426118144,0.0,101.96030780207366,6.263969142486957,15.012485410443471,14,24,0.0,7183,374923352655485,14,30.7,290.7195739746094,0.049800001084804535,0,0.0,0.0,,,,,0,,6,,
Raw,3725083,3745015000000,,,-1278313578426118144,0.0,101.96030780207366,6.263969142486957,15.012485410443471,14,31,0.0,7183,374923347177724,19,27.3,341.9382019042969,0.06980000436306,0,0.0,0.0,,,,,0,,6,,
NMEA,$PQGSV,4,4,16,03,62,203,,08,49,007,,13,41,330,,30,72,341,,0,4*6F,1594282105461
NMEA,$GNGSA,A,3,02,06,12,13,15,17,19,25,,,,,1.1,0.8,0.8,1*39,1594282105462
NMEA,$GNGSA,A,2,72,,,,,,,,,,,,1.1,0.8,0.8,2*36,1594282105462
NMEA,$GNGSA,A,3,04,11,24,31,,,,,,,,,1.1,0.8,0.8,3*33,1594282105463
NMEA,$PQGSA,A,3,05,06,07,09,10,,,,,,,,1.1,0.8,0.8,4*30,1594282105463
NMEA,$GNVTG,,T,,M,0.0,N,0.0,K,A*3D,1594282105463
NMEA,$GNRMC,080826.00,A,2255.516393,N,12017.674653,E,0.0,,090720,2.8,W,A*1E,1594282105463
NMEA,$GNGGA,080826.00,2255.516393,N,12017.674653,E,1,12,0.8,35.4,M,17.5,M,,*47,1594282105464
Raw,3726096,3746015000000,,,-1278313578426118144,0.0,96.25061647966504,8.726975744664712,12.481074892530874,14,1,0.0,207,40106360005267,403,19.8,-705.565185546875,13.11500072479248,0,0.0,0.0,,,,,0,,3,,
Raw,3726096,3746015000000,,,-1278313578426118144,0.0,96.25061647966504,8.726975744664712,12.481074892530874,14,21,0.0,207,40106374160717,922,16.2,132.811279296875,20.137500762939453,0,0.0,0.0,,,,,0,,3,,
Raw,3726097,3746015000000,,,-1278313578426118144,0.0,96.25061647966504,8.726975744664712,12.481074892530874,14,8,0.0,207,40106372145620,61,18.6,-445.11114501953125,1.214500069618225,0,0.0,0.0,,,,,0,,3,,
Raw,3726097,3746015000000,,,-1278313578426118144,0.0,96.25061647966504,8.726975744664712,12.481074892530874,14,2,0.0,15,374924368534464,70,17.1,-214.87010192871094,1.1784999370574951,0,0.0,0.0,,,,,0,,1,,
Raw,3726097,3746015000000,,,-1278313578426118144,0.0,96.25061647966504,8.726975744664712,12.481074892530874,14,5,0.0,15,374924371480146,224,13.4,-21.664934158325195,7.613000392913818,0,0.0,0.0,,,,,0,,1,,
Raw,3726097,3746015000000,,,-1278313578426118144,0.0,96.25061647966504,8.726975744664712,12.481074892530874,14,6,0.0,15,374924367813454,73,17.1,123.77651977539062,1.9270000457763672,0,0.0,0.0,,,,,0,,1,,
Raw,3726097,3746015000000,,,-1278313578426118144,0.0,96.25061647966504,8.726975744664712,12.481074892530874,14,12,0.0,15,374924362824670,12,32.9,279.4713134765625,0.026900000870227814,0,0.0,0.0,,,,,0,,1,,
Raw,3726098,3746015000000,,,-1278313578426118144,0.0,96.25061647966504,8.726975744664712,12.481074892530874,14,13,0.0,15,374924366105167,31,23.4,-633.991943359375,0.7354999780654907,0,0.0,0.0,,,,,0,,1,,
Raw,3726098,3746015000000,,,-1278313578426118144,0.0,96.25061647966504,8.726975744664712,12.481074892530874,14,15,0.0,15,374924358478621,11,33.3,-725.1710815429688,0.04990000277757645,0,0.0,0.0,,,,,0,,1,,
Raw,3726098,3746015000000,,,-1278313578426118144,0.0,96.25061647966504,8.726975744664712,12.481074892530874,14,17,0.0,15,374924363355673,1790,12.7,635.9043579101562,11.906000137329102,0,0.0,0.0,,,,,0,,1,,
Raw,3726098,3746015000000,,,-1278313578426118144,0.0,96.25061647966504,8.726975744664712,12.481074892530874,14,19,0.0,15,374924367450950,17,28.9,573.9856567382812,0.043800000101327896,0,0.0,0.0,,,,,0,,1,,
Raw,3726099,3746015000000,,,-1278313578426118144,0.0,96.25061647966504,8.726975744664712,12.481074892530874,14,25,0.0,15,374924358940420,31,23.0,72.416259765625,0.7534999847412109,0,0.0,0.0,,,,,0,,1,,
Raw,3726099,3746015000000,,,-1278313578426118144,0.0,96.25061647966504,8.726975744664712,12.481074892530874,14,29,0.0,15,374924357576206,812,22.4,-668.4541015625,19.082000732421875,0,0.0,0.0,,,,,0,,1,,
Raw,3726099,3746015000000,,,-1278313578426118144,0.0,96.25061647966504,8.726975744664712,12.481074892530874,14,4,0.0,783,374910314622524,1088,18.3,15.238332748413086,21.943500518798828,0,0.0,0.0,,,,,0,,5,,
Raw,3726099,3746015000000,,,-1278313578426118144,0.0,96.25061647966504,8.726975744664712,12.481074892530874,14,5,0.0,783,374910307961417,38,25.8,0.5761184692382812,2.745000123977661,0,0.0,0.0,,,,,0,,5,,
Raw,3726099,3746015000000,,,-1278313578426118144,0.0,96.25061647966504,8.726975744664712,12.481074892530874,14,6,0.0,15,374910317571833,1201,13.8,-221.50796508789062,10.372000694274902,0,0.0,0.0,,,,,0,,5,,
Raw,3726100,3746015000000,,,-1278313578426118144,0.0,96.25061647966504,8.726975744664712,12.481074892530874,14,7,0.0,15,374910310507885,19,27.9,281.4524230957031,0.056300003081560135,0,0.0,0.0,,,,,0,,5,,
Raw,3726100,3746015000000,,,-1278313578426118144,0.0,96.25061647966504,8.726975744664712,12.481074892530874,14,9,0.0,15,374910311837440,53,19.0,-256.5263671875,0.8629999756813049,0,0.0,0.0,,,,,0,,5,,
Raw,3726100,3746015000000,,,-1278313578426118144,0.0,96.25061647966504,8.726975744664712,12.481074892530874,14,10,0.0,15,374910312156125,70,17.5,310.0189514160156,1.0145000219345093,0,0.0,0.0,,,,,0,,5,,
Raw,3726100,3746015000000,,,-1278313578426118144,0.0,96.25061647966504,8.726975744664712,12.481074892530874,14,16,0.0,15,374910315507483,614,11.6,-251.99423217773438,15.119000434875488,0,0.0,0.0,,,,,0,,5,,
Raw,3726100,3746015000000,,,-1278313578426118144,0.0,96.25061647966504,8.726975744664712,12.481074892530874,14,19,0.0,15,374910353581978,27,24.6,-503.52752685546875,0.5960000157356262,0,0.0,0.0,,,,,0,,5,,
Raw,3726100,3746015000000,,,-1278313578426118144,0.0,96.25061647966504,8.726975744664712,12.481074892530874,14,20,0.0,15,374910365337451,415,17.8,-208.37245178222656,12.92400074005127,0,0.0,0.0,,,,,0,,5,,
Raw,3726101,3746015000000,,,-1278313578426118144,0.0,96.25061647966504,8.726975744664712,12.481074892530874,14,27,0.0,15,374910365068803,24,25.0,345.70458984375,0.38929998874664307,0,0.0,0.0,,,,,0,,5,,
Raw,3726101,3746015000000,,,-1278313578426118144,0.0,96.25061647966504,8.726975744664712,12.481074892530874,14,29,0.0,15,374910357550778,70,17.5,-559.8815307617188,1.0220000743865967,0,0.0,0.0,,,,,0,,5,,
Raw,3726101,3746015000000,,,-1278313578426118144,0.0,96.25061647966504,8.726975744664712,12.481074892530874,14,4,0.0,7183,374924357078767,96,15.6,-432.803955078125,1.8519999980926514,0,0.0,0.0,,,,,0,,6,,
Raw,3726101,3746015000000,,,-1278313578426118144,0.0,96.25061647966504,8.726975744664712,12.481074892530874,14,11,0.0,7183,374924350981288,40,21.2,-405.9915466308594,0.6934999823570251,0,0.0,0.0,,,,,0,,6,,
Raw,3726101,3746015000000,,,-1278313578426118144,0.0,96.25061647966504,8.726975744664712,12.481074892530874,14,24,0.0,7183,374924352654521,14,30.9,290.2481994628906,0.049800001084804535,0,0.0,0.0,,,,,0,,6,,
Raw,3726102,3746015000000,,,-1278313578426118144,0.0,96.25061647966504,8.726975744664712,12.481074892530874,14,31,0.0,7183,374924347176597,19,27.2,341.7197265625,0.06980000436306,0,0.0,0.0,,,,,0,,6,,
Fix,gps,22.925268,120.294570,56.102661,0.430000,11.792000,1594282107000
NMEA,$GPGSV,4,1,13,02,54,004,17,05,55,300,13,06,42,066,17,12,22,258,33*71,1594282106472
NMEA,$GPGSV,4,2,13,13,33,182,23,15,09,208,33,17,20,149,13,19,40,147,29*7D,1594282106473
NMEA,$GPGSV,4,3,13,25,10,286,23,29,06,323,22,07,04,087,,09,16,040,*7E,1594282106473
NMEA,$GPGSV,4,4,13,30,09,118,*49,1594282106474
NMEA,$GLGSV,2,1,06,65,02,216,20,85,54,095,16,72,43,226,19,70,25,025,*6A,1594282106475
NMEA,$GLGSV,2,2,06,84,06,130,,71,73,341,*6F,1594282106476
NMEA,$GAGSV,1,1,04,04,40,208,16,11,05,312,21,24,07,261,31,31,07,215,27*67,1594282106479
NMEA,$PQGSV,1,1,02,194,11,160,,195,70,142,,0,5*6E,1594282106479
NMEA,$PQGSV,4,1,16,04,37,113,18,05,17,258,26,06,48,172,14,07,20,195,28,0,4*62,1594282106480
NMEA,$PQGSV,4,2,16,09,26,191,19,10,26,220,18,16,44,178,12,19,06,229,25,0,4*60,1594282106482
NMEA,$PQGSV,4,3,16,20,53,248,18,27,47,126,25,29,18,320,18,01,50,130,,0,4*60,1594282106482
NMEA,$PQGSV,4,4,16,03,62,203,,08,49,007,,13,41,330,,30,72,341,,0,4*6F,1594282106482
NMEA,$GNGSA,A,3,02,06,12,13,15,17,19,25,,,,,1.1,0.7,0.8,1*36,1594282106483
NMEA,$GNGSA,A,2,72,,,,,,,,,,,,1.1,0.7,0.8,2*39,1594282106483
NMEA,$GNGSA,A,3,04,11,24,31,,,,,,,,,1.1,0.7,0.8,3*3C,1594282106483
NMEA,$PQGSA,A,3,05,06,07,09,10,,,,,,,,1.1,0.7,0.8,4*3F,1594282106483
NMEA,$GNVTG,189.9,T,189.9,M,0.8,N,1.5,K,A*31,1594282106484
NMEA,$GNRMC,080827.00,A,2255.516094,N,12017.674171,E,0.8,189.9,090720,2.8,W,A*33,1594282106484
NMEA,$GNGGA,080827.00,2255.516094,N,12017.674171,E,1,12,0.7,38.6,M,17.5,M,,*45,1594282106484
Fix,gps,22.925265,120.294562,56.504517,0.180000,11.792000,1594282108000
Raw,3727107,3747015000000,,,-1278313578426118144,0.0,99.1469350992702,7.77153020881711,14.774073557809796,14,1,0.0,207,40107360007621,492,19.8,-705.565185546875,14.61500072479248,0,0.0,0.0,,,,,0,,3,,
Raw,3727108,3747015000000,,,-1278313578426118144,0.0,99.1469350992702,7.77153020881711,14.774073557809796,14,21,0.0,207,40107374160274,1057,16.2,132.811279296875,21.637500762939453,0,0.0,0.0,,,,,0,,3,,
Raw,3727108,3747015000000,,,-1278313578426118144,0.0,99.1469350992702,7.77153020881711,14.774073557809796,14,8,0.0,207,40107372146942,61,18.3,-445.4753112792969,1.214500069618225,0,0.0,0.0,,,,,0,,3,,
Raw,3727108,3747015000000,,,-1278313578426118144,0.0,99.1469350992702,7.77153020881711,14.774073557809796,14,2,0.0,15,374925368535181,79,17.1,-214.87010192871094,2.678499937057495,0,0.0,0.0,,,,,0,,1,,
Raw,3727108,3747015000000,,,-1278313578426118144,0.0,99.1469350992702,7.77153020881711,14.774073557809796,14,5,0.0,15,374925371480218,274,13.4,-21.664934158325195,9.113000869750977,0,0.0,0.0,,,,,0,,1,,
Raw,3727109,3747015000000,,,-1278313578426118144,0.0,99.1469350992702,7.77153020881711,14.774073557809796,14,6,0.0,15,374925367813041,87,17.1,123.77651977539062,3.427000045776367,0,0.0,0.0,,,,,0,,1,,
Raw,3727109,3747015000000,,,-1278313578426118144,0.0,99.1469350992702,7.77153020881711,14.774073557809796,14,12,0.0,15,374925362823709,11,33.0,279.6300964355469,0.02590000070631504,0,0.0,0.0,,,,,0,,1,,
Raw,3727109,3747015000000,,,-1278313578426118144,0.0,99.1469350992702,7.77153020881711,14.774073557809796,14,13,0.0,15,374925366107265,31,23.5,-634.1917114257812,0.6754999756813049,0,0.0,0.0,,,,,0,,1,,
Raw,3727109,3747015000000,,,-1278313578426118144,0.0,99.1469350992702,7.77153020881711,14.774073557809796,14,15,0.0,15,374925358481032,11,33.1,-725.0416870117188,0.04990000277757645,0,0.0,0.0,,,,,0,,1,,
Raw,3727109,3747015000000,,,-1278313578426118144,0.0,99.1469350992702,7.77153020881711,14.774073557809796,14,17,0.0,15,374925363353552,1869,12.7,635.9043579101562,13.406000137329102,0,0.0,0.0,,,,,0,,1,,
Raw,3727110,3747015000000,,,-1278313578426118144,0.0,99.1469350992702,7.77153020881711,14.774073557809796,14,19,0.0,15,374925367449006,17,28.8,574.171142578125,0.043800000101327896,0,0.0,0.0,,,,,0,,1,,
Raw,3727110,3747015000000,,,-1278313578426118144,0.0,99.1469350992702,7.77153020881711,14.774073557809796,14,25,0.0,15,374925358940221,35,22.4,73.12034606933594,0.8134999871253967,0,0.0,0.0,,,,,0,,1,,
Raw,3727110,3747015000000,,,-1278313578426118144,0.0,99.1469350992702,7.77153020881711,14.774073557809796,14,29,0.0,15,374925357578434,40,21.2,-672.0316162109375,0.8420000076293945,0,0.0,0.0,,,,,0,,1,,
Raw,3727110,3747015000000,,,-1278313578426118144,0.0,99.1469350992702,7.77153020881711,14.774073557809796,14,4,0.0,783,374911314622473,1236,18.3,15.238332748413086,23.443500518798828,0,0.0,0.0,,,,,0,,5,,
Raw,3727111,3747015000000,,,-1278313578426118144,0.0,99.1469350992702,7.77153020881711,14.774073557809796,14,5,0.0,783,374911307961426,23,26.1,0.3456710875034332,1.2450000047683716,0,0.0,0.0,,,,,0,,5,,
Raw,3727111,3747015000000,,,-1278313578426118144,0.0,99.1469350992702,7.77153020881711,14.774073557809796,14,6,0.0,15,374911317572572,1271,13.8,-221.50796508789062,11.872000694274902,0,0.0,0.0,,,,,0,,5,,
Raw,3727111,3747015000000,,,-1278313578426118144,0.0,99.1469350992702,7.77153020881711,14.774073557809796,14,7,0.0,15,374911310506938,19,27.9,281.5301513671875,0.056300003081560135,0,0.0,0.0,,,,,0,,5,,
Raw,3727112,3747015000000,,,-1278313578426118144,0.0,99.1469350992702,7.77153020881711,14.774073557809796,14,9,0.0,15,374911311838299,35,22.1,-256.1038513183594,0.6829999685287476,0,0.0,0.0,,,,,0,,5,,
Raw,3727112,3747015000000,,,-1278313578426118144,0.0,99.1469350992702,7.77153020881711,14.774073557809796,14,10,0.0,15,374911312155090,78,17.5,310.0189514160156,2.514500141143799,0,0.0,0.0,,,,,0,,5,,
Raw,3727112,3747015000000,,,-1278313578426118144,0.0,99.1469350992702,7.77153020881711,14.774073557809796,14,16,0.0,15,374911315508324,715,11.6,-251.99423217773438,16.619001388549805,0,0.0,0.0,,,,,0,,5,,
Raw,3727112,3747015000000,,,-1278313578426118144,0.0,99.1469350992702,7.77153020881711,14.774073557809796,14,19,0.0,15,374911353583690,31,23.3,-503.0858459472656,0.6360000371932983,0,0.0,0.0,,,,,0,,5,,
Raw,3727112,3747015000000,,,-1278313578426118144,0.0,99.1469350992702,7.77153020881711,14.774073557809796,14,20,0.0,15,374911365338146,504,17.8,-208.37245178222656,14.42400074005127,0,0.0,0.0,,,,,0,,5,,
Raw,3727113,3747015000000,,,-1278313578426118144,0.0,99.1469350992702,7.77153020881711,14.774073557809796,14,27,0.0,15,374911365067657,27,24.4,346.15118408203125,0.5839999914169312,0,0.0,0.0,,,,,0,,5,,
Raw,3727113,3747015000000,,,-1278313578426118144,0.0,99.1469350992702,7.77153020881711,14.774073557809796,14,29,0.0,15,374911357552646,79,17.5,-559.8815307617188,2.5220000743865967,0,0.0,0.0,,,,,0,,5,,
Raw,3727113,3747015000000,,,-1278313578426118144,0.0,99.1469350992702,7.77153020881711,14.774073557809796,14,4,0.0,7183,374925357080118,70,17.9,-433.79345703125,0.9120000004768372,0,0.0,0.0,,,,,0,,6,,
Raw,3727113,3747015000000,,,-1278313578426118144,0.0,99.1469350992702,7.77153020881711,14.774073557809796,14,11,0.0,7183,374925350982620,40,21.2,-406.24847412109375,0.6634999513626099,0,0.0,0.0,,,,,0,,6,,
Raw,3727113,3747015000000,,,-1278313578426118144,0.0,99.1469350992702,7.77153020881711,14.774073557809796,14,24,0.0,7183,374925352653556,14,30.1,289.61541748046875,0.01979999989271164,0,0.0,0.0,,,,,0,,6,,
Raw,3727114,3747015000000,,,-1278313578426118144,0.0,99.1469350992702,7.77153020881711,14.774073557809796,14,31,0.0,7183,374925347175454,21,26.2,340.953369140625,0.10970000177621841,0,0.0,0.0,,,,,0,,6,,
NMEA,$GPGSV,4,1,13,02,54,004,17,05,55,300,13,06,42,066,17,12,22,258,33*71,1594282107480
NMEA,$GPGSV,4,2,13,13,33,182,24,15,09,208,33,17,20,149,13,19,40,147,29*7A,1594282107480
NMEA,$GPGSV,4,3,13,25,10,286,22,29,06,323,21,07,04,087,,09,16,040,*7C,1594282107481
NMEA,$GPGSV,4,4,13,30,09,118,*49,1594282107482
NMEA,$GLGSV,2,1,06,65,02,216,20,85,54,095,16,72,43,226,18,70,25,025,*6B,1594282107484
NMEA,$GLGSV,2,2,06,84,06,130,,71,73,341,*6F,1594282107510
NMEA,$GAGSV,1,1,04,04,40,208,18,11,05,312,21,24,07,261,30,31,07,215,26*69,1594282107510
NMEA,$PQGSV,1,1,02,194,11,160,,195,70,142,,0,5*6E,1594282107510
NMEA,$PQGSV,4,1,16,04,37,113,18,05,17,258,26,06,48,172,14,07,20,195,28,0,4*62,1594282107510
NMEA,$PQGSV,4,2,16,09,26,191,22,10,26,220,18,16,44,178,12,19,06,229,23,0,4*6E,1594282107511
NMEA,$PQGSV,4,3,16,20,53,248,18,27,47,126,24,29,18,320,18,01,50,130,,0,4*61,1594282107511
NMEA,$PQGSV,4,4,16,03,62,203,,08,49,007,,13,41,330,,30,72,341,,0,4*6F,1594282107511
NMEA,$GNGSA,A,3,02,05,06,12,13,15,17,19,25,,,,1.1,0.7,0.8,1*33,1594282107512
NMEA,$GNGSA,A,2,72,,,,,,,,,,,,1.1,0.7,0.8,2*39,1594282107512
NMEA,$GNGSA,A,3,04,11,24,31,,,,,,,,,1.1,0.7,0.8,3*3C,1594282107512
NMEA,$PQGSA,A,3,05,06,07,09,10,,,,,,,,1.1,0.7,0.8,4*3F,1594282107512
NMEA,$GNVTG,258.6,T,258.6,M,0.3,N,0.6,K,A*38,1594282107512
NMEA,$GNRMC,080828.00,A,2255.515889,N,12017.673716,E,0.3,258.6,090720,2.8,W,A*30,1594282107513
NMEA,$GNGGA,080828.00,2255.515889,N,12017.673716,E,1,12,0.7,39.0,M,17.5,M,,*4A,1594282107513
Fix,gps,22.925265,120.294556,56.485168,0.410000,11.792000,1594282109000
NMEA,$GPGSV,4,1,13,02,54,004,17,05,55,300,13,06,42,066,17,12,22,258,33*71,1594282108458
Raw,3728062,3748015000000,,,-1278313578426118144,0.0,99.8520408757031,5.343699979827271,12.790451060919251,14,1,0.0,207,40108360009974,591,19.8,-705.565185546875,16.115001678466797,0,0.0,0.0,,,,,0,,3,,
Raw,3728062,3748015000000,,,-1278313578426118144,0.0,99.8520408757031,5.343699979827271,12.790451060919251,14,21,0.0,207,40108374159831,1201,16.2,132.811279296875,23.137500762939453,0,0.0,0.0,,,,,0,,3,,
Raw,3728062,3748015000000,,,-1278313578426118144,0.0,99.8520408757031,5.343699979827271,12.790451060919251,14,8,0.0,207,40108372148467,53,19.5,-444.4949035644531,1.1345000267028809,0,0.0,0.0,,,,,0,,3,,
Raw,3728063,3748015000000,,,-1278313578426118144,0.0,99.8520408757031,5.343699979827271,12.790451060919251,14,2,0.0,15,374926368535897,98,17.1,-214.87010192871094,4.178500175476074,0,0.0,0.0,,,,,0,,1,,
Raw,3728063,3748015000000,,,-1278313578426118144,0.0,99.8520408757031,5.343699979827271,12.790451060919251,14,5,0.0,15,374926371480291,335,13.4,-21.664934158325195,10.613000869750977,0,0.0,0.0,,,,,0,,1,,
Raw,3728063,3748015000000,,,-1278313578426118144,0.0,99.8520408757031,5.343699979827271,12.790451060919251,14,6,0.0,15,374926367812628,111,17.1,123.77651977539062,4.927000045776367,0,0.0,0.0,,,,,0,,1,,
Raw,3728063,3748015000000,,,-1278313578426118144,0.0,99.8520408757031,5.343699979827271,12.790451060919251,14,12,0.0,15,374926362822762,11,33.2,279.9342956542969,0.02590000070631504,0,0.0,0.0,,,,,0,,1,,
Raw,3728064,3748015000000,,,-1278313578426118144,0.0,99.8520408757031,5.343699979827271,12.790451060919251,14,13,0.0,15,374926366109377,24,25.1,-633.5321655273438,0.39079999923706055,0,0.0,0.0,,,,,0,,1,,
Raw,3728064,3748015000000,,,-1278313578426118144,0.0,99.8520408757031,5.343699979827271,12.790451060919251,14,15,0.0,15,374926358483467,11,33.4,-724.834716796875,0.04990000277757645,0,0.0,0.0,,,,,0,,1,,
Raw,3728064,3748015000000,,,-1278313578426118144,0.0,99.8520408757031,5.343699979827271,12.790451060919251,14,17,0.0,15,374926363351431,1959,12.7,635.9043579101562,14.906001091003418,0,0.0,0.0,,,,,0,,1,,
Raw,3728064,3748015000000,,,-1278313578426118144,0.0,99.8520408757031,5.343699979827271,12.790451060919251,14,19,0.0,15,374926367447110,17,28.6,574.4509887695312,0.043800000101327896,0,0.0,0.0,,,,,0,,1,,
Raw,3728064,3748015000000,,,-1278313578426118144,0.0,99.8520408757031,5.343699979827271,12.790451060919251,14,25,0.0,15,374926358939920,35,22.6,73.55802154541016,0.7534999847412109,0,0.0,0.0,,,,,0,,1,,
Raw,3728065,3748015000000,,,-1278313578426118144,0.0,99.8520408757031,5.343699979827271,12.790451060919251,14,29,0.0,15,374926357580681,40,21.6,-671.8603515625,0.8119999766349792,0,0.0,0.0,,,,,0,,1,,
Raw,3728065,3748015000000,,,-1278313578426118144,0.0,99.8520408757031,5.343699979827271,12.790451060919251,14,4,0.0,783,374912314622423,1394,18.3,15.238332748413086,24.943500518798828,0,0.0,0.0,,,,,0,,5,,
Raw,3728065,3748015000000,,,-1278313578426118144,0.0,99.8520408757031,5.343699979827271,12.790451060919251,14,5,0.0,783,374912307961425,35,26.1,0.3456710875034332,2.745000123977661,0,0.0,0.0,,,,,0,,5,,
Raw,3728065,3748015000000,,,-1278313578426118144,0.0,99.8520408757031,5.343699979827271,12.790451060919251,14,6,0.0,15,374912317573311,1351,13.8,-221.50796508789062,13.372000694274902,0,0.0,0.0,,,,,0,,5,,
Raw,3728065,3748015000000,,,-1278313578426118144,0.0,99.8520408757031,5.343699979827271,12.790451060919251,14,7,0.0,15,374912310506012,19,27.2,281.7327575683594,0.056300003081560135,0,0.0,0.0,,,,,0,,5,,
Raw,3728066,3748015000000,,,-1278313578426118144,0.0,99.8520408757031,5.343699979827271,12.790451060919251,14,9,0.0,15,374912311839147,40,21.0,-256.17108154296875,0.7429999709129333,0,0.0,0.0,,,,,0,,5,,
Raw,3728066,3748015000000,,,-1278313578426118144,0.0,99.8520408757031,5.343699979827271,12.790451060919251,14,10,0.0,15,374912312153996,84,16.4,310.3838195800781,1.844499945640564,0,0.0,0.0,,,,,0,,5,,
Raw,3728066,3748015000000,,,-1278313578426118144,0.0,99.8520408757031,5.343699979827271,12.790451060919251,14,16,0.0,15,374912315509164,825,11.6,-251.99423217773438,18.119001388549805,0,0.0,0.0,,,,,0,,5,,
Raw,3728066,3748015000000,,,-1278313578426118144,0.0,99.8520408757031,5.343699979827271,12.790451060919251,14,19,0.0,15,374912353585348,24,25.4,-503.0767517089844,0.40130001306533813,0,0.0,0.0,,,,,0,,5,,
Raw,3728067,3748015000000,,,-1278313578426118144,0.0,99.8520408757031,5.343699979827271,12.790451060919251,14,20,0.0,15,374912365338841,602,17.8,-208.37245178222656,15.92400074005127,0,0.0,0.0,,,,,0,,5,,
Raw,3728067,3748015000000,,,-1278313578426118144,0.0,99.8520408757031,5.343699979827271,12.790451060919251,14,27,0.0,15,374912365066543,27,24.7,346.4392395019531,0.5839999914169312,0,0.0,0.0,,,,,0,,5,,
Raw,3728067,3748015000000,,,-1278313578426118144,0.0,99.8520408757031,5.343699979827271,12.790451060919251,14,29,0.0,15,374912357554496,96,15.5,-560.1311645507812,1.9420000314712524,0,0.0,0.0,,,,,0,,5,,
Raw,3728067,3748015000000,,,-1278313578426118144,0.0,99.8520408757031,5.343699979827271,12.790451060919251,14,4,0.0,7183,374926357081565,78,17.9,-433.79345703125,2.4119999408721924,0,0.0,0.0,,,,,0,,6,,
Raw,3728067,3748015000000,,,-1278313578426118144,0.0,99.8520408757031,5.343699979827271,12.790451060919251,14,11,0.0,7183,374926350983970,46,20.0,-406.495849609375,0.7534999847412109,0,0.0,0.0,,,,,0,,6,,
Raw,3728068,3748015000000,,,-1278313578426118144,0.0,99.8520408757031,5.343699979827271,12.790451060919251,14,24,0.0,7183,374926352652584,14,30.2,289.9283142089844,0.049800001084804535,0,0.0,0.0,,,,,0,,6,,
Raw,3728068,3748015000000,,,-1278313578426118144,0.0,99.8520408757031,5.343699979827271,12.790451060919251,14,31,0.0,7183,374926347174311,19,27.5,342.2188415527344,0.06980000436306,0,0.0,0.0,,,,,0,,6,,
NMEA,$GPGSV,4,2,13,13,33,182,25,15,09,208,33,17,20,149,13,19,40,147,29*7B,1594282108458
NMEA,$GPGSV,4,3,13,25,10,286,23,29,06,323,22,07,04,087,,09,16,040,*7E,1594282108458
NMEA,$GPGSV,4,4,13,30,09,118,*49,1594282108458
NMEA,$GLGSV,2,1,06,65,02,216,20,85,54,095,16,72,43,226,20,70,25,025,*60,1594282108458
NMEA,$GLGSV,2,2,06,84,06,130,,71,73,341,*6F,1594282108458
NMEA,$GAGSV,1,1,04,04,40,208,18,11,05,312,20,24,07,261,30,31,07,215,28*66,1594282108459
NMEA,$PQGSV,1,1,02,194,11,160,,195,70,142,,0,5*6E,1594282108459
NMEA,$PQGSV,4,1,16,04,37,113,18,05,17,258,26,06,48,172,14,07,20,195,27,0,4*6D,1594282108459
NMEA,$PQGSV,4,2,16,09,26,191,21,10,26,220,16,16,44,178,12,19,06,229,25,0,4*65,1594282108459
NMEA,$PQGSV,4,3,16,20,53,248,18,27,47,126,25,29,18,320,16,01,50,130,,0,4*6E,1594282108460
NMEA,$PQGSV,4,4,16,03,62,203,,08,49,007,,13,41,330,,30,72,341,,0,4*6F,1594282108460
NMEA,$GNGSA,A,3,02,05,06,12,13,15,17,19,25,,,,1.1,0.7,0.8,1*33,1594282108461
NMEA,$GNGSA,A,2,72,,,,,,,,,,,,1.1,0.7,0.8,2*39,1594282108461
NMEA,$GNGSA,A,3,04,11,24,31,,,,,,,,,1.1,0.7,0.8,3*3C,1594282108462
NMEA,$PQGSA,A,3,05,06,07,09,10,,,,,,,,1.1,0.7,0.8,4*3F,1594282108462
NMEA,$GNVTG,291.7,T,291.7,M,0.8,N,1.5,K,A*31,1594282108463
NMEA,$GNRMC,080829.00,A,2255.515875,N,12017.673340,E,0.8,291.7,090720,2.8,W,A*3A,1594282108463
NMEA,$GNGGA,080829.00,2255.515875,N,12017.673340,E,1,12,0.7,39.0,M,17.5,M,,*4F,1594282108463
Raw,3729099,3749015000000,,,-1278313578426118144,0.0,101.13485041074455,5.027311838469452,13.824305517145232,14,1,0.0,207,40109360012546,295,12.0,-709.2504272460938,9.296500205993652,0,0.0,0.0,,,,,0,,3,,
Raw,3729099,3749015000000,,,-1278313578426118144,0.0,101.13485041074455,5.027311838469452,13.824305517145232,14,21,0.0,207,40109374159388,1356,16.2,132.811279296875,24.637500762939453,0,0.0,0.0,,,,,0,,3,,
Raw,3729100,3749015000000,,,-1278313578426118144,0.0,101.13485041074455,5.027311838469452,13.824305517145232,14,8,0.0,207,40109372149950,62,19.5,-444.4949035644531,2.634500026702881,0,0.0,0.0,,,,,0,,3,,
Raw,3729100,3749015000000,,,-1278313578426118144,0.0,101.13485041074455,5.027311838469452,13.824305517145232,14,2,0.0,15,374927368536570,132,13.9,-213.3667755126953,2.9885001182556152,0,0.0,0.0,,,,,0,,1,,
Raw,3729101,3749015000000,,,-1278313578426118144,0.0,101.13485041074455,5.027311838469452,13.824305517145232,14,5,0.0,15,374927371480363,405,13.4,-21.664934158325195,12.113000869750977,0,0.0,0.0,,,,,0,,1,,
Raw,3729101,3749015000000,,,-1278313578426118144,0.0,101.13485041074455,5.027311838469452,13.824305517145232,14,6,0.0,15,374927367812215,145,17.1,123.77651977539062,6.427000045776367,0,0.0,0.0,,,,,0,,1,,
Raw,3729102,3749015000000,,,-1278313578426118144,0.0,101.13485041074455,5.027311838469452,13.824305517145232,14,12,0.0,15,374927362821837,11,33.3,276.6027526855469,0.02590000070631504,0,0.0,0.0,,,,,0,,1,,
Raw,3729102,3749015000000,,,-1278313578426118144,0.0,101.13485041074455,5.027311838469452,13.824305517145232,14,13,0.0,15,374927366111440,24,25.5,-636.4657592773438,0.5855000019073486,0,0.0,0.0,,,,,0,,1,,
Raw,3729103,3749015000000,,,-1278313578426118144,0.0,101.13485041074455,5.027311838469452,13.824305517145232,14,15,0.0,15,374927358485879,12,32.5,-728.1558227539062,0.05090000107884407,0,0.0,0.0,,,,,0,,1,,
Raw,3729103,3749015000000,,,-1278313578426118144,0.0,101.13485041074455,5.027311838469452,13.824305517145232,14,17,0.0,15,374927363349310,2058,12.7,635.9043579101562,16.4060001373291,0,0.0,0.0,,,,,0,,1,,
Raw,3729103,3749015000000,,,-1278313578426118144,0.0,101.13485041074455,5.027311838469452,13.824305517145232,14,19,0.0,15,374927367445201,19,27.3,570.8524780273438,0.5370000004768372,0,0.0,0.0,,,,,0,,1,,
Raw,3729104,3749015000000,,,-1278313578426118144,0.0,101.13485041074455,5.027311838469452,13.824305517145232,14,25,0.0,15,374927358939762,35,22.3,69.28592681884766,0.8134999871253967,0,0.0,0.0,,,,,0,,1,,
Raw,3729105,3749015000000,,,-1278313578426118144,0.0,101.13485041074455,5.027311838469452,13.824305517145232,14,29,0.0,15,374927357582935,61,18.0,-675.24755859375,1.1019999980926514,0,0.0,0.0,,,,,0,,1,,
Raw,3729105,3749015000000,,,-1278313578426118144,0.0,101.13485041074455,5.027311838469452,13.824305517145232,14,4,0.0,783,374913314622372,1563,18.3,15.238332748413086,26.443500518798828,0,0.0,0.0,,,,,0,,5,,
Raw,3729106,3749015000000,,,-1278313578426118144,0.0,101.13485041074455,5.027311838469452,13.824305517145232,14,5,0.0,783,374913307961433,23,26.0,-5.636359214782715,1.2450000047683716,0,0.0,0.0,,,,,0,,5,,
Raw,3729106,3749015000000,,,-1278313578426118144,0.0,101.13485041074455,5.027311838469452,13.824305517145232,14,6,0.0,15,374913317574050,1441,13.8,-221.50796508789062,14.872000694274902,0,0.0,0.0,,,,,0,,5,,
Raw,3729107,3749015000000,,,-1278313578426118144,0.0,101.13485041074455,5.027311838469452,13.824305517145232,14,7,0.0,15,374913310505068,19,27.0,278.1788024902344,0.4715000092983246,0,0.0,0.0,,,,,0,,5,,
Raw,3729107,3749015000000,,,-1278313578426118144,0.0,101.13485041074455,5.027311838469452,13.824305517145232,14,9,0.0,15,374913311840058,53,19.9,-259.90625,0.8029999732971191,0,0.0,0.0,,,,,0,,5,,
Raw,3729107,3749015000000,,,-1278313578426118144,0.0,101.13485041074455,5.027311838469452,13.824305517145232,14,10,0.0,15,374913312152961,97,16.4,310.3838195800781,3.3445000648498535,0,0.0,0.0,,,,,0,,5,,
Raw,3729108,3749015000000,,,-1278313578426118144,0.0,101.13485041074455,5.027311838469452,13.824305517145232,14,16,0.0,15,374913315510005,946,11.6,-251.99423217773438,19.619001388549805,0,0.0,0.0,,,,,0,,5,,
Raw,3729108,3749015000000,,,-1278313578426118144,0.0,101.13485041074455,5.027311838469452,13.824305517145232,14,19,0.0,15,374913353587049,35,22.2,-506.5137634277344,0.6859999895095825,0,0.0,0.0,,,,,0,,5,,
Raw,3729109,3749015000000,,,-1278313578426118144,0.0,101.13485041074455,5.027311838469452,13.824305517145232,14,20,0.0,15,374913365339536,710,17.8,-208.37245178222656,17.424001693725586,0,0.0,0.0,,,,,0,,5,,
Raw,3729110,3749015000000,,,-1278313578426118144,0.0,101.13485041074455,5.027311838469452,13.824305517145232,14,27,0.0,15,374913365065374,31,23.6,342.90570068359375,0.6240000128746033,0,0.0,0.0,,,,,0,,5,,
Raw,3729110,3749015000000,,,-1278313578426118144,0.0,101.13485041074455,5.027311838469452,13.824305517145232,14,29,0.0,15,374913357556364,110,15.5,-560.1311645507812,3.442000150680542,0,0.0,0.0,,,,,0,,5,,
Raw,3729111,3749015000000,,,-1278313578426118144,0.0,101.13485041074455,5.027311838469452,13.824305517145232,14,4,0.0,7183,374927357083157,96,15.9,-433.9837646484375,1.8519999980926514,0,0.0,0.0,,,,,0,,6,,
Raw,3729111,3749015000000,,,-1278313578426118144,0.0,101.13485041074455,5.027311838469452,13.824305517145232,14,11,0.0,7183,374927350985311,70,17.9,-411.20562744140625,0.9434999823570251,0,0.0,0.0,,,,,0,,6,,
Raw,3729112,3749015000000,,,-1278313578426118144,0.0,101.13485041074455,5.027311838469452,13.824305517145232,14,24,0.0,7183,374927352651632,14,30.0,287.0484924316406,0.3605000078678131,0,0.0,0.0,,,,,0,,6,,
Raw,3729112,3749015000000,,,-1278313578426118144,0.0,101.13485041074455,5.027311838469452,13.824305517145232,14,31,0.0,7183,374927347173170,21,26.1,338.2660217285156,0.48500001430511475,0,0.0,0.0,,,,,0,,6,,
Fix,gps,22.925263,120.294545,56.923584,0.000000,11.792000,1594282110000
NMEA,$GPGSV,4,1,13,02,54,004,14,05,55,300,13,06,42,066,17,12,22,258,33*72,1594282109461
NMEA,$GPGSV,4,2,13,13,33,182,26,15,09,208,33,17,20,149,13,19,40,147,27*76,1594282109461
NMEA,$GPGSV,4,3,13,25,10,286,22,29,06,323,18,07,04,087,,09,16,040,*76,1594282109461
NMEA,$GPGSV,4,4,13,30,09,118,*49,1594282109462
NMEA,$GLGSV,2,1,06,65,02,216,12,85,54,095,16,72,43,226,20,70,25,025,*61,1594282109462
NMEA,$GLGSV,2,2,06,84,06,130,,71,73,341,*6F,1594282109462
NMEA,$GAGSV,1,1,04,04,40,208,16,11,05,312,18,24,07,261,30,31,07,215,26*6D,1594282109462
NMEA,$PQGSV,1,1,02,194,11,160,,195,70,142,,0,5*6E,1594282109463
NMEA,$PQGSV,4,1,16,04,37,113,18,05,17,258,26,06,48,172,14,07,20,195,27,0,4*6D,1594282109469
NMEA,$PQGSV,4,2,16,09,26,191,20,10,26,220,16,16,44,178,12,19,06,229,22,0,4*63,1594282109469
NMEA,$PQGSV,4,3,16,20,53,248,18,27,47,126,24,29,18,320,16,01,50,130,,0,4*6F,1594282109469
NMEA,$PQGSV,4,4,16,03,62,203,,08,49,007,,13,41,330,,30,72,341,,0,4*6F,1594282109470
NMEA,$GNGSA,A,3,02,05,06,12,13,15,17,19,25,,,,1.1,0.7,0.8,1*33,1594282109470
NMEA,$GNGSA,A,2,72,,,,,,,,,,,,1.1,0.7,0.8,2*39,1594282109471
NMEA,$GNGSA,A,3,04,11,24,31,,,,,,,,,1.1,0.7,0.8,3*3C,1594282109471
NMEA,$PQGSA,A,3,05,06,07,09,10,,,,,,,,1.1,0.7,0.8,4*3F,1594282109471
NMEA,$GNVTG,,T,,M,0.0,N,0.0,K,A*3D,1594282109471
NMEA,$GNRMC,080830.00,A,2255.515791,N,12017.672681,E,0.0,,090720,2.8,W,A*15,1594282109472
NMEA,$GNGGA,080830.00,2255.515791,N,12017.672681,E,1,12,0.7,39.5,M,17.5,M,,*4E,1594282109472
Fix,gps,22.925263,120.294540,57.122498,0.000000,11.792000,1594282111000
NMEA,$GPGSV,4,1,13,02,54,004,14,05,55,300,15,06,42,066,17,12,22,258,35*72,1594282110457
NMEA,$GPGSV,4,2,13,13,33,182,26,15,09,208,32,17,20,149,13,19,40,147,27*77,1594282110457
NMEA,$GPGSV,4,3,13,25,10,286,23,29,06,323,21,07,04,087,,09,16,040,*7D,1594282110457
NMEA,$GPGSV,4,4,13,30,09,118,*49,1594282110457
NMEA,$GLGSV,2,1,06,65,02,216,12,85,54,095,16,72,43,226,16,70,25,025,*64,1594282110458
NMEA,$GLGSV,2,2,06,84,06,130,,71,73,341,*6F,1594282110459
NMEA,$GAGSV,1,1,04,04,40,208,16,11,05,312,21,24,07,261,32,31,07,215,27*64,1594282110459
NMEA,$PQGSV,1,1,02,194,11,160,,195,70,142,,0,5*6E,1594282110459
Raw,3730077,3750015000000,,,-1278313578426118144,0.0,104.4757227646187,-4.275912966419295,19.089828797996763,14,1,0.0,207,40110360014912,356,12.0,-709.2504272460938,10.796500205993652,0,0.0,0.0,,,,,0,,3,,
Raw,3730078,3750015000000,,,-1278313578426118144,0.0,104.4757227646187,-4.275912966419295,19.089828797996763,14,21,0.0,207,40110374158945,1521,16.2,132.811279296875,26.137500762939453,0,0.0,0.0,,,,,0,,3,,
Raw,3730078,3750015000000,,,-1278313578426118144,0.0,104.4757227646187,-4.275912966419295,19.089828797996763,14,8,0.0,207,40110372151452,84,16.1,-448.8927001953125,2.134500026702881,0,0.0,0.0,,,,,0,,3,,
Raw,3730078,3750015000000,,,-1278313578426118144,0.0,104.4757227646187,-4.275912966419295,19.089828797996763,14,2,0.0,15,374928368537282,152,13.9,-213.3667755126953,4.488500118255615,0,0.0,0.0,,,,,0,,1,,
Raw,3730078,3750015000000,,,-1278313578426118144,0.0,104.4757227646187,-4.275912966419295,19.089828797996763,14,5,0.0,15,374928371480266,111,15.1,-23.59641456604004,3.623000144958496,0,0.0,0.0,,,,,0,,1,,
Raw,3730079,3750015000000,,,-1278313578426118144,0.0,104.4757227646187,-4.275912966419295,19.089828797996763,14,6,0.0,15,374928367811803,189,17.1,123.77651977539062,7.927000522613525,0,0.0,0.0,,,,,0,,1,,
Raw,3730079,3750015000000,,,-1278313578426118144,0.0,104.4757227646187,-4.275912966419295,19.089828797996763,14,12,0.0,15,374928362820915,10,34.5,276.7608642578125,0.025100000202655792,0,0.0,0.0,,,,,0,,1,,
Raw,3730079,3750015000000,,,-1278313578426118144,0.0,104.4757227646187,-4.275912966419295,19.089828797996763,14,13,0.0,15,374928366113567,24,25.9,-636.6107177734375,0.39079999923706055,0,0.0,0.0,,,,,0,,1,,
Raw,3730079,3750015000000,,,-1278313578426118144,0.0,104.4757227646187,-4.275912966419295,19.089828797996763,14,15,0.0,15,374928358488302,12,32.2,-728.060302734375,0.05090000107884407,0,0.0,0.0,,,,,0,,1,,
Raw,3730080,3750015000000,,,-1278313578426118144,0.0,104.4757227646187,-4.275912966419295,19.089828797996763,14,17,0.0,15,374928363347189,2167,12.7,635.9043579101562,17.9060001373291,0,0.0,0.0,,,,,0,,1,,
Raw,3730080,3750015000000,,,-1278313578426118144,0.0,104.4757227646187,-4.275912966419295,19.089828797996763,14,19,0.0,15,374928367443316,19,27.2,571.0045166015625,0.05180000141263008,0,0.0,0.0,,,,,0,,1,,
Raw,3730080,3750015000000,,,-1278313578426118144,0.0,104.4757227646187,-4.275912966419295,19.089828797996763,14,25,0.0,15,374928358939563,35,22.6,69.4762191772461,0.7534999847412109,0,0.0,0.0,,,,,0,,1,,
Raw,3730080,3750015000000,,,-1278313578426118144,0.0,104.4757227646187,-4.275912966419295,19.089828797996763,14,29,0.0,15,374928357585143,40,21.0,-673.9821166992188,0.871999979019165,0,0.0,0.0,,,,,0,,1,,
Raw,3730080,3750015000000,,,-1278313578426118144,0.0,104.4757227646187,-4.275912966419295,19.089828797996763,14,4,0.0,783,374914314622321,1741,18.3,15.238332748413086,27.943500518798828,0,0.0,0.0,,,,,0,,5,,
Raw,3730081,3750015000000,,,-1278313578426118144,0.0,104.4757227646187,-4.275912966419295,19.089828797996763,14,5,0.0,783,374914307961452,35,26.0,-5.636359214782715,2.745000123977661,0,0.0,0.0,,,,,0,,5,,
Raw,3730081,3750015000000,,,-1278313578426118144,0.0,104.4757227646187,-4.275912966419295,19.089828797996763,14,6,0.0,15,374914317574789,1541,13.8,-221.50796508789062,16.37200164794922,0,0.0,0.0,,,,,0,,5,,
Raw,3730081,3750015000000,,,-1278313578426118144,0.0,104.4757227646187,-4.275912966419295,19.089828797996763,14,7,0.0,15,374914310504151,17,28.1,278.45220947265625,0.04830000177025795,0,0.0,0.0,,,,,0,,5,,
Raw,3730081,3750015000000,,,-1278313578426118144,0.0,104.4757227646187,-4.275912966419295,19.089828797996763,14,9,0.0,15,374914311840893,35,22.4,-260.1654968261719,0.6829999685287476,0,0.0,0.0,,,,,0,,5,,
Raw,3730082,3750015000000,,,-1278313578426118144,0.0,104.4757227646187,-4.275912966419295,19.089828797996763,14,10,0.0,15,374914312151928,110,14.5,306.447021484375,2.0245001316070557,0,0.0,0.0,,,,,0,,5,,
Raw,3730082,3750015000000,,,-1278313578426118144,0.0,104.4757227646187,-4.275912966419295,19.089828797996763,14,16,0.0,15,374914315510846,1076,11.6,-251.99423217773438,21.119001388549805,0,0.0,0.0,,,,,0,,5,,
Raw,3730082,3750015000000,,,-1278313578426118144,0.0,104.4757227646187,-4.275912966419295,19.089828797996763,14,19,0.0,15,374914353588741,53,19.9,-506.35052490234375,0.8059999942779541,0,0.0,0.0,,,,,0,,5,,
Raw,3730082,3750015000000,,,-1278313578426118144,0.0,104.4757227646187,-4.275912966419295,19.089828797996763,14,20,0.0,15,374914365340231,828,17.8,-208.37245178222656,18.924001693725586,0,0.0,0.0,,,,,0,,5,,
Raw,3730083,3750015000000,,,-1278313578426118144,0.0,104.4757227646187,-4.275912966419295,19.089828797996763,14,27,0.0,15,374914365064234,27,24.8,342.6176452636719,0.5339999794960022,0,0.0,0.0,,,,,0,,5,,
Raw,3730083,3750015000000,,,-1278313578426118144,0.0,104.4757227646187,-4.275912966419295,19.089828797996763,14,29,0.0,15,374914357558233,134,15.5,-560.1311645507812,4.942000389099121,0,0.0,0.0,,,,,0,,5,,
Raw,3730084,3750015000000,,,-1278313578426118144,0.0,104.4757227646187,-4.275912966419295,19.089828797996763,14,4,0.0,7183,374928357084605,110,15.9,-433.9837646484375,3.3519999980926514,0,0.0,0.0,,,,,0,,6,,
Raw,3730084,3750015000000,,,-1278313578426118144,0.0,104.4757227646187,-4.275912966419295,19.089828797996763,14,11,0.0,7183,374928350986674,46,20.8,-409.9591979980469,0.7534999847412109,0,0.0,0.0,,,,,0,,6,,
Raw,3730084,3750015000000,,,-1278313578426118144,0.0,104.4757227646187,-4.275912966419295,19.089828797996763,14,24,0.0,7183,374928352650676,13,31.5,287.0865478515625,0.3305000066757202,0,0.0,0.0,,,,,0,,6,,
Raw,3730084,3750015000000,,,-1278313578426118144,0.0,104.4757227646187,-4.275912966419295,19.089828797996763,14,31,0.0,7183,374928347172015,19,27.3,338.5038757324219,0.445000022649765,0,0.0,0.0,,,,,0,,6,,
NMEA,$PQGSV,4,1,16,04,37,113,18,05,17,258,26,06,48,172,14,07,20,195,28,0,4*62,1594282110459
NMEA,$PQGSV,4,2,16,09,26,191,22,10,26,220,15,16,44,178,12,19,06,229,20,0,4*60,1594282110460
NMEA,$PQGSV,4,3,16,20,53,248,18,27,47,126,25,29,18,320,16,01,50,130,,0,4*6E,1594282110460
NMEA,$PQGSV,4,4,16,03,62,203,,08,49,007,,13,41,330,,30,72,341,,0,4*6F,1594282110460
NMEA,$GNGSA,A,3,02,05,06,12,13,15,17,19,25,,,,1.1,0.8,0.8,1*3C,1594282110461
NMEA,$GNGSA,A,2,72,,,,,,,,,,,,1.1,0.8,0.8,2*36,1594282110461
NMEA,$GNGSA,A,3,04,11,24,31,,,,,,,,,1.1,0.8,0.8,3*33,1594282110462
NMEA,$PQGSA,A,3,05,06,07,09,10,,,,,,,,1.1,0.8,0.8,4*30,1594282110462
NMEA,$GNVTG,,T,,M,0.0,N,0.0,K,A*3D,1594282110462
NMEA,$GNRMC,080831.00,A,2255.515790,N,12017.672423,E,0.0,,090720,2.8,W,A*1F,1594282110462
NMEA,$GNGGA,080831.00,2255.515790,N,12017.672423,E,1,12,0.8,39.7,M,17.5,M,,*49,1594282110462
Fix,gps,22.925263,120.294537,57.500427,0.000000,11.792000,1594282112000
NMEA,$GPGSV,4,1,13,02,54,004,14,05,55,300,15,06,42,066,17,12,22,258,35*72,1594282111457
NMEA,$GPGSV,4,2,13,13,33,182,27,15,09,208,32,17,20,149,13,19,40,147,28*79,1594282111457
NMEA,$GPGSV,4,3,13,25,10,286,23,29,06,323,20,07,04,087,,09,16,040,*7C,1594282111457
NMEA,$GPGSV,4,4,13,30,09,118,*49,1594282111457
NMEA,$GLGSV,2,1,06,65,02,216,16,85,54,095,16,72,43,226,16,70,25,025,*60,1594282111458
NMEA,$GLGSV,2,2,06,84,06,130,,71,73,341,*6F,1594282111458
NMEA,$GAGSV,1,1,04,04,40,208,16,11,05,312,20,24,07,261,31,31,07,215,28*69,1594282111458
NMEA,$PQGSV,1,1,02,194,11,160,,195,70,142,,0,5*6E,1594282111459
