# 
# Header Description:
# 
# Version: v2.0.0.1 Platform: 8.0.0 Manufacturer: Sony Model: G8142
# 
# Raw,ElapsedRealtimeMillis,TimeNanos,LeapSecond,TimeUncertaintyNanos,FullBiasNanos,BiasNanos,BiasUncertaintyNanos,DriftNanosPerSecond,DriftUncertaintyNanosPerSecond,HardwareClockDiscontinuityCount,Svid,TimeOffsetNanos,State,ReceivedSvTimeNanos,ReceivedSvTimeUncertaintyNanos,Cn0DbHz,PseudorangeRateMetersPerSecond,PseudorangeRateUncertaintyMetersPerSecond,AccumulatedDeltaRangeState,AccumulatedDeltaRangeMeters,AccumulatedDeltaRangeUncertaintyMeters,CarrierFrequencyHz,CarrierCycles,CarrierPhase,CarrierPhaseUncertainty,MultipathIndicator,SnrInDb,ConstellationType,AgcDb,CarrierFrequencyHz
# 
# Fix,Provider,Latitude,Longitude,Altitude,Speed,Accuracy,(UTC)TimeInMs
# 
# Nav,Svid,Type,Status,MessageId,Sub-messageId,Data(Bytes)
# 
NMEA,$GPGSV,4,1,13,02,54,005,15,06,41,067,15,09,14,040,14,12,21,257,31*75,1594282384456
Raw,4004103,4024015000000,,,-1278313578426116096,0.0,88.10108556644991,11.788834820442647,21.68928495855554,14,6,0.0,207,40384366806925,324,12.5,708.4265747070312,10.055500030517578,0,0.0,0.0,,,,,0,,3,,
Raw,4004103,4024015000000,,,-1278313578426116096,0.0,88.10108556644991,11.788834820442647,21.68928495855554,14,1,0.0,207,40384360657433,14,30.4,-694.8185424804688,0.22579999268054962,0,0.0,0.0,,,,,0,,3,,
Raw,4004104,4024015000000,,,-1278313578426116096,0.0,88.10108556644991,11.788834820442647,21.68928495855554,14,21,0.0,207,40384374020505,61,18.9,171.32598876953125,1.21750009059906,0,0.0,0.0,,,,,0,,3,,
Raw,4004104,4024015000000,,,-1278313578426116096,0.0,88.10108556644991,11.788834820442647,21.68928495855554,14,8,0.0,207,40384372542468,123,15.7,-411.3293762207031,4.4745001792907715,0,0.0,0.0,,,,,0,,3,,
Raw,4004104,4024015000000,,,-1278313578426116096,0.0,88.10108556644991,11.788834820442647,21.68928495855554,14,2,0.0,15,375202368730453,808,15.4,-211.88250732421875,18.618501663208008,0,0.0,0.0,,,,,0,,1,,
Raw,4004104,4024015000000,,,-1278313578426116096,0.0,88.10108556644991,11.788834820442647,21.68928495855554,14,6,0.0,15,375202367693311,681,15.2,133.80499267578125,16.952001571655273,0,0.0,0.0,,,,,0,,1,,
Raw,4004104,4024015000000,,,-1278313578426116096,0.0,88.10108556644991,11.788834820442647,21.68928495855554,14,9,0.0,15,375202360064408,466,14.2,584.75341796875,13.476500511169434,0,0.0,0.0,,,,,0,,1,,
Raw,4004105,4024015000000,,,-1278313578426116096,0.0,88.10108556644991,11.788834820442647,21.68928495855554,14,12,0.0,15,375202362556691,14,30.6,299.58575439453125,0.028800001367926598,0,0.0,0.0,,,,,0,,1,,
Raw,4004105,4024015000000,,,-1278313578426116096,0.0,88.10108556644991,11.788834820442647,21.68928495855554,14,13,0.0,15,375202366686802,24,25.4,-618.901611328125,0.6255000233650208,0,0.0,0.0,,,,,0,,1,,
Raw,4004105,4024015000000,,,-1278313578426116096,0.0,88.10108556644991,11.788834820442647,21.68928495855554,14,15,0.0,15,375202359149820,19,27.1,-720.8541259765625,0.06980000436306,0,0.0,0.0,,,,,0,,1,,
Raw,4004105,4024015000000,,,-1278313578426116096,0.0,88.10108556644991,11.788834820442647,21.68928495855554,14,17,0.0,15,375202362761794,215,15.4,646.9794921875,8.10949993133545,0,0.0,0.0,,,,,0,,1,,
Raw,4004105,4024015000000,,,-1278313578426116096,0.0,88.10108556644991,11.788834820442647,21.68928495855554,14,19,0.0,15,375202366909099,21,26.2,595.9400024414062,0.12020000070333481,0,0.0,0.0,,,,,0,,1,,
Raw,4004106,4024015000000,,,-1278313578426116096,0.0,88.10108556644991,11.788834820442647,21.68928495855554,14,25,0.0,15,375202358861981,125,14.4,98.3342514038086,3.75350022315979,0,0.0,0.0,,,,,0,,1,,
Raw,4004106,4024015000000,,,-1278313578426116096,0.0,88.10108556644991,11.788834820442647,21.68928495855554,14,29,0.0,15,375202358196319,24,25.6,-663.89404296875,0.40880000591278076,0,0.0,0.0,,,,,0,,1,,
Raw,4004106,4024015000000,,,-1278313578426116096,0.0,88.10108556644991,11.788834820442647,21.68928495855554,14,5,0.0,783,375188307961989,16,29.6,2.967010021209717,0.3850000202655792,0,0.0,0.0,,,,,0,,5,,
Raw,4004106,4024015000000,,,-1278313578426116096,0.0,88.10108556644991,11.788834820442647,21.68928495855554,14,6,0.0,15,375188317775030,1028,14.7,-214.51771545410156,4.7920002937316895,0,0.0,0.0,,,,,0,,5,,
Raw,4004106,4024015000000,,,-1278313578426116096,0.0,88.10108556644991,11.788834820442647,21.68928495855554,14,7,0.0,15,375188310248274,61,18.9,279.3790588378906,0.8614999651908875,0,0.0,0.0,,,,,0,,5,,
Raw,4004107,4024015000000,,,-1278313578426116096,0.0,88.10108556644991,11.788834820442647,21.68928495855554,14,9,0.0,15,375188312073840,347,13.7,-254.55795288085938,10.749500274658203,0,0.0,0.0,,,,,0,,5,,
Raw,4004107,4024015000000,,,-1278313578426116096,0.0,88.10108556644991,11.788834820442647,21.68928495855554,14,10,0.0,15,375188311868223,31,23.3,312.0929870605469,0.6330000162124634,0,0.0,0.0,,,,,0,,5,,
Raw,4004107,4024015000000,,,-1278313578426116096,0.0,88.10108556644991,11.788834820442647,21.68928495855554,14,13,0.0,15,375188315773397,3176,12.3,-80.72380065917969,37.694000244140625,0,0.0,0.0,,,,,0,,5,,
Raw,4004107,4024015000000,,,-1278313578426116096,0.0,88.10108556644991,11.788834820442647,21.68928495855554,14,16,0.0,15,375188315740685,655,17.4,-246.14662170410156,2.5190000534057617,0,0.0,0.0,,,,,0,,5,,
Raw,4004107,4024015000000,,,-1278313578426116096,0.0,88.10108556644991,11.788834820442647,21.68928495855554,14,19,0.0,15,375188354043593,14,30.6,-490.51934814453125,0.046800002455711365,0,0.0,0.0,,,,,0,,5,,
Raw,4004108,4024015000000,,,-1278313578426116096,0.0,88.10108556644991,11.788834820442647,21.68928495855554,14,20,0.0,15,375188365524413,80,16.4,-188.2947235107422,1.0839999914169312,0,0.0,0.0,,,,,0,,5,,
Raw,4004108,4024015000000,,,-1278313578426116096,0.0,88.10108556644991,11.788834820442647,21.68928495855554,14,27,0.0,15,375188364738315,46,20.6,367.784423828125,0.7924999594688416,0,0.0,0.0,,,,,0,,5,,
Raw,4004108,4024015000000,,,-1278313578426116096,0.0,88.10108556644991,11.788834820442647,21.68928495855554,14,29,0.0,15,375188358068019,145,19.4,-556.1559448242188,6.873500347137451,0,0.0,0.0,,,,,0,,5,,
Raw,4004108,4024015000000,,,-1278313578426116096,0.0,88.10108556644991,11.788834820442647,21.68928495855554,14,30,0.0,15,375188369068827,599,14.6,-169.72450256347656,15.520000457763672,0,0.0,0.0,,,,,0,,5,,
Raw,4004108,4024015000000,,,-1278313578426116096,0.0,88.10108556644991,11.788834820442647,21.68928495855554,14,4,0.0,7183,375202357472532,46,20.4,-414.54522705078125,0.7519999742507935,0,0.0,0.0,,,,,0,,6,,
Raw,4004109,4024015000000,,,-1278313578426116096,0.0,88.10108556644991,11.788834820442647,21.68928495855554,14,24,0.0,7183,375202352382491,10,34.9,297.52447509765625,0.04610000178217888,0,0.0,0.0,,,,,0,,6,,
Raw,4004109,4024015000000,,,-1278313578426116096,0.0,88.10108556644991,11.788834820442647,21.68928495855554,14,31,0.0,7183,375202346864072,53,19.3,333.2422790527344,0.8134999871253967,0,0.0,0.0,,,,,0,,6,,
Fix,gps,22.925238,120.294458,77.891052,0.530000,11.792000,1594282385000
NMEA,$GPGSV,4,2,13,13,34,182,25,15,10,208,27,17,18,149,15,19,38,149,26*72,1594282384456
NMEA,$GPGSV,4,3,13,25,10,285,14,29,07,323,26,05,55,303,,07,05,085,*70,1594282384456
NMEA,$GPGSV,4,4,13,30,09,116,*47,1594282384456
NMEA,$GLGSV,2,1,06,70,23,025,13,65,04,217,30,85,53,098,19,72,45,227,16*65,1594282384460
NMEA,$GLGSV,2,2,06,84,04,132,,71,71,345,*69,1594282384460
NMEA,$GAGSV,2,1,05,04,42,208,20,24,06,260,35,31,07,213,19,11,07,313,*6D,1594282384460
NMEA,$GAGSV,2,2,05,33,52,082,*50,1594282384460
NMEA,$PQGSV,1,1,02,194,11,160,13,195,69,143,17,0,5*63,1594282384460
NMEA,$PQGSV,4,1,16,05,17,258,30,06,49,172,15,07,19,195,19,09,26,191,14,0,4*66,1594282384460
NMEA,$PQGSV,4,2,16,10,26,220,23,13,41,331,12,16,45,178,17,19,07,230,31,0,4*69,1594282384460
NMEA,$PQGSV,4,3,16,20,54,251,16,27,45,127,21,29,20,322,19,30,73,341,15,0,4*6D,1594282384460
NMEA,$PQGSV,4,4,16,01,50,130,,03,62,203,,04,37,113,,08,50,008,,0,4*6A,1594282384460
NMEA,$GNGSA,A,3,06,12,13,15,17,19,25,,,,,,1.1,0.7,0.8,1*34,1594282384461
NMEA,$GNGSA,A,2,70,72,85,,,,,,,,,,1.1,0.7,0.8,2*33,1594282384461
NMEA,$GNGSA,A,2,04,24,31,,,,,,,,,,1.1,0.7,0.8,3*3D,1594282384462
NMEA,$PQGSA,A,3,05,06,07,09,10,16,,,,,,,1.1,0.7,0.8,4*38,1594282384462
NMEA,$GNVTG,32.9,T,32.9,M,1.0,N,1.9,K,A*34,1594282384462
NMEA,$GNRMC,081305.00,A,2255.514299,N,12017.667503,E,1.0,32.9,090720,2.8,W,A*0F,1594282384462
NMEA,$GNGGA,081305.00,2255.514299,N,12017.667503,E,1,12,0.7,60.4,M,17.5,M,,*4E,1594282384462
Raw,4005055,4025015000000,,,-1278313578426116096,0.0,82.15243724407628,11.327852273117719,17.898738184377763,14,6,0.0,207,40385366804562,390,12.5,708.4265747070312,11.555500984191895,0,0.0,0.0,,,,,0,,3,,
Raw,4005055,4025015000000,,,-1278313578426116096,0.0,82.15243724407628,11.327852273117719,17.898738184377763,14,1,0.0,207,40385360659713,14,30.5,-696.0953369140625,0.22579999268054962,0,0.0,0.0,,,,,0,,3,,
Raw,4005055,4025015000000,,,-1278313578426116096,0.0,82.15243724407628,11.327852273117719,17.898738184377763,14,21,0.0,207,40385374019933,70,18.9,171.32598876953125,2.7175002098083496,0,0.0,0.0,,,,,0,,3,,
Raw,4005056,4025015000000,,,-1278313578426116096,0.0,82.15243724407628,11.327852273117719,17.898738184377763,14,8,0.0,207,40385372543840,153,15.7,-411.3293762207031,5.9745001792907715,0,0.0,0.0,,,,,0,,3,,
Raw,4005056,4025015000000,,,-1278313578426116096,0.0,82.15243724407628,11.327852273117719,17.898738184377763,14,2,0.0,15,375203368731181,373,9.1,-211.88250732421875,10.448500633239746,0,0.0,0.0,,,,,0,,1,,
Raw,4005056,4025015000000,,,-1278313578426116096,0.0,82.15243724407628,11.327852273117719,17.898738184377763,14,6,0.0,15,375203367692865,795,15.2,133.80499267578125,18.452001571655273,0,0.0,0.0,,,,,0,,1,,
Raw,4005057,4025015000000,,,-1278313578426116096,0.0,82.15243724407628,11.327852273117719,17.898738184377763,14,9,0.0,15,375203360062458,556,14.2,584.75341796875,14.976500511169434,0,0.0,0.0,,,,,0,,1,,
Raw,4005057,4025015000000,,,-1278313578426116096,0.0,82.15243724407628,11.327852273117719,17.898738184377763,14,12,0.0,15,375203362555672,14,30.7,298.3022766113281,0.028800001367926598,0,0.0,0.0,,,,,0,,1,,
Raw,4005057,4025015000000,,,-1278313578426116096,0.0,82.15243724407628,11.327852273117719,17.898738184377763,14,13,0.0,15,375203366688875,24,25.7,-620.3473510742188,0.39079999923706055,0,0.0,0.0,,,,,0,,1,,
Raw,4005058,4025015000000,,,-1278313578426116096,0.0,82.15243724407628,11.327852273117719,17.898738184377763,14,15,0.0,15,375203359152240,27,24.9,-722.3071899414062,0.6450000405311584,0,0.0,0.0,,,,,0,,1,,
Raw,4005058,4025015000000,,,-1278313578426116096,0.0,82.15243724407628,11.327852273117719,17.898738184377763,14,17,0.0,15,375203362759636,269,15.4,646.9794921875,9.609500885009766,0,0.0,0.0,,,,,0,,1,,
Raw,4005058,4025015000000,,,-1278313578426116096,0.0,82.15243724407628,11.327852273117719,17.898738184377763,14,19,0.0,15,375203366907149,24,25.5,594.7057495117188,0.5855000019073486,0,0.0,0.0,,,,,0,,1,,
Raw,4005058,4025015000000,,,-1278313578426116096,0.0,82.15243724407628,11.327852273117719,17.898738184377763,14,25,0.0,15,375203358861698,110,14.8,96.91657257080078,2.133500099182129,0,0.0,0.0,,,,,0,,1,,
Raw,4005059,4025015000000,,,-1278313578426116096,0.0,82.15243724407628,11.327852273117719,17.898738184377763,14,29,0.0,15,375203358198620,35,22.2,-664.9716796875,0.8134999871253967,0,0.0,0.0,,,,,0,,1,,
Raw,4005059,4025015000000,,,-1278313578426116096,0.0,82.15243724407628,11.327852273117719,17.898738184377763,14,4,0.0,7183,375203357473948,53,19.0,-416.11517333984375,0.8119999766349792,0,0.0,0.0,,,,,0,,6,,
Raw,4005059,4025015000000,,,-1278313578426116096,0.0,82.15243724407628,11.327852273117719,17.898738184377763,14,24,0.0,7183,375203352381506,10,34.5,296.8010559082031,0.2705000042915344,0,0.0,0.0,,,,,0,,6,,
Raw,4005060,4025015000000,,,-1278313578426116096,0.0,82.15243724407628,11.327852273117719,17.898738184377763,14,31,0.0,7183,375203346862978,53,19.3,332.9853820800781,0.8134999871253967,0,0.0,0.0,,,,,0,,6,,
Fix,gps,22.925252,120.294476,75.898804,0.630000,11.792000,1594282386000
NMEA,$GPGSV,4,1,13,02,54,005,09,06,41,067,15,09,14,040,14,12,21,257,31*78,1594282385455
NMEA,$GPGSV,4,2,13,13,34,182,26,15,10,208,25,17,18,149,15,19,38,149,26*73,1594282385456
NMEA,$GPGSV,4,3,13,25,10,285,15,29,07,323,22,05,55,303,,07,05,085,*75,1594282385456
NMEA,$GPGSV,4,4,13,30,09,116,*47,1594282385456
NMEA,$GLGSV,2,1,06,70,23,025,13,65,04,217,31,85,53,098,19,72,45,227,16*64,1594282385457
NMEA,$GLGSV,2,2,06,84,04,132,,71,71,345,*69,1594282385457
NMEA,$GAGSV,2,1,05,04,42,208,19,24,06,260,35,31,07,213,19,11,07,313,*67,1594282385458
NMEA,$GAGSV,2,2,05,33,52,082,*50,1594282385458
NMEA,$PQGSV,1,1,02,194,11,160,13,195,69,143,17,0,5*63,1594282385459
NMEA,$PQGSV,4,1,15,05,17,258,29,06,49,172,14,07,19,195,19,09,26,191,14,0,4*6C,1594282385459
NMEA,$PQGSV,4,2,15,10,26,220,22,16,45,178,17,19,07,230,30,20,54,251,16,0,4*6D,1594282385459
NMEA,$PQGSV,4,3,15,27,45,127,17,29,20,322,15,30,73,341,11,01,50,130,,0,4*67,1594282385459
NMEA,$PQGSV,4,4,15,03,62,203,,04,37,113,,08,50,008,,0,4*5F,1594282385459
NMEA,$GNGSA,A,3,06,12,13,15,17,19,25,,,,,,1.1,0.7,0.8,1*34,1594282385460
NMEA,$GNGSA,A,2,70,72,85,,,,,,,,,,1.1,0.7,0.8,2*33,1594282385460
NMEA,$GNGSA,A,2,04,24,31,,,,,,,,,,1.1,0.7,0.8,3*3D,1594282385460
NMEA,$PQGSA,A,3,05,06,07,09,10,16,,,,,,,1.1,0.7,0.8,4*38,1594282385461
NMEA,$GNVTG,27.7,T,27.7,M,1.2,N,2.3,K,A*3F,1594282385461
NMEA,$GNRMC,081306.00,A,2255.515134,N,12017.668546,E,1.2,27.7,090720,2.8,W,A*0F,1594282385461
NMEA,$GNGGA,081306.00,2255.515134,N,12017.668546,E,1,12,0.7,58.4,M,17.5,M,,*4D,1594282385461
Fix,gps,22.925267,120.294493,75.516907,0.800000,11.792000,1594282387000
NMEA,$GPGSV,4,1,13,02,54,005,09,06,41,067,13,09,14,040,14,12,21,257,32*7D,1594282386456
NMEA,$GPGSV,4,2,13,13,34,182,25,15,10,208,26,17,18,149,15,19,38,149,26*73,1594282386456
Raw,4006068,4026015000000,,,-1278313578426116096,0.0,82.59770402219146,7.4189099616960155,17.67140297453851,14,6,0.0,207,40386366802199,467,12.5,708.4265747070312,13.055500984191895,0,0.0,0.0,,,,,0,,3,,
Raw,4006068,4026015000000,,,-1278313578426116096,0.0,82.59770402219146,7.4189099616960155,17.67140297453851,14,1,0.0,207,40386360662012,13,31.0,-696.0441284179688,0.22519999742507935,0,0.0,0.0,,,,,0,,3,,
Raw,4006069,4026015000000,,,-1278313578426116096,0.0,82.59770402219146,7.4189099616960155,17.67140297453851,14,21,0.0,207,40386374019285,84,16.3,169.8216552734375,2.137500047683716,0,0.0,0.0,,,,,0,,3,,
Raw,4006069,4026015000000,,,-1278313578426116096,0.0,82.59770402219146,7.4189099616960155,17.67140297453851,14,8,0.0,207,40386372545916,142,13.8,-410.1248474121094,3.944500207901001,0,0.0,0.0,,,,,0,,3,,
Raw,4006070,4026015000000,,,-1278313578426116096,0.0,82.59770402219146,7.4189099616960155,17.67140297453851,14,2,0.0,15,375204368731887,441,9.1,-211.88250732421875,11.948500633239746,0,0.0,0.0,,,,,0,,1,,
Raw,4006071,4026015000000,,,-1278313578426116096,0.0,82.59770402219146,7.4189099616960155,17.67140297453851,14,6,0.0,15,375204367692450,181,13.0,135.59375,6.002000331878662,0,0.0,0.0,,,,,0,,1,,
Raw,4006071,4026015000000,,,-1278313578426116096,0.0,82.59770402219146,7.4189099616960155,17.67140297453851,14,9,0.0,15,375204360060507,656,14.2,584.75341796875,16.47650146484375,0,0.0,0.0,,,,,0,,1,,
Raw,4006072,4026015000000,,,-1278313578426116096,0.0,82.59770402219146,7.4189099616960155,17.67140297453851,14,12,0.0,15,375204362554648,13,31.7,298.3733825683594,0.028200000524520874,0,0.0,0.0,,,,,0,,1,,
Raw,4006072,4026015000000,,,-1278313578426116096,0.0,82.59770402219146,7.4189099616960155,17.67140297453851,14,13,0.0,15,375204366690952,27,24.8,-620.0148315429688,0.6255000233650208,0,0.0,0.0,,,,,0,,1,,
Raw,4006072,4026015000000,,,-1278313578426116096,0.0,82.59770402219146,7.4189099616960155,17.67140297453851,14,15,0.0,15,375204359154652,21,26.0,-722.2114868164062,0.1397000104188919,0,0.0,0.0,,,,,0,,1,,
Raw,4006073,4026015000000,,,-1278313578426116096,0.0,82.59770402219146,7.4189099616960155,17.67140297453851,14,17,0.0,15,375204362757478,334,15.4,646.9794921875,11.109500885009766,0,0.0,0.0,,,,,0,,1,,
Raw,4006073,4026015000000,,,-1278313578426116096,0.0,82.59770402219146,7.4189099616960155,17.67140297453851,14,19,0.0,15,375204366905110,21,26.3,594.7772216796875,0.12020000070333481,0,0.0,0.0,,,,,0,,1,,
Raw,4006073,4026015000000,,,-1278313578426116096,0.0,82.59770402219146,7.4189099616960155,17.67140297453851,14,25,0.0,15,375204358861450,61,18.7,96.71675872802734,1.0234999656677246,0,0.0,0.0,,,,,0,,1,,
Raw,4006074,4026015000000,,,-1278313578426116096,0.0,82.59770402219146,7.4189099616960155,17.67140297453851,14,29,0.0,15,375204358200809,27,24.8,-665.4664916992188,0.643500030040741,0,0.0,0.0,,,,,0,,1,,
Raw,4006074,4026015000000,,,-1278313578426116096,0.0,82.59770402219146,7.4189099616960155,17.67140297453851,14,5,0.0,783,375190307961995,16,29.7,5.050638675689697,0.3850000202655792,0,0.0,0.0,,,,,0,,5,,
Raw,4006074,4026015000000,,,-1278313578426116096,0.0,82.59770402219146,7.4189099616960155,17.67140297453851,14,6,0.0,15,375190317776431,929,14.8,-214.61373901367188,6.202000141143799,0,0.0,0.0,,,,,0,,5,,
Raw,4006075,4026015000000,,,-1278313578426116096,0.0,82.59770402219146,7.4189099616960155,17.67140297453851,14,7,0.0,15,375190310246397,46,20.3,277.76593017578125,0.8014999628067017,0,0.0,0.0,,,,,0,,5,,
Raw,4006075,4026015000000,,,-1278313578426116096,0.0,82.59770402219146,7.4189099616960155,17.67140297453851,14,9,0.0,15,375190312075538,501,13.7,-254.55795288085938,13.749500274658203,0,0.0,0.0,,,,,0,,5,,
Raw,4006075,4026015000000,,,-1278313578426116096,0.0,82.59770402219146,7.4189099616960155,17.67140297453851,14,10,0.0,15,375190311866155,31,23.1,310.8543395996094,0.6330000162124634,0,0.0,0.0,,,,,0,,5,,
Raw,4006075,4026015000000,,,-1278313578426116096,0.0,82.59770402219146,7.4189099616960155,17.67140297453851,14,16,0.0,15,375190315742343,674,17.3,-246.828369140625,4.019000053405762,0,0.0,0.0,,,,,0,,5,,
Raw,4006075,4026015000000,,,-1278313578426116096,0.0,82.59770402219146,7.4189099616960155,17.67140297453851,14,19,0.0,15,375190354046871,14,30.4,-491.7862243652344,0.046800002455711365,0,0.0,0.0,,,,,0,,5,,
Raw,4006076,4026015000000,,,-1278313578426116096,0.0,82.59770402219146,7.4189099616960155,17.67140297453851,14,20,0.0,15,375190365525669,108,16.4,-188.2947235107422,4.084000110626221,0,0.0,0.0,,,,,0,,5,,
Raw,4006076,4026015000000,,,-1278313578426116096,0.0,82.59770402219146,7.4189099616960155,17.67140297453851,14,27,0.0,15,375190364735861,46,20.3,367.8036193847656,0.7924999594688416,0,0.0,0.0,,,,,0,,5,,
Raw,4006076,4026015000000,,,-1278313578426116096,0.0,82.59770402219146,7.4189099616960155,17.67140297453851,14,29,0.0,15,375190358071581,165,14.5,-555.1861572265625,5.7835001945495605,0,0.0,0.0,,,,,0,,5,,
Raw,4006076,4026015000000,,,-1278313578426116096,0.0,82.59770402219146,7.4189099616960155,17.67140297453851,14,30,0.0,15,375190369069928,340,11.2,-166.3542022705078,9.860000610351562,0,0.0,0.0,,,,,0,,5,,
Raw,4006076,4026015000000,,,-1278313578426116096,0.0,82.59770402219146,7.4189099616960155,17.67140297453851,14,4,0.0,7183,375204357475327,53,19.1,-415.72509765625,0.8119999766349792,0,0.0,0.0,,,,,0,,6,,
Raw,4006077,4026015000000,,,-1278313578426116096,0.0,82.59770402219146,7.4189099616960155,17.67140297453851,14,24,0.0,7183,375204352380508,9,35.2,297.8673095703125,0.04560000076889992,0,0.0,0.0,,,,,0,,6,,
Raw,4006077,4026015000000,,,-1278313578426116096,0.0,82.59770402219146,7.4189099616960155,17.67140297453851,14,31,0.0,7183,375204346861809,53,19.7,331.9768371582031,0.8134999871253967,0,0.0,0.0,,,,,0,,6,,
NMEA,$GPGSV,4,3,13,25,10,285,19,29,07,323,25,05,55,303,,07,05,085,*7E,1594282386456
NMEA,$GPGSV,4,4,13,30,09,116,*47,1594282386456
NMEA,$GLGSV,2,1,06,70,23,025,13,65,04,217,31,85,53,098,16,72,45,227,14*69,1594282386458
NMEA,$GLGSV,2,2,06,84,04,132,,71,71,345,*69,1594282386458
NMEA,$GAGSV,2,1,05,04,42,208,19,24,06,260,35,31,07,213,20,11,07,313,*6D,1594282386458
NMEA,$GAGSV,2,2,05,33,52,082,*50,1594282386459
NMEA,$PQGSV,1,1,02,194,11,160,13,195,69,143,17,0,5*63,1594282386459
NMEA,$PQGSV,4,1,16,05,17,258,30,06,49,172,15,07,19,195,20,09,26,191,14,0,4*6C,1594282386459
NMEA,$PQGSV,4,2,16,10,26,220,23,16,45,178,17,19,07,230,30,20,54,251,16,0,4*6F,1594282386459
NMEA,$PQGSV,4,3,16,27,45,127,20,29,20,322,15,30,73,341,11,01,50,130,,0,4*60,1594282386460
NMEA,$PQGSV,4,4,16,03,62,203,,04,37,113,,08,50,008,,13,41,331,,0,4*6A,1594282386460
NMEA,$GNGSA,A,3,02,06,12,13,15,17,19,25,,,,,1.1,0.8,0.8,1*39,1594282386461
NMEA,$GNGSA,A,2,70,72,85,,,,,,,,,,1.1,0.8,0.8,2*3C,1594282386461
NMEA,$GNGSA,A,2,04,24,31,,,,,,,,,,1.1,0.8,0.8,3*32,1594282386461
NMEA,$PQGSA,A,3,05,06,07,09,10,16,,,,,,,1.1,0.8,0.8,4*37,1594282386462
NMEA,$GNVTG,28.8,T,28.8,M,1.6,N,2.9,K,A*31,1594282386463
NMEA,$GNRMC,081307.00,A,2255.515994,N,12017.669566,E,1.6,28.8,090720,2.8,W,A*0B,1594282386463
NMEA,$GNGGA,081307.00,2255.515994,N,12017.669566,E,1,12,0.8,58.0,M,17.5,M,,*46,1594282386464
Raw,4007114,4027015000000,,,-1278313578426116096,0.0,86.78731683176011,8.598018905273323,20.459494489130826,14,6,0.0,207,40387366799836,553,12.5,708.4265747070312,14.555500984191895,0,0.0,0.0,,,,,0,,3,,
Raw,4007114,4027015000000,,,-1278313578426116096,0.0,86.78731683176011,8.598018905273323,20.459494489130826,14,1,0.0,207,40387360664367,14,30.8,-696.2034912109375,0.22579999268054962,0,0.0,0.0,,,,,0,,3,,
Raw,4007114,4027015000000,,,-1278313578426116096,0.0,86.78731683176011,8.598018905273323,20.459494489130826,14,21,0.0,207,40387374018718,99,16.3,169.8216552734375,3.637500047683716,0,0.0,0.0,,,,,0,,3,,
Raw,4007114,4027015000000,,,-1278313578426116096,0.0,86.78731683176011,8.598018905273323,20.459494489130826,14,8,0.0,207,40387372547284,167,13.8,-410.1248474121094,5.44450044631958,0,0.0,0.0,,,,,0,,3,,
Raw,4007115,4027015000000,,,-1278313578426116096,0.0,86.78731683176011,8.598018905273323,20.459494489130826,14,2,0.0,15,375205368732594,518,9.1,-211.88250732421875,13.448500633239746,0,0.0,0.0,,,,,0,,1,,
Raw,4007115,4027015000000,,,-1278313578426116096,0.0,86.78731683176011,8.598018905273323,20.459494489130826,14,6,0.0,15,375205367691998,220,13.0,135.59375,7.502000331878662,0,0.0,0.0,,,,,0,,1,,
Raw,4007115,4027015000000,,,-1278313578426116096,0.0,86.78731683176011,8.598018905273323,20.459494489130826,14,9,0.0,15,375205360058557,766,14.2,584.75341796875,17.97650146484375,0,0.0,0.0,,,,,0,,1,,
Raw,4007115,4027015000000,,,-1278313578426116096,0.0,86.78731683176011,8.598018905273323,20.459494489130826,14,12,0.0,15,375205362553660,13,31.3,298.23504638671875,0.028200000524520874,0,0.0,0.0,,,,,0,,1,,
Raw,4007115,4027015000000,,,-1278313578426116096,0.0,86.78731683176011,8.598018905273323,20.459494489130826,14,13,0.0,15,375205366693052,24,25.0,-620.4187622070312,0.39079999923706055,0,0.0,0.0,,,,,0,,1,,
Raw,4007116,4027015000000,,,-1278313578426116096,0.0,86.78731683176011,8.598018905273323,20.459494489130826,14,15,0.0,15,375205359157068,19,27.1,-722.4125366210938,0.06980000436306,0,0.0,0.0,,,,,0,,1,,
Raw,4007116,4027015000000,,,-1278313578426116096,0.0,86.78731683176011,8.598018905273323,20.459494489130826,14,17,0.0,15,375205362755320,408,15.4,646.9794921875,12.609500885009766,0,0.0,0.0,,,,,0,,1,,
Raw,4007116,4027015000000,,,-1278313578426116096,0.0,86.78731683176011,8.598018905273323,20.459494489130826,14,19,0.0,15,375205366903138,21,26.0,594.5789184570312,0.12020000070333481,0,0.0,0.0,,,,,0,,1,,
Raw,4007116,4027015000000,,,-1278313578426116096,0.0,86.78731683176011,8.598018905273323,20.459494489130826,14,25,0.0,15,375205358860969,61,18.3,98.2105712890625,1.1034998893737793,0,0.0,0.0,,,,,0,,1,,
Raw,4007116,4027015000000,,,-1278313578426116096,0.0,86.78731683176011,8.598018905273323,20.459494489130826,14,29,0.0,15,375205358203027,24,25.9,-665.50830078125,0.40880000591278076,0,0.0,0.0,,,,,0,,1,,
Raw,4007117,4027015000000,,,-1278313578426116096,0.0,86.78731683176011,8.598018905273323,20.459494489130826,14,5,0.0,783,375191307961984,16,29.6,-1.065819263458252,0.3850000202655792,0,0.0,0.0,,,,,0,,5,,
Raw,4007117,4027015000000,,,-1278313578426116096,0.0,86.78731683176011,8.598018905273323,20.459494489130826,14,6,0.0,15,375191317777141,949,14.9,-214.9593963623047,6.952000141143799,0,0.0,0.0,,,,,0,,5,,
Raw,4007117,4027015000000,,,-1278313578426116096,0.0,86.78731683176011,8.598018905273323,20.459494489130826,14,7,0.0,15,375191310245495,61,18.6,277.92913818359375,0.9314999580383301,0,0.0,0.0,,,,,0,,5,,
Raw,4007117,4027015000000,,,-1278313578426116096,0.0,86.78731683176011,8.598018905273323,20.459494489130826,14,9,0.0,15,375191312076387,593,13.7,-254.55795288085938,15.249500274658203,0,0.0,0.0,,,,,0,,5,,
Raw,4007117,4027015000000,,,-1278313578426116096,0.0,86.78731683176011,8.598018905273323,20.459494489130826,14,10,0.0,15,375191311865123,35,22.9,310.4798583984375,0.6330000162124634,0,0.0,0.0,,,,,0,,5,,
Raw,4007118,4027015000000,,,-1278313578426116096,0.0,86.78731683176011,8.598018905273323,20.459494489130826,14,16,0.0,15,375191315743169,687,17.1,-247.0780029296875,4.769000053405762,0,0.0,0.0,,,,,0,,5,,
Raw,4007118,4027015000000,,,-1278313578426116096,0.0,86.78731683176011,8.598018905273323,20.459494489130826,14,19,0.0,15,375191354048521,14,30.4,-491.958251953125,0.046800002455711365,0,0.0,0.0,,,,,0,,5,,
Raw,4007118,4027015000000,,,-1278313578426116096,0.0,86.78731683176011,8.598018905273323,20.459494489130826,14,20,0.0,15,375191365526297,137,16.4,-188.2947235107422,5.584000110626221,0,0.0,0.0,,,,,0,,5,,
Raw,4007118,4027015000000,,,-1278313578426116096,0.0,86.78731683176011,8.598018905273323,20.459494489130826,14,27,0.0,15,375191364734636,46,20.1,367.4291687011719,0.7924999594688416,0,0.0,0.0,,,,,0,,5,,
Raw,4007119,4027015000000,,,-1278313578426116096,0.0,86.78731683176011,8.598018905273323,20.459494489130826,14,29,0.0,15,375191358073433,204,14.5,-555.1861572265625,7.2835001945495605,0,0.0,0.0,,,,,0,,5,,
Raw,4007119,4027015000000,,,-1278313578426116096,0.0,86.78731683176011,8.598018905273323,20.459494489130826,14,30,0.0,15,375191369070483,406,11.2,-166.3542022705078,11.360000610351562,0,0.0,0.0,,,,,0,,5,,
Raw,4007119,4027015000000,,,-1278313578426116096,0.0,86.78731683176011,8.598018905273323,20.459494489130826,14,4,0.0,7183,375205357476654,46,20.8,-416.7716979980469,0.7519999742507935,0,0.0,0.0,,,,,0,,6,,
Raw,4007119,4027015000000,,,-1278313578426116096,0.0,86.78731683176011,8.598018905273323,20.459494489130826,14,24,0.0,7183,375205352379524,10,34.8,297.48223876953125,0.04610000178217888,0,0.0,0.0,,,,,0,,6,,
Raw,4007119,4027015000000,,,-1278313578426116096,0.0,86.78731683176011,8.598018905273323,20.459494489130826,14,31,0.0,7183,375205346860733,53,19.5,332.2242126464844,0.8134999871253967,0,0.0,0.0,,,,,0,,6,,
Fix,gps,22.925274,120.294508,75.480530,0.560000,11.792000,1594282388000
NMEA,$GPGSV,4,1,13,02,54,005,09,06,41,067,13,09,14,040,14,12,21,257,31*7E,1594282387478
NMEA,$GPGSV,4,2,13,13,34,182,25,15,10,208,27,17,18,149,15,19,38,149,26*72,1594282387478
NMEA,$GPGSV,4,3,13,25,10,285,18,29,07,323,26,05,55,303,,07,05,085,*7C,1594282387479
NMEA,$GPGSV,4,4,13,30,09,116,*47,1594282387480
NMEA,$GLGSV,2,1,06,70,23,025,13,65,04,217,31,85,53,098,16,72,45,227,14*69,1594282387481
NMEA,$GLGSV,2,2,06,84,04,132,,71,71,345,*69,1594282387482
NMEA,$GAGSV,2,1,05,04,42,208,21,24,06,260,35,31,07,213,20,11,07,313,*66,1594282387482
NMEA,$GAGSV,2,2,05,33,52,082,*50,1594282387483
NMEA,$PQGSV,1,1,02,194,11,160,13,195,69,143,12,0,5*66,1594282387484
NMEA,$PQGSV,4,1,16,05,17,258,30,06,49,172,15,07,19,195,19,09,26,191,14,0,4*66,1594282387484
NMEA,$PQGSV,4,2,16,10,26,220,23,16,45,178,17,19,07,230,30,20,54,251,16,0,4*6F,1594282387486
NMEA,$PQGSV,4,3,16,27,45,127,20,29,20,322,15,30,73,341,11,01,50,130,,0,4*60,1594282387494
NMEA,$PQGSV,4,4,16,03,62,203,,04,37,113,,08,50,008,,13,41,331,,0,4*6A,1594282387495
NMEA,$GNGSA,A,3,02,12,13,15,19,25,,,,,,,1.1,0.8,0.8,1*39,1594282387497
NMEA,$GNGSA,A,2,70,72,85,,,,,,,,,,1.1,0.8,0.8,2*3C,1594282387497
NMEA,$GNGSA,A,2,04,24,31,,,,,,,,,,1.1,0.8,0.8,3*32,1594282387498
NMEA,$PQGSA,A,3,05,06,07,09,10,16,,,,,,,1.1,0.8,0.8,4*37,1594282387498
NMEA,$GNVTG,55.6,T,55.6,M,1.1,N,2.0,K,A*3F,1594282387499
NMEA,$GNRMC,081308.00,A,2255.516460,N,12017.670497,E,1.1,55.6,090720,2.8,W,A*05,1594282387499
NMEA,$GNGGA,081308.00,2255.516460,N,12017.670497,E,1,12,0.8,58.0,M,17.5,M,,*4B,1594282387500
Fix,gps,22.925278,120.294523,76.097534,0.600000,11.792000,1594282389000
Raw,4008110,4028015000000,,,-1278313578426116096,0.0,84.6352195367217,10.71213631070836,17.062500960683327,14,6,0.0,207,40388366797473,649,12.5,708.4265747070312,16.055500030517578,0,0.0,0.0,,,,,0,,3,,
Raw,4008111,4028015000000,,,-1278313578426116096,0.0,84.6352195367217,10.71213631070836,17.062500960683327,14,1,0.0,207,40388360666673,14,30.6,-696.0049438476562,0.22579999268054962,0,0.0,0.0,,,,,0,,3,,
Raw,4008111,4028015000000,,,-1278313578426116096,0.0,84.6352195367217,10.71213631070836,17.062500960683327,14,21,0.0,207,40388374018152,124,16.3,169.8216552734375,5.137500286102295,0,0.0,0.0,,,,,0,,3,,
Raw,4008112,4028015000000,,,-1278313578426116096,0.0,84.6352195367217,10.71213631070836,17.062500960683327,14,8,0.0,207,40388372548652,203,13.8,-410.1248474121094,6.94450044631958,0,0.0,0.0,,,,,0,,3,,
Raw,4008112,4028015000000,,,-1278313578426116096,0.0,84.6352195367217,10.71213631070836,17.062500960683327,14,2,0.0,15,375206368733301,606,9.1,-211.88250732421875,14.948500633239746,0,0.0,0.0,,,,,0,,1,,
Raw,4008113,4028015000000,,,-1278313578426116096,0.0,84.6352195367217,10.71213631070836,17.062500960683327,14,6,0.0,15,375206367691546,270,13.0,135.59375,9.00200080871582,0,0.0,0.0,,,,,0,,1,,
Raw,4008113,4028015000000,,,-1278313578426116096,0.0,84.6352195367217,10.71213631070836,17.062500960683327,14,9,0.0,15,375206360056606,886,14.2,584.75341796875,19.47650146484375,0,0.0,0.0,,,,,0,,1,,
Raw,4008113,4028015000000,,,-1278313578426116096,0.0,84.6352195367217,10.71213631070836,17.062500960683327,14,12,0.0,15,375206362552699,14,30.9,298.43316650390625,0.028800001367926598,0,0.0,0.0,,,,,0,,1,,
Raw,4008114,4028015000000,,,-1278313578426116096,0.0,84.6352195367217,10.71213631070836,17.062500960683327,14,13,0.0,15,375206366695143,27,24.3,-619.8150634765625,0.6754999756813049,0,0.0,0.0,,,,,0,,1,,
Raw,4008114,4028015000000,,,-1278313578426116096,0.0,84.6352195367217,10.71213631070836,17.062500960683327,14,15,0.0,15,375206359159461,21,26.5,-722.2755737304688,0.1397000104188919,0,0.0,0.0,,,,,0,,1,,
Raw,4008115,4028015000000,,,-1278313578426116096,0.0,84.6352195367217,10.71213631070836,17.062500960683327,14,17,0.0,15,375206362753162,493,15.4,646.9794921875,14.109500885009766,0,0.0,0.0,,,,,0,,1,,
Raw,4008116,4028015000000,,,-1278313578426116096,0.0,84.6352195367217,10.71213631070836,17.062500960683327,14,19,0.0,15,375206366901146,27,24.9,595.2005615234375,0.6255000233650208,0,0.0,0.0,,,,,0,,1,,
Raw,4008116,4028015000000,,,-1278313578426116096,0.0,84.6352195367217,10.71213631070836,17.062500960683327,14,25,0.0,15,375206358860597,70,17.3,97.1449203491211,1.1934999227523804,0,0.0,0.0,,,,,0,,1,,
Raw,4008116,4028015000000,,,-1278313578426116096,0.0,84.6352195367217,10.71213631070836,17.062500960683327,14,29,0.0,15,375206358205261,24,25.9,-665.4577026367188,0.40880000591278076,0,0.0,0.0,,,,,0,,1,,
Raw,4008116,4028015000000,,,-1278313578426116096,0.0,84.6352195367217,10.71213631070836,17.062500960683327,14,5,0.0,783,375192307961994,16,29.5,0.6721382141113281,0.3850000202655792,0,0.0,0.0,,,,,0,,5,,
Raw,4008117,4028015000000,,,-1278313578426116096,0.0,84.6352195367217,10.71213631070836,17.062500960683327,14,6,0.0,15,375192317777863,1104,14.4,-215.72755432128906,7.7920002937316895,0,0.0,0.0,,,,,0,,5,,
Raw,4008117,4028015000000,,,-1278313578426116096,0.0,84.6352195367217,10.71213631070836,17.062500960683327,14,7,0.0,15,375192310244519,53,19.4,277.7755432128906,0.8614999651908875,0,0.0,0.0,,,,,0,,5,,
Raw,4008117,4028015000000,,,-1278313578426116096,0.0,84.6352195367217,10.71213631070836,17.062500960683327,14,9,0.0,15,375192312077236,696,13.7,-254.55795288085938,16.749500274658203,0,0.0,0.0,,,,,0,,5,,
Raw,4008117,4028015000000,,,-1278313578426116096,0.0,84.6352195367217,10.71213631070836,17.062500960683327,14,10,0.0,15,375192311864085,31,23.3,310.46063232421875,0.6330000162124634,0,0.0,0.0,,,,,0,,5,,
Raw,4008118,4028015000000,,,-1278313578426116096,0.0,84.6352195367217,10.71213631070836,17.062500960683327,14,16,0.0,15,375192315743992,702,17.1,-247.19325256347656,5.519000053405762,0,0.0,0.0,,,,,0,,5,,
Raw,4008118,4028015000000,,,-1278313578426116096,0.0,84.6352195367217,10.71213631070836,17.062500960683327,14,19,0.0,15,375192354050155,14,30.1,-491.78192138671875,0.046800002455711365,0,0.0,0.0,,,,,0,,5,,
Raw,4008118,4028015000000,,,-1278313578426116096,0.0,84.6352195367217,10.71213631070836,17.062500960683327,14,20,0.0,15,375192365526925,175,16.4,-188.2947235107422,7.084000110626221,0,0.0,0.0,,,,,0,,5,,
Raw,4008118,4028015000000,,,-1278313578426116096,0.0,84.6352195367217,10.71213631070836,17.062500960683327,14,27,0.0,15,375192364733389,53,19.4,368.05328369140625,0.8524999618530273,0,0.0,0.0,,,,,0,,5,,
Raw,4008119,4028015000000,,,-1278313578426116096,0.0,84.6352195367217,10.71213631070836,17.062500960683327,14,29,0.0,15,375192358075285,253,14.5,-555.1861572265625,8.783500671386719,0,0.0,0.0,,,,,0,,5,,
Raw,4008119,4028015000000,,,-1278313578426116096,0.0,84.6352195367217,10.71213631070836,17.062500960683327,14,30,0.0,15,375192369071113,131,13.5,-166.05654907226562,2.870000123977661,0,0.0,0.0,,,,,0,,5,,
Raw,4008119,4028015000000,,,-1278313578426116096,0.0,84.6352195367217,10.71213631070836,17.062500960683327,14,4,0.0,7183,375206357478076,70,17.3,-416.12469482421875,0.9419999718666077,0,0.0,0.0,,,,,0,,6,,
Raw,4008119,4028015000000,,,-1278313578426116096,0.0,84.6352195367217,10.71213631070836,17.062500960683327,14,11,0.0,7183,375206351366850,1322,12.6,-425.5537414550781,9.695000648498535,0,0.0,0.0,,,,,0,,6,,
Raw,4008120,4028015000000,,,-1278313578426116096,0.0,84.6352195367217,10.71213631070836,17.062500960683327,14,24,0.0,7183,375206352378533,10,34.7,297.47210693359375,0.04610000178217888,0,0.0,0.0,,,,,0,,6,,
Raw,4008120,4028015000000,,,-1278313578426116096,0.0,84.6352195367217,10.71213631070836,17.062500960683327,14,31,0.0,7183,375206346859634,53,19.4,332.8712158203125,0.8134999871253967,0,0.0,0.0,,,,,0,,6,,
NMEA,$GPGSV,4,1,13,02,54,005,09,06,41,067,13,09,14,040,14,12,21,257,31*7E,1594282388472
NMEA,$GPGSV,4,2,13,13,34,182,24,15,10,208,27,17,18,149,15,19,38,149,25*70,1594282388472
NMEA,$GPGSV,4,3,13,25,10,285,17,29,07,323,26,05,55,303,,07,05,085,*73,1594282388473
NMEA,$GPGSV,4,4,13,30,09,116,*47,1594282388474
NMEA,$GLGSV,2,1,06,70,23,025,13,65,04,217,31,85,53,098,16,72,45,227,14*69,1594282388475
NMEA,$GLGSV,2,2,06,84,04,132,,71,71,345,*69,1594282388476
NMEA,$GAGSV,2,1,05,04,42,208,17,11,07,313,13,24,06,260,35,31,07,213,19*6B,1594282388477
NMEA,$GAGSV,2,2,05,33,52,082,*50,1594282388478
NMEA,$PQGSV,1,1,02,194,11,160,13,195,69,143,12,0,5*66,1594282388479
NMEA,$PQGSV,4,1,16,05,17,258,30,06,49,172,14,07,19,195,19,09,26,191,14,0,4*67,1594282388479
NMEA,$PQGSV,4,2,16,10,26,220,23,16,45,178,17,19,07,230,30,20,54,251,16,0,4*6F,1594282388480
NMEA,$PQGSV,4,3,16,27,45,127,19,29,20,322,15,30,73,341,14,01,50,130,,0,4*6F,1594282388481
NMEA,$PQGSV,4,4,16,03,62,203,,04,37,113,,08,50,008,,13,41,331,,0,4*6A,1594282388483
NMEA,$GNGSA,A,3,02,12,13,15,19,25,,,,,,,1.2,0.8,0.8,1*3A,1594282388485
NMEA,$GNGSA,A,2,70,72,85,,,,,,,,,,1.2,0.8,0.8,2*3F,1594282388485
NMEA,$GNGSA,A,2,04,24,31,,,,,,,,,,1.2,0.8,0.8,3*31,1594282388486
NMEA,$PQGSA,A,3,05,06,07,09,10,16,,,,,,,1.2,0.8,0.8,4*34,1594282388486
NMEA,$GNVTG,111.4,T,111.4,M,1.2,N,2.2,K,A*3E,1594282388486
NMEA,$GNRMC,081309.00,A,2255.516684,N,12017.671394,E,1.2,111.4,090720,2.8,W,A*39,1594282388487
NMEA,$GNGGA,081309.00,2255.516684,N,12017.671394,E,1,12,0.8,58.6,M,17.5,M,,*41,1594282388487
Fix,gps,22.925281,120.294538,76.568909,0.430000,11.792000,1594282390000
NMEA,$GPGSV,4,1,13,02,54,005,09,06,41,067,13,09,14,040,12,12,21,257,30*79,1594282389456
Raw,4009083,4029015000000,,,-1278313578426116096,0.0,87.1735974214971,11.059194378068959,17.540970893017334,14,6,0.0,207,40389366795110,755,12.5,708.4265747070312,17.555500030517578,0,0.0,0.0,,,,,0,,3,,
Raw,4009083,4029015000000,,,-1278313578426116096,0.0,87.1735974214971,11.059194378068959,17.540970893017334,14,1,0.0,207,40389360668989,14,30.4,-695.9940185546875,0.22579999268054962,0,0.0,0.0,,,,,0,,3,,
Raw,4009084,4029015000000,,,-1278313578426116096,0.0,87.1735974214971,11.059194378068959,17.540970893017334,14,21,0.0,207,40389374017586,158,16.3,169.8216552734375,6.637500286102295,0,0.0,0.0,,,,,0,,3,,
Raw,4009084,4029015000000,,,-1278313578426116096,0.0,87.1735974214971,11.059194378068959,17.540970893017334,14,8,0.0,207,40389372549509,133,13.3,-409.56463623046875,3.194500207901001,0,0.0,0.0,,,,,0,,3,,
Raw,4009085,4029015000000,,,-1278313578426116096,0.0,87.1735974214971,11.059194378068959,17.540970893017334,14,2,0.0,15,375207368734008,703,9.1,-211.88250732421875,16.448501586914062,0,0.0,0.0,,,,,0,,1,,
Raw,4009085,4029015000000,,,-1278313578426116096,0.0,87.1735974214971,11.059194378068959,17.540970893017334,14,6,0.0,15,375207367691093,330,13.0,135.59375,10.50200080871582,0,0.0,0.0,,,,,0,,1,,
Raw,4009086,4029015000000,,,-1278313578426116096,0.0,87.1735974214971,11.059194378068959,17.540970893017334,14,9,0.0,15,375207360054640,342,11.6,587.2081909179688,9.976500511169434,0,0.0,0.0,,,,,0,,1,,
Raw,4009086,4029015000000,,,-1278313578426116096,0.0,87.1735974214971,11.059194378068959,17.540970893017334,14,12,0.0,15,375207362551700,14,30.4,298.4718017578125,0.028800001367926598,0,0.0,0.0,,,,,0,,1,,
Raw,4009087,4029015000000,,,-1278313578426116096,0.0,87.1735974214971,11.059194378068959,17.540970893017334,14,13,0.0,15,375207366697220,31,23.8,-620.7094116210938,0.6754999756813049,0,0.0,0.0,,,,,0,,1,,
Raw,4009087,4029015000000,,,-1278313578426116096,0.0,87.1735974214971,11.059194378068959,17.540970893017334,14,15,0.0,15,375207359161872,19,27.3,-721.8287963867188,0.06980000436306,0,0.0,0.0,,,,,0,,1,,
Raw,4009088,4029015000000,,,-1278313578426116096,0.0,87.1735974214971,11.059194378068959,17.540970893017334,14,17,0.0,15,375207362751004,588,15.4,646.9794921875,15.609500885009766,0,0.0,0.0,,,,,0,,1,,
Raw,4009088,4029015000000,,,-1278313578426116096,0.0,87.1735974214971,11.059194378068959,17.540970893017334,14,19,0.0,15,375207366899178,24,25.8,595.343017578125,0.39079999923706055,0,0.0,0.0,,,,,0,,1,,
Raw,4009088,4029015000000,,,-1278313578426116096,0.0,87.1735974214971,11.059194378068959,17.540970893017334,14,25,0.0,15,375207358860476,70,17.6,97.60163116455078,1.1034998893737793,0,0.0,0.0,,,,,0,,1,,
Raw,4009089,4029015000000,,,-1278313578426116096,0.0,87.1735974214971,11.059194378068959,17.540970893017334,14,29,0.0,15,375207358207462,21,26.4,-665.2255249023438,0.13819999992847443,0,0.0,0.0,,,,,0,,1,,
Raw,4009090,4029015000000,,,-1278313578426116096,0.0,87.1735974214971,11.059194378068959,17.540970893017334,14,5,0.0,783,375193307961969,16,29.6,0.36487501859664917,0.3850000202655792,0,0.0,0.0,,,,,0,,5,,
Raw,4009090,4029015000000,,,-1278313578426116096,0.0,87.1735974214971,11.059194378068959,17.540970893017334,14,6,0.0,15,375193317778570,1129,14.2,-215.73716735839844,8.542000770568848,0,0.0,0.0,,,,,0,,5,,
Raw,4009090,4029015000000,,,-1278313578426116096,0.0,87.1735974214971,11.059194378068959,17.540970893017334,14,7,0.0,15,375193310243586,61,18.2,278.2652282714844,0.9314999580383301,0,0.0,0.0,,,,,0,,5,,
Raw,4009091,4029015000000,,,-1278313578426116096,0.0,87.1735974214971,11.059194378068959,17.540970893017334,14,9,0.0,15,375193312078086,808,13.7,-254.55795288085938,18.249500274658203,0,0.0,0.0,,,,,0,,5,,
Raw,4009091,4029015000000,,,-1278313578426116096,0.0,87.1735974214971,11.059194378068959,17.540970893017334,14,10,0.0,15,375193311863022,31,23.3,310.2782287597656,0.6330000162124634,0,0.0,0.0,,,,,0,,5,,
Raw,4009091,4029015000000,,,-1278313578426116096,0.0,87.1735974214971,11.059194378068959,17.540970893017334,14,16,0.0,15,375193315744821,820,16.7,-247.1836395263672,6.348999977111816,0,0.0,0.0,,,,,0,,5,,
Raw,4009091,4029015000000,,,-1278313578426116096,0.0,87.1735974214971,11.059194378068959,17.540970893017334,14,19,0.0,15,375193354051790,14,30.3,-491.7064208984375,0.046800002455711365,0,0.0,0.0,,,,,0,,5,,
Raw,4009091,4029015000000,,,-1278313578426116096,0.0,87.1735974214971,11.059194378068959,17.540970893017334,14,20,0.0,15,375193365527553,224,16.4,-188.2947235107422,8.584000587463379,0,0.0,0.0,,,,,0,,5,,
Raw,4009092,4029015000000,,,-1278313578426116096,0.0,87.1735974214971,11.059194378068959,17.540970893017334,14,27,0.0,15,375193364732190,61,18.3,367.65960693359375,0.92249995470047,0,0.0,0.0,,,,,0,,5,,
Raw,4009092,4029015000000,,,-1278313578426116096,0.0,87.1735974214971,11.059194378068959,17.540970893017334,14,29,0.0,15,375193358077103,140,13.7,-554.7733154296875,3.633500099182129,0,0.0,0.0,,,,,0,,5,,
Raw,4009092,4029015000000,,,-1278313578426116096,0.0,87.1735974214971,11.059194378068959,17.540970893017334,14,30,0.0,15,375193369071667,151,13.5,-166.05654907226562,4.37000036239624,0,0.0,0.0,,,,,0,,5,,
Raw,4009092,4029015000000,,,-1278313578426116096,0.0,87.1735974214971,11.059194378068959,17.540970893017334,14,4,0.0,7183,375207357479502,61,18.1,-415.8582763671875,0.871999979019165,0,0.0,0.0,,,,,0,,6,,
Raw,4009092,4029015000000,,,-1278313578426116096,0.0,87.1735974214971,11.059194378068959,17.540970893017334,14,11,0.0,7183,375207351367977,40,21.1,-413.4605712890625,0.7849999666213989,0,0.0,0.0,,,,,0,,6,,
Raw,4009093,4029015000000,,,-1278313578426116096,0.0,87.1735974214971,11.059194378068959,17.540970893017334,14,24,0.0,7183,375207352377545,10,34.5,297.6442565917969,0.04610000178217888,0,0.0,0.0,,,,,0,,6,,
Raw,4009093,4029015000000,,,-1278313578426116096,0.0,87.1735974214971,11.059194378068959,17.540970893017334,14,31,0.0,7183,375207346858515,53,19.0,332.6333312988281,0.8134999871253967,0,0.0,0.0,,,,,0,,6,,
NMEA,$GPGSV,4,2,13,13,34,182,24,15,10,208,27,17,18,149,15,19,38,149,26*73,1594282389456
NMEA,$GPGSV,4,3,13,25,10,285,18,29,07,323,26,05,55,303,,07,05,085,*7C,1594282389458
NMEA,$GPGSV,4,4,13,30,09,116,*47,1594282389458
NMEA,$GLGSV,2,1,06,70,23,025,13,65,04,217,30,85,53,098,16,72,45,227,13*6F,1594282389459
NMEA,$GLGSV,2,2,06,84,04,132,,71,71,345,*69,1594282389459
NMEA,$GAGSV,2,1,05,04,42,208,18,11,07,313,21,24,06,260,35,31,07,213,19*65,1594282389459
NMEA,$GAGSV,2,2,05,33,52,082,*50,1594282389459
NMEA,$PQGSV,1,1,02,194,11,160,13,195,69,143,12,0,5*66,1594282389459
NMEA,$PQGSV,4,1,16,05,17,258,30,06,49,172,14,07,19,195,18,09,26,191,14,0,4*66,1594282389460
NMEA,$PQGSV,4,2,16,10,26,220,23,16,45,178,17,19,07,230,30,20,54,251,16,0,4*6F,1594282389460
NMEA,$PQGSV,4,3,16,27,45,127,18,29,20,322,14,30,73,341,14,01,50,130,,0,4*6F,1594282389460
NMEA,$PQGSV,4,4,16,03,62,203,,04,37,113,,08,50,008,,13,41,331,,0,4*6A,1594282389460
NMEA,$GNGSA,A,3,02,12,13,15,19,25,,,,,,,1.1,0.7,0.8,1*36,1594282389461
NMEA,$GNGSA,A,2,70,85,,,,,,,,,,,1.1,0.7,0.8,2*36,1594282389462
NMEA,$GNGSA,A,3,04,11,24,31,,,,,,,,,1.1,0.7,0.8,3*3C,1594282389462
NMEA,$PQGSA,A,3,05,06,07,09,10,16,,,,,,,1.1,0.7,0.8,4*38,1594282389462
NMEA,$GNVTG,136.5,T,136.5,M,0.8,N,1.5,K,A*31,1594282389462
NMEA,$GNRMC,081310.00,A,2255.516887,N,12017.672297,E,0.8,136.5,090720,2.8,W,A*32,1594282389464
NMEA,$GNGGA,081310.00,2255.516887,N,12017.672297,E,1,12,0.7,59.1,M,17.5,M,,*4C,1594282389465
Raw,4010081,4030015000000,,,-1278313578426116096,0.0,86.85469219926745,11.246083299910046,16.840473441396192,14,6,0.0,207,40390366792747,871,12.5,708.4265747070312,19.055500030517578,0,0.0,0.0,,,,,0,,3,,
Raw,4010082,4030015000000,,,-1278313578426116096,0.0,86.85469219926745,11.246083299910046,16.840473441396192,14,1,0.0,207,40390360671327,16,29.5,-699.5542602539062,0.22669999301433563,0,0.0,0.0,,,,,0,,3,,
Raw,4010083,4030015000000,,,-1278313578426116096,0.0,86.85469219926745,11.246083299910046,16.840473441396192,14,21,0.0,207,40390374017019,203,16.3,169.8216552734375,8.137500762939453,0,0.0,0.0,,,,,0,,3,,
Raw,4010083,4030015000000,,,-1278313578426116096,0.0,86.85469219926745,11.246083299910046,16.840473441396192,14,8,0.0,207,40390372550400,61,18.0,-413.43023681640625,1.214500069618225,0,0.0,0.0,,,,,0,,3,,
Raw,4010084,4030015000000,,,-1278313578426116096,0.0,86.85469219926745,11.246083299910046,16.840473441396192,14,2,0.0,15,375208368734714,811,9.1,-211.88250732421875,17.948501586914062,0,0.0,0.0,,,,,0,,1,,
Raw,4010084,4030015000000,,,-1278313578426116096,0.0,86.85469219926745,11.246083299910046,16.840473441396192,14,6,0.0,15,375208367690641,400,13.0,135.59375,12.00200080871582,0,0.0,0.0,,,,,0,,1,,
Raw,4010085,4030015000000,,,-1278313578426116096,0.0,86.85469219926745,11.246083299910046,16.840473441396192,14,9,0.0,15,375208360052681,408,11.6,587.2081909179688,11.476500511169434,0,0.0,0.0,,,,,0,,1,,
Raw,4010085,4030015000000,,,-1278313578426116096,0.0,86.85469219926745,11.246083299910046,16.840473441396192,14,12,0.0,15,375208362550711,14,30.3,294.922119140625,0.028800001367926598,0,0.0,0.0,,,,,0,,1,,
Raw,4010086,4030015000000,,,-1278313578426116096,0.0,86.85469219926745,11.246083299910046,16.840473441396192,14,13,0.0,15,375208366699346,27,24.1,-623.5162353515625,0.6754999756813049,0,0.0,0.0,,,,,0,,1,,
Raw,4010086,4030015000000,,,-1278313578426116096,0.0,86.85469219926745,11.246083299910046,16.840473441396192,14,15,0.0,15,375208359164287,21,26.1,-725.856201171875,0.6050000190734863,0,0.0,0.0,,,,,0,,1,,
Raw,4010087,4030015000000,,,-1278313578426116096,0.0,86.85469219926745,11.246083299910046,16.840473441396192,14,17,0.0,15,375208362748846,692,15.4,646.9794921875,17.109500885009766,0,0.0,0.0,,,,,0,,1,,
Raw,4010087,4030015000000,,,-1278313578426116096,0.0,86.85469219926745,11.246083299910046,16.840473441396192,14,19,0.0,15,375208366897193,24,25.7,591.318603515625,0.5855000019073486,0,0.0,0.0,,,,,0,,1,,
Raw,4010088,4030015000000,,,-1278313578426116096,0.0,86.85469219926745,11.246083299910046,16.840473441396192,14,25,0.0,15,375208358859996,61,18.6,94.1002197265625,1.0234999656677246,0,0.0,0.0,,,,,0,,1,,
Raw,4010088,4030015000000,,,-1278313578426116096,0.0,86.85469219926745,11.246083299910046,16.840473441396192,14,29,0.0,15,375208358209730,21,26.1,-669.0344848632812,0.6035000085830688,0,0.0,0.0,,,,,0,,1,,
Raw,4010088,4030015000000,,,-1278313578426116096,0.0,86.85469219926745,11.246083299910046,16.840473441396192,14,5,0.0,783,375194307961993,16,29.3,-3.8887996673583984,0.3850000202655792,0,0.0,0.0,,,,,0,,5,,
Raw,4010089,4030015000000,,,-1278313578426116096,0.0,86.85469219926745,11.246083299910046,16.840473441396192,14,6,0.0,15,375194317779300,1157,14.3,-215.93881225585938,9.292000770568848,0,0.0,0.0,,,,,0,,5,,
Raw,4010089,4030015000000,,,-1278313578426116096,0.0,86.85469219926745,11.246083299910046,16.840473441396192,14,7,0.0,15,375194310242650,40,21.1,275.1542053222656,0.7414999604225159,0,0.0,0.0,,,,,0,,5,,
Raw,4010090,4030015000000,,,-1278313578426116096,0.0,86.85469219926745,11.246083299910046,16.840473441396192,14,9,0.0,15,375194312078935,930,13.7,-254.55795288085938,19.749500274658203,0,0.0,0.0,,,,,0,,5,,
Raw,4010090,4030015000000,,,-1278313578426116096,0.0,86.85469219926745,11.246083299910046,16.840473441396192,14,10,0.0,15,375194311862005,31,23.7,307.43603515625,0.6330000162124634,0,0.0,0.0,,,,,0,,5,,
Raw,4010091,4030015000000,,,-1278313578426116096,0.0,86.85469219926745,11.246083299910046,16.840473441396192,14,16,0.0,15,375194315745653,841,16.7,-247.4908905029297,7.099000453948975,0,0.0,0.0,,,,,0,,5,,
Raw,4010091,4030015000000,,,-1278313578426116096,0.0,86.85469219926745,11.246083299910046,16.840473441396192,14,19,0.0,15,375194354053449,14,30.2,-495.3641662597656,0.046800002455711365,0,0.0,0.0,,,,,0,,5,,
Raw,4010092,4030015000000,,,-1278313578426116096,0.0,86.85469219926745,11.246083299910046,16.840473441396192,14,20,0.0,15,375194365528220,203,11.9,-191.73223876953125,5.234000205993652,0,0.0,0.0,,,,,0,,5,,
Raw,4010092,4030015000000,,,-1278313578426116096,0.0,86.85469219926745,11.246083299910046,16.840473441396192,14,27,0.0,15,375194364730959,53,19.9,364.0396728515625,0.7924999594688416,0,0.0,0.0,,,,,0,,5,,
Raw,4010093,4030015000000,,,-1278313578426116096,0.0,86.85469219926745,11.246083299910046,16.840473441396192,14,29,0.0,15,375194358078953,165,13.7,-554.7733154296875,5.133500099182129,0,0.0,0.0,,,,,0,,5,,
Raw,4010093,4030015000000,,,-1278313578426116096,0.0,86.85469219926745,11.246083299910046,16.840473441396192,14,30,0.0,15,375194369072221,181,13.5,-166.05654907226562,5.87000036239624,0,0.0,0.0,,,,,0,,5,,
Raw,4010094,4030015000000,,,-1278313578426116096,0.0,86.85469219926745,11.246083299910046,16.840473441396192,14,4,0.0,7183,375208357480866,46,20.4,-419.90203857421875,0.7519999742507935,0,0.0,0.0,,,,,0,,6,,
Raw,4010094,4030015000000,,,-1278313578426116096,0.0,86.85469219926745,11.246083299910046,16.840473441396192,14,11,0.0,7183,375208351369330,61,18.2,-417.34259033203125,0.875,0,0.0,0.0,,,,,0,,6,,
Raw,4010095,4030015000000,,,-1278313578426116096,0.0,86.85469219926745,11.246083299910046,16.840473441396192,14,24,0.0,7183,375208352376565,10,34.4,293.0046691894531,0.2705000042915344,0,0.0,0.0,,,,,0,,6,,
Raw,4010095,4030015000000,,,-1278313578426116096,0.0,86.85469219926745,11.246083299910046,16.840473441396192,14,31,0.0,7183,375208346857449,46,20.1,328.7608642578125,0.7534999847412109,0,0.0,0.0,,,,,0,,6,,
Fix,gps,22.925286,120.294551,76.402527,0.000000,12.864000,1594282391000
NMEA,$GPGSV,4,1,13,02,54,005,09,06,41,067,13,09,14,040,12,12,21,257,30*79,1594282390457
NMEA,$GPGSV,4,2,13,13,34,182,24,15,10,208,26,17,18,149,15,19,38,149,26*72,1594282390460
NMEA,$GPGSV,4,3,13,25,10,285,19,29,07,323,26,05,55,303,,07,05,085,*7D,1594282390460
NMEA,$GPGSV,4,4,13,30,09,116,*47,1594282390460
NMEA,$GLGSV,2,1,06,70,23,025,13,65,04,217,30,85,53,098,16,72,45,227,18*64,1594282390460
NMEA,$GLGSV,2,2,06,84,04,132,,71,71,345,*69,1594282390461
NMEA,$GAGSV,2,1,05,04,42,208,20,11,07,313,18,24,06,260,34,31,07,213,20*6F,1594282390461
NMEA,$GAGSV,2,2,05,33,52,082,*50,1594282390461
NMEA,$PQGSV,1,1,02,194,11,160,13,195,69,143,15,0,5*61,1594282390462
NMEA,$PQGSV,4,1,16,05,17,258,29,06,49,172,14,07,19,195,21,09,26,191,14,0,4*64,1594282390462
NMEA,$PQGSV,4,2,16,10,26,220,24,16,45,178,17,19,07,230,30,20,54,251,12,0,4*6C,1594282390463
NMEA,$PQGSV,4,3,16,27,45,127,20,29,20,322,14,30,73,341,14,01,50,130,,0,4*64,1594282390463
NMEA,$PQGSV,4,4,16,03,62,203,,04,37,113,,08,50,008,,13,41,331,,0,4*6A,1594282390463
NMEA,$GNGSA,A,3,02,09,12,13,15,19,25,,,,,,1.1,0.7,0.8,1*3F,1594282390464
NMEA,$GNGSA,A,2,72,85,,,,,,,,,,,1.1,0.7,0.8,2*34,1594282390468
NMEA,$GNGSA,A,3,04,11,24,31,,,,,,,,,1.1,0.7,0.8,3*3C,1594282390470
NMEA,$PQGSA,A,3,05,06,07,09,10,16,,,,,,,1.1,0.7,0.8,4*38,1594282390471
NMEA,$GNVTG,,T,,M,0.0,N,0.0,K,A*3D,1594282390471
NMEA,$GNRMC,081311.00,A,2255.517165,N,12017.673077,E,0.0,,090720,2.8,W,A*1D,1594282390471
NMEA,$GNGGA,081311.00,2255.517165,N,12017.673077,E,1,12,0.7,58.9,M,17.5,M,,*4D,1594282390472
Fix,gps,22.925290,120.294560,76.140869,0.190000,12.864000,1594282392000
Raw,4011063,4031015000000,,,-1278313578426116096,0.0,100.9591287584044,1.9666470725936225,22.127124098215308,14,6,0.0,207,40391366790384,997,12.5,708.4265747070312,20.555500030517578,0,0.0,0.0,,,,,0,,3,,
Raw,4011063,4031015000000,,,-1278313578426116096,0.0,100.9591287584044,1.9666470725936225,22.127124098215308,14,1,0.0,207,40391360673697,12,32.4,-698.6902465820312,0.22390000522136688,0,0.0,0.0,,,,,0,,3,,
Raw,4011063,4031015000000,,,-1278313578426116096,0.0,100.9591287584044,1.9666470725936225,22.127124098215308,14,21,0.0,207,40391374016516,153,13.4,167.0933074951172,4.697500228881836,0,0.0,0.0,,,,,0,,3,,
Raw,4011064,4031015000000,,,-1278313578426116096,0.0,100.9591287584044,1.9666470725936225,22.127124098215308,14,8,0.0,207,40391372552330,70,17.5,-414.1865234375,1.2944999933242798,0,0.0,0.0,,,,,0,,3,,
Raw,4011064,4031015000000,,,-1278313578426116096,0.0,100.9591287584044,1.9666470725936225,22.127124098215308,14,2,0.0,15,375209368735421,928,9.1,-211.88250732421875,19.448501586914062,0,0.0,0.0,,,,,0,,1,,
Raw,4011064,4031015000000,,,-1278313578426116096,0.0,100.9591287584044,1.9666470725936225,22.127124098215308,14,6,0.0,15,375209367690151,153,13.3,134.19509887695312,4.607000350952148,0,0.0,0.0,,,,,0,,1,,
Raw,4011064,4031015000000,,,-1278313578426116096,0.0,100.9591287584044,1.9666470725936225,22.127124098215308,14,9,0.0,15,375209360050722,484,11.6,587.2081909179688,12.976500511169434,0,0.0,0.0,,,,,0,,1,,
Raw,4011065,4031015000000,,,-1278313578426116096,0.0,100.9591287584044,1.9666470725936225,22.127124098215308,14,12,0.0,15,375209362549710,14,30.8,295.77410888671875,0.028800001367926598,0,0.0,0.0,,,,,0,,1,,
Raw,4011065,4031015000000,,,-1278313578426116096,0.0,100.9591287584044,1.9666470725936225,22.127124098215308,14,13,0.0,15,375209366701344,35,22.9,-622.5267333984375,0.7354999780654907,0,0.0,0.0,,,,,0,,1,,
Raw,4011065,4031015000000,,,-1278313578426116096,0.0,100.9591287584044,1.9666470725936225,22.127124098215308,14,15,0.0,15,375209359166708,21,26.1,-725.0811157226562,0.1397000104188919,0,0.0,0.0,,,,,0,,1,,
Raw,4011065,4031015000000,,,-1278313578426116096,0.0,100.9591287584044,1.9666470725936225,22.127124098215308,14,17,0.0,15,375209362746687,807,15.4,646.9794921875,18.609500885009766,0,0.0,0.0,,,,,0,,1,,
Raw,4011065,4031015000000,,,-1278313578426116096,0.0,100.9591287584044,1.9666470725936225,22.127124098215308,14,19,0.0,15,375209366895207,21,26.0,592.2124633789062,0.12020000070333481,0,0.0,0.0,,,,,0,,1,,
Raw,4011066,4031015000000,,,-1278313578426116096,0.0,100.9591287584044,1.9666470725936225,22.127124098215308,14,25,0.0,15,375209358859812,61,18.6,93.70059967041016,1.0234999656677246,0,0.0,0.0,,,,,0,,1,,
Raw,4011066,4031015000000,,,-1278313578426116096,0.0,100.9591287584044,1.9666470725936225,22.127124098215308,14,29,0.0,15,375209358211891,53,19.4,-667.740478515625,1.0234999656677246,0,0.0,0.0,,,,,0,,1,,
Raw,4011066,4031015000000,,,-1278313578426116096,0.0,100.9591287584044,1.9666470725936225,22.127124098215308,14,5,0.0,783,375195307962003,17,28.4,-4.176858901977539,0.4150000214576721,0,0.0,0.0,,,,,0,,5,,
Raw,4011066,4031015000000,,,-1278313578426116096,0.0,100.9591287584044,1.9666470725936225,22.127124098215308,14,6,0.0,15,375195317780026,334,13.9,-216.34210205078125,10.417000770568848,0,0.0,0.0,,,,,0,,5,,
Raw,4011067,4031015000000,,,-1278313578426116096,0.0,100.9591287584044,1.9666470725936225,22.127124098215308,14,7,0.0,15,375195310241741,35,22.0,275.20220947265625,0.6814999580383301,0,0.0,0.0,,,,,0,,5,,
Raw,4011067,4031015000000,,,-1278313578426116096,0.0,100.9591287584044,1.9666470725936225,22.127124098215308,14,9,0.0,15,375195312079784,1062,13.7,-254.55795288085938,21.249500274658203,0,0.0,0.0,,,,,0,,5,,
Raw,4011067,4031015000000,,,-1278313578426116096,0.0,100.9591287584044,1.9666470725936225,22.127124098215308,14,10,0.0,15,375195311860995,31,23.5,307.8584899902344,0.6330000162124634,0,0.0,0.0,,,,,0,,5,,
Raw,4011067,4031015000000,,,-1278313578426116096,0.0,100.9591287584044,1.9666470725936225,22.127124098215308,14,16,0.0,15,375195315746487,864,16.6,-247.83657836914062,7.849000453948975,0,0.0,0.0,,,,,0,,5,,
Raw,4011067,4031015000000,,,-1278313578426116096,0.0,100.9591287584044,1.9666470725936225,22.127124098215308,14,19,0.0,15,375195354055095,13,31.7,-494.52642822265625,0.04620000347495079,0,0.0,0.0,,,,,0,,5,,
Raw,4011068,4031015000000,,,-1278313578426116096,0.0,100.9591287584044,1.9666470725936225,22.127124098215308,14,20,0.0,15,375195365528925,80,16.9,-191.06008911132812,1.0040000677108765,0,0.0,0.0,,,,,0,,5,,
Raw,4011068,4031015000000,,,-1278313578426116096,0.0,100.9591287584044,1.9666470725936225,22.127124098215308,14,27,0.0,15,375195364729769,31,23.4,364.07806396484375,0.6225000023841858,0,0.0,0.0,,,,,0,,5,,
Raw,4011068,4031015000000,,,-1278313578426116096,0.0,100.9591287584044,1.9666470725936225,22.127124098215308,14,29,0.0,15,375195358080815,64,18.0,-558.1051635742188,1.69350004196167,0,0.0,0.0,,,,,0,,5,,
Raw,4011068,4031015000000,,,-1278313578426116096,0.0,100.9591287584044,1.9666470725936225,22.127124098215308,14,30,0.0,15,375195369072775,221,13.5,-166.05654907226562,7.37000036239624,0,0.0,0.0,,,,,0,,5,,
Raw,4011069,4031015000000,,,-1278313578426116096,0.0,100.9591287584044,1.9666470725936225,22.127124098215308,14,4,0.0,7183,375209357482359,53,19.4,-418.2559509277344,0.8119999766349792,0,0.0,0.0,,,,,0,,6,,
Raw,4011069,4031015000000,,,-1278313578426116096,0.0,100.9591287584044,1.9666470725936225,22.127124098215308,14,11,0.0,7183,375209351370729,40,21.2,-414.8877868652344,0.6949999928474426,0,0.0,0.0,,,,,0,,6,,
Raw,4011069,4031015000000,,,-1278313578426116096,0.0,100.9591287584044,1.9666470725936225,22.127124098215308,14,24,0.0,7183,375209352375593,10,34.1,293.98468017578125,0.2705000042915344,0,0.0,0.0,,,,,0,,6,,
Raw,4011069,4031015000000,,,-1278313578426116096,0.0,100.9591287584044,1.9666470725936225,22.127124098215308,14,31,0.0,7183,375209346856300,40,21.6,329.3983459472656,0.6934999823570251,0,0.0,0.0,,,,,0,,6,,
NMEA,$GPGSV,4,1,13,02,54,005,09,06,41,067,13,09,14,040,12,12,21,257,31*78,1594282391458
NMEA,$GPGSV,4,2,13,13,34,182,23,15,10,208,26,17,18,149,15,19,38,149,26*75,1594282391459
NMEA,$GPGSV,4,3,13,25,10,285,19,29,07,323,19,05,55,303,,07,05,085,*71,1594282391462
NMEA,$GPGSV,4,4,13,30,09,116,*47,1594282391462
NMEA,$GLGSV,2,1,06,70,23,025,13,65,04,217,32,85,53,098,13,72,45,227,18*63,1594282391462
NMEA,$GLGSV,2,2,06,84,04,132,,71,71,345,*69,1594282391463
NMEA,$GAGSV,2,1,05,04,42,208,19,11,07,313,21,24,06,260,34,31,07,213,22*6D,1594282391463
NMEA,$GAGSV,2,2,05,33,52,082,*50,1594282391463
NMEA,$PQGSV,1,1,02,194,11,160,13,195,69,143,15,0,5*61,1594282391463
NMEA,$PQGSV,4,1,16,05,17,258,28,06,49,172,14,07,19,195,22,09,26,191,14,0,4*66,1594282391463
NMEA,$PQGSV,4,2,16,10,26,220,24,16,45,178,17,19,07,230,32,20,54,251,17,0,4*6B,1594282391464
NMEA,$PQGSV,4,3,16,27,45,127,23,29,20,322,18,30,73,341,14,01,50,130,,0,4*6B,1594282391464
NMEA,$PQGSV,4,4,16,03,62,203,,04,37,113,,08,50,008,,13,41,331,,0,4*6A,1594282391464
NMEA,$GNGSA,A,3,02,09,12,13,15,19,25,,,,,,1.1,0.7,0.8,1*3F,1594282391465
NMEA,$GNGSA,A,2,72,,,,,,,,,,,,1.1,0.7,0.8,2*39,1594282391465
NMEA,$GNGSA,A,3,04,11,24,31,,,,,,,,,1.1,0.7,0.8,3*3C,1594282391465
NMEA,$PQGSA,A,3,05,06,07,10,16,,,,,,,,1.1,0.7,0.8,4*31,1594282391466
NMEA,$GNVTG,113.3,T,113.3,M,0.4,N,0.7,K,A*3E,1594282391466
NMEA,$GNRMC,081312.00,A,2255.517405,N,12017.673581,E,0.4,113.3,090720,2.8,W,A*3B,1594282391466
NMEA,$GNGGA,081312.00,2255.517405,N,12017.673581,E,1,12,0.7,58.7,M,17.5,M,,*4F,1594282391466
Raw,4012058,4032015000000,,,-1278313578426116096,0.0,92.76824857806787,1.109503659841222,15.678410503107193,14,6,0.0,207,40392366788021,1134,12.5,708.4265747070312,22.05550193786621,0,0.0,0.0,,,,,0,,3,,
Raw,4012058,4032015000000,,,-1278313578426116096,0.0,92.76824857806787,1.109503659841222,15.678410503107193,14,1,0.0,207,40392360676059,16,29.8,-700.5831909179688,0.22669999301433563,0,0.0,0.0,,,,,0,,3,,
Raw,4012059,4032015000000,,,-1278313578426116096,0.0,92.76824857806787,1.109503659841222,15.678410503107193,14,21,0.0,207,40392374015958,184,13.4,167.0933074951172,6.197500228881836,0,0.0,0.0,,,,,0,,3,,
Raw,4012059,4032015000000,,,-1278313578426116096,0.0,92.76824857806787,1.109503659841222,15.678410503107193,14,8,0.0,207,40392372553454,61,18.7,-415.02685546875,1.214500069618225,0,0.0,0.0,,,,,0,,3,,
Raw,4012060,4032015000000,,,-1278313578426116096,0.0,92.76824857806787,1.109503659841222,15.678410503107193,14,2,0.0,15,375210368736128,1056,9.1,-211.88250732421875,20.948501586914062,0,0.0,0.0,,,,,0,,1,,
Raw,4012060,4032015000000,,,-1278313578426116096,0.0,92.76824857806787,1.109503659841222,15.678410503107193,14,6,0.0,15,375210367689704,183,13.3,134.19509887695312,6.107000350952148,0,0.0,0.0,,,,,0,,1,,
Raw,4012060,4032015000000,,,-1278313578426116096,0.0,92.76824857806787,1.109503659841222,15.678410503107193,14,9,0.0,15,375210360048763,570,11.6,587.2081909179688,14.476500511169434,0,0.0,0.0,,,,,0,,1,,
Raw,4012061,4032015000000,,,-1278313578426116096,0.0,92.76824857806787,1.109503659841222,15.678410503107193,14,12,0.0,15,375210362548746,14,30.6,293.870849609375,0.028800001367926598,0,0.0,0.0,,,,,0,,1,,
Raw,4012062,4032015000000,,,-1278313578426116096,0.0,92.76824857806787,1.109503659841222,15.678410503107193,14,13,0.0,15,375210366703569,35,22.1,-625.5618896484375,0.7954999804496765,0,0.0,0.0,,,,,0,,1,,
