# 
# Header Description:
# 
# Version: v2.0.0.1 Platform: 8.0.0 Manufacturer: Sony Model: G8142
# 
# Raw,ElapsedRealtimeMillis,TimeNanos,LeapSecond,TimeUncertaintyNanos,FullBiasNanos,BiasNanos,BiasUncertaintyNanos,DriftNanosPerSecond,DriftUncertaintyNanosPerSecond,HardwareClockDiscontinuityCount,Svid,TimeOffsetNanos,State,ReceivedSvTimeNanos,ReceivedSvTimeUncertaintyNanos,Cn0DbHz,PseudorangeRateMetersPerSecond,PseudorangeRateUncertaintyMetersPerSecond,AccumulatedDeltaRangeState,AccumulatedDeltaRangeMeters,AccumulatedDeltaRangeUncertaintyMeters,CarrierFrequencyHz,CarrierCycles,CarrierPhase,CarrierPhaseUncertainty,MultipathIndicator,SnrInDb,ConstellationType,AgcDb,CarrierFrequencyHz
# 
# Fix,Provider,Latitude,Longitude,Altitude,Speed,Accuracy,(UTC)TimeInMs
# 
# Nav,Svid,Type,Status,MessageId,Sub-messageId,Data(Bytes)
# 
NMEA,$GPGSV,4,1,13,02,56,009,12,05,55,309,17,06,40,071,14,09,12,039,16*7A,1594282714456
Fix,gps,22.925234,120.294542,48.305115,0.000000,10.720000,1594282715000
Raw,4334095,4354015000000,,,-1278313578426114048,0.0,71.04442192940041,13.605384356757796,14.346094284416916,14,6,0.0,207,40714366022790,451,12.2,715.1448974609375,12.770500183105469,0,0.0,0.0,,,,,0,,3,,
Raw,4334096,4354015000000,,,-1278313578426114048,0.0,71.04442192940041,13.605384356757796,14.346094284416916,14,1,0.0,207,40714361415536,21,26.1,-679.3388061523438,0.3127000033855438,0,0.0,0.0,,,,,0,,3,,
Raw,4334096,4354015000000,,,-1278313578426114048,0.0,71.04442192940041,13.605384356757796,14.346094284416916,14,21,0.0,207,40714373813090,1149,15.0,209.2613983154297,9.18600082397461,0,0.0,0.0,,,,,0,,3,,
Raw,4334096,4354015000000,,,-1278313578426114048,0.0,71.04442192940041,13.605384356757796,14.346094284416916,14,7,0.0,207,40714375928563,650,12.0,292.0189208984375,16.069000244140625,0,0.0,0.0,,,,,0,,3,,
Raw,4334096,4354015000000,,,-1278313578426114048,0.0,71.04442192940041,13.605384356757796,14.346094284416916,14,8,0.0,207,40714372973538,46,20.1,-369.16278076171875,1.0644999742507935,0,0.0,0.0,,,,,0,,3,,
Raw,4334096,4354015000000,,,-1278313578426114048,0.0,71.04442192940041,13.605384356757796,14.346094284416916,14,2,0.0,15,375532368957849,551,12.3,-203.7379150390625,14.488500595092773,0,0.0,0.0,,,,,0,,1,,
Raw,4334097,4354015000000,,,-1278313578426114048,0.0,71.04442192940041,13.605384356757796,14.346094284416916,14,5,0.0,15,375532371488887,73,17.3,14.291054725646973,1.9329999685287476,0,0.0,0.0,,,,,0,,1,,
Raw,4334097,4354015000000,,,-1278313578426114048,0.0,71.04442192940041,13.605384356757796,14.346094284416916,14,6,0.0,15,375532367537005,3125,13.9,148.28634643554688,37.487003326416016,0,0.0,0.0,,,,,0,,1,,
Raw,4334097,4354015000000,,,-1278313578426114048,0.0,71.04442192940041,13.605384356757796,14.346094284416916,14,9,0.0,15,375532359408534,1136,15.5,605.219482421875,8.725000381469727,0,0.0,0.0,,,,,0,,1,,
Raw,4334097,4354015000000,,,-1278313578426114048,0.0,71.04442192940041,13.605384356757796,14.346094284416916,14,12,0.0,15,375532362218554,16,29.1,317.26861572265625,0.02970000170171261,0,0.0,0.0,,,,,0,,1,,
Raw,4334098,4354015000000,,,-1278313578426114048,0.0,71.04442192940041,13.605384356757796,14.346094284416916,14,13,0.0,15,375532367361478,31,23.1,-603.0311279296875,0.7369999885559082,0,0.0,0.0,,,,,0,,1,,
Raw,4334098,4354015000000,,,-1278313578426114048,0.0,71.04442192940041,13.605384356757796,14.346094284416916,14,15,0.0,15,375532359943689,16,29.9,-718.27880859375,0.025200001895427704,0,0.0,0.0,,,,,0,,1,,
Raw,4334098,4354015000000,,,-1278313578426114048,0.0,71.04442192940041,13.605384356757796,14.346094284416916,14,17,0.0,15,375532362041926,1050,16.0,659.4531860351562,21.50950050354004,0,0.0,0.0,,,,,0,,1,,
Raw,4334098,4354015000000,,,-1278313578426114048,0.0,71.04442192940041,13.605384356757796,14.346094284416916,14,19,0.0,15,375532366243349,27,24.4,616.218505859375,0.684499979019165,0,0.0,0.0,,,,,0,,1,,
Raw,4334099,4354015000000,,,-1278313578426114048,0.0,71.04442192940041,13.605384356757796,14.346094284416916,14,25,0.0,15,375532358741766,16,29.6,123.47389221191406,0.053700003772974014,0,0.0,0.0,,,,,0,,1,,
Raw,4334099,4354015000000,,,-1278313578426114048,0.0,71.04442192940041,13.605384356757796,14.346094284416916,14,29,0.0,15,375532358925274,31,23.3,-657.1602172851562,0.7534999847412109,0,0.0,0.0,,,,,0,,1,,
Raw,4334099,4354015000000,,,-1278313578426114048,0.0,71.04442192940041,13.605384356757796,14.346094284416916,14,30,0.0,15,375532358480405,378,12.1,-281.19696044921875,11.24850082397461,0,0.0,0.0,,,,,0,,1,,
Raw,4334099,4354015000000,,,-1278313578426114048,0.0,71.04442192940041,13.605384356757796,14.346094284416916,14,5,0.0,783,375518307962780,82,23.6,3.3222835063934326,5.115000247955322,0,0.0,0.0,,,,,0,,5,,
Raw,4334099,4354015000000,,,-1278313578426114048,0.0,71.04442192940041,13.605384356757796,14.346094284416916,14,6,0.0,15,375518318009282,226,14.8,-208.83335876464844,7.943500518798828,0,0.0,0.0,,,,,0,,5,,
Raw,4334100,4354015000000,,,-1278313578426114048,0.0,71.04442192940041,13.605384356757796,14.346094284416916,14,7,0.0,15,375518309945002,61,18.3,273.5410461425781,0.9300000071525574,0,0.0,0.0,,,,,0,,5,,
Raw,4334100,4354015000000,,,-1278313578426114048,0.0,71.04442192940041,13.605384356757796,14.346094284416916,14,9,0.0,15,375518312351926,35,22.7,-250.3618927001953,0.684499979019165,0,0.0,0.0,,,,,0,,5,,
Raw,4334100,4354015000000,,,-1278313578426114048,0.0,71.04442192940041,13.605384356757796,14.346094284416916,14,10,0.0,15,375518311527399,93,21.6,309.682861328125,5.243000030517578,0,0.0,0.0,,,,,0,,5,,
Raw,4334100,4354015000000,,,-1278313578426114048,0.0,71.04442192940041,13.605384356757796,14.346094284416916,14,13,0.0,15,375518315864862,262,12.9,-86.23533630371094,8.129000663757324,0,0.0,0.0,,,,,0,,5,,
Raw,4334101,4354015000000,,,-1278313578426114048,0.0,71.04442192940041,13.605384356757796,14.346094284416916,14,16,0.0,15,375518316010600,907,15.2,-241.1151885986328,5.240499973297119,0,0.0,0.0,,,,,0,,5,,
Raw,4334101,4354015000000,,,-1278313578426114048,0.0,71.04442192940041,13.605384356757796,14.346094284416916,14,19,0.0,15,375518354578716,14,30.0,-478.6951904296875,0.046800002455711365,0,0.0,0.0,,,,,0,,5,,
Raw,4334101,4354015000000,,,-1278313578426114048,0.0,71.04442192940041,13.605384356757796,14.346094284416916,14,20,0.0,15,375518365721289,61,18.9,-165.60525512695312,0.8539999723434448,0,0.0,0.0,,,,,0,,5,,
Raw,4334101,4354015000000,,,-1278313578426114048,0.0,71.04442192940041,13.605384356757796,14.346094284416916,14,27,0.0,15,375518364321605,97,17.6,392.509521484375,4.002500057220459,0,0.0,0.0,,,,,0,,5,,
Raw,4334101,4354015000000,,,-1278313578426114048,0.0,71.04442192940041,13.605384356757796,14.346094284416916,14,29,0.0,15,375518358676910,666,13.8,-549.8762817382812,16.28350067138672,0,0.0,0.0,,,,,0,,5,,
Raw,4334102,4354015000000,,,-1278313578426114048,0.0,71.04442192940041,13.605384356757796,14.346094284416916,14,4,0.0,7183,375532357921977,40,21.5,-398.2751159667969,0.6919999718666077,0,0.0,0.0,,,,,0,,6,,
Raw,4334102,4354015000000,,,-1278313578426114048,0.0,71.04442192940041,13.605384356757796,14.346094284416916,14,11,0.0,7183,375532351820373,203,14.9,-419.2930908203125,7.195000171661377,0,0.0,0.0,,,,,0,,6,,
Raw,4334102,4354015000000,,,-1278313578426114048,0.0,71.04442192940041,13.605384356757796,14.346094284416916,14,24,0.0,7183,375532352053866,27,24.3,302.1578063964844,0.5504999756813049,0,0.0,0.0,,,,,0,,6,,
Raw,4334102,4354015000000,,,-1278313578426114048,0.0,71.04442192940041,13.605384356757796,14.346094284416916,14,31,0.0,7183,375532346506454,87,18.6,321.2442626953125,3.873500108718872,0,0.0,0.0,,,,,0,,6,,
NMEA,$GPGSV,4,2,13,12,21,254,29,13,37,182,23,15,13,208,30,17,16,150,16*74,1594282714456
NMEA,$GPGSV,4,3,13,19,35,150,24,25,09,282,30,29,09,322,23,30,10,113,12*77,1594282714456
NMEA,$GPGSV,4,4,13,07,06,082,*40,1594282714460
NMEA,$GLGSV,2,1,06,70,20,025,12,65,06,219,26,85,52,105,15,71,67,350,12*62,1594282714460
NMEA,$GLGSV,2,2,06,72,47,232,20,84,02,135,*6D,1594282714460
NMEA,$GAGSV,2,1,05,04,43,209,22,11,08,314,15,24,04,258,24,31,05,212,19*69,1594282714460
NMEA,$GAGSV,2,2,05,33,51,085,*54,1594282714461
NMEA,$PQGSV,1,1,02,194,11,158,13,195,68,146,15,0,5*6E,1594282714461
NMEA,$PQGSV,4,1,16,05,17,258,24,06,51,174,15,07,18,194,18,09,27,192,23,0,4*6B,1594282714461
NMEA,$PQGSV,4,2,16,10,24,219,22,13,41,331,13,16,47,180,15,19,09,232,30,0,4*6B,1594282714462
NMEA,$PQGSV,4,3,16,20,56,255,19,27,43,130,18,29,22,322,14,01,50,130,,0,4*62,1594282714462
NMEA,$PQGSV,4,4,16,03,62,203,,04,37,113,,08,51,009,,30,76,341,,0,4*68,1594282714462
NMEA,$GNGSA,A,3,02,05,09,12,13,15,19,25,30,,,,0.9,0.6,0.7,1*3E,1594282714463
NMEA,$GNGSA,A,3,65,70,71,72,85,,,,,,,,0.9,0.6,0.7,2*30,1594282714463
NMEA,$GNGSA,A,3,04,11,24,31,,,,,,,,,0.9,0.6,0.7,3*3B,1594282714464
NMEA,$PQGSA,A,3,05,06,07,09,10,13,16,,,,,,0.9,0.6,0.7,4*3D,1594282714464
NMEA,$GNVTG,,T,,M,0.0,N,0.0,K,A*3D,1594282714464
NMEA,$GNRMC,081835.00,A,2255.514066,N,12017.672512,E,0.0,,090720,2.8,W,A*16,1594282714465
NMEA,$GNGGA,081835.00,2255.514066,N,12017.672512,E,1,12,0.6,30.8,M,17.5,M,,*48,1594282714467
Fix,gps,22.925234,120.294542,48.293762,0.000000,10.720000,1594282716000
Raw,4335073,4355015000000,,,-1278313578426114048,0.0,63.02958354353905,9.712335691677739,11.275409204781107,14,6,0.0,207,40715366020404,536,12.2,715.1448974609375,14.270501136779785,0,0.0,0.0,,,,,0,,3,,
Raw,4335073,4355015000000,,,-1278313578426114048,0.0,63.02958354353905,9.712335691677739,11.275409204781107,14,1,0.0,207,40715361417871,21,26.2,-679.8544921875,0.3127000033855438,0,0.0,0.0,,,,,0,,3,,
Raw,4335074,4355015000000,,,-1278313578426114048,0.0,63.02958354353905,9.712335691677739,11.275409204781107,14,21,0.0,207,40715373812419,1178,15.7,209.31744384765625,9.93600082397461,0,0.0,0.0,,,,,0,,3,,
Raw,4335074,4355015000000,,,-1278313578426114048,0.0,63.02958354353905,9.712335691677739,11.275409204781107,14,7,0.0,207,40715375927589,756,12.0,292.0189208984375,17.569000244140625,0,0.0,0.0,,,,,0,,3,,
Raw,4335074,4355015000000,,,-1278313578426114048,0.0,63.02958354353905,9.712335691677739,11.275409204781107,14,8,0.0,207,40715372974874,40,21.4,-370.18988037109375,1.004499912261963,0,0.0,0.0,,,,,0,,3,,
Raw,4335074,4355015000000,,,-1278313578426114048,0.0,63.02958354353905,9.712335691677739,11.275409204781107,14,2,0.0,15,375533368958401,111,15.1,-201.21653747558594,3.618500232696533,0,0.0,0.0,,,,,0,,1,,
Raw,4335075,4355015000000,,,-1278313578426114048,0.0,63.02958354353905,9.712335691677739,11.275409204781107,14,5,0.0,15,375533371488738,61,18.6,12.359574317932129,1.0130000114440918,0,0.0,0.0,,,,,0,,1,,
Raw,4335075,4355015000000,,,-1278313578426114048,0.0,63.02958354353905,9.712335691677739,11.275409204781107,14,9,0.0,15,375533359406522,1164,15.7,605.22900390625,9.475000381469727,0,0.0,0.0,,,,,0,,1,,
Raw,4335075,4355015000000,,,-1278313578426114048,0.0,63.02958354353905,9.712335691677739,11.275409204781107,14,12,0.0,15,375533362217517,16,29.0,316.7885437011719,0.02970000170171261,0,0.0,0.0,,,,,0,,1,,
Raw,4335076,4355015000000,,,-1278313578426114048,0.0,63.02958354353905,9.712335691677739,11.275409204781107,14,13,0.0,15,375533367363427,46,20.4,-604.220458984375,0.9269999861717224,0,0.0,0.0,,,,,0,,1,,
Raw,4335076,4355015000000,,,-1278313578426114048,0.0,63.02958354353905,9.712335691677739,11.275409204781107,14,15,0.0,15,375533359946119,16,29.2,-718.7778930664062,0.025200001895427704,0,0.0,0.0,,,,,0,,1,,
Raw,4335076,4355015000000,,,-1278313578426114048,0.0,63.02958354353905,9.712335691677739,11.275409204781107,14,17,0.0,15,375533362039726,1194,16.0,659.4531860351562,23.00950050354004,0,0.0,0.0,,,,,0,,1,,
Raw,4335076,4355015000000,,,-1278313578426114048,0.0,63.02958354353905,9.712335691677739,11.275409204781107,14,19,0.0,15,375533366241307,31,23.2,616.0186767578125,0.7354999780654907,0,0.0,0.0,,,,,0,,1,,
Raw,4335077,4355015000000,,,-1278313578426114048,0.0,63.02958354353905,9.712335691677739,11.275409204781107,14,25,0.0,15,375533358741382,16,29.8,122.95378875732422,0.053700003772974014,0,0.0,0.0,,,,,0,,1,,
Raw,4335077,4355015000000,,,-1278313578426114048,0.0,63.02958354353905,9.712335691677739,11.275409204781107,14,29,0.0,15,375533358927517,27,24.1,-657.6359252929688,0.6934999823570251,0,0.0,0.0,,,,,0,,1,,
Raw,4335077,4355015000000,,,-1278313578426114048,0.0,63.02958354353905,9.712335691677739,11.275409204781107,14,30,0.0,15,375533358481343,452,12.1,-281.19696044921875,12.74850082397461,0,0.0,0.0,,,,,0,,1,,
Raw,4335077,4355015000000,,,-1278313578426114048,0.0,63.02958354353905,9.712335691677739,11.275409204781107,14,5,0.0,783,375519307962761,34,24.3,5.876408576965332,2.075000047683716,0,0.0,0.0,,,,,0,,5,,
Raw,4335078,4355015000000,,,-1278313578426114048,0.0,63.02958354353905,9.712335691677739,11.275409204781107,14,6,0.0,15,375519318009979,280,14.8,-208.83335876464844,9.443500518798828,0,0.0,0.0,,,,,0,,5,,
Raw,4335078,4355015000000,,,-1278313578426114048,0.0,63.02958354353905,9.712335691677739,11.275409204781107,14,7,0.0,15,375519309944090,61,18.1,273.70428466796875,0.9300000071525574,0,0.0,0.0,,,,,0,,5,,
Raw,4335078,4355015000000,,,-1278313578426114048,0.0,63.02958354353905,9.712335691677739,11.275409204781107,14,9,0.0,15,375519312352784,35,22.1,-250.7459716796875,0.684499979019165,0,0.0,0.0,,,,,0,,5,,
Raw,4335078,4355015000000,,,-1278313578426114048,0.0,63.02958354353905,9.712335691677739,11.275409204781107,14,10,0.0,15,375519311526137,158,12.3,313.466064453125,3.743000030517578,0,0.0,0.0,,,,,0,,5,,
Raw,4335079,4355015000000,,,-1278313578426114048,0.0,63.02958354353905,9.712335691677739,11.275409204781107,14,13,0.0,15,375519315865150,317,12.9,-86.23533630371094,9.629000663757324,0,0.0,0.0,,,,,0,,5,,
Raw,4335079,4355015000000,,,-1278313578426114048,0.0,63.02958354353905,9.712335691677739,11.275409204781107,14,16,0.0,15,375519316011408,924,15.2,-240.9615478515625,5.990499973297119,0,0.0,0.0,,,,,0,,5,,
Raw,4335079,4355015000000,,,-1278313578426114048,0.0,63.02958354353905,9.712335691677739,11.275409204781107,14,19,0.0,15,375519354580310,14,30.4,-479.2342224121094,0.046800002455711365,0,0.0,0.0,,,,,0,,5,,
Raw,4335079,4355015000000,,,-1278313578426114048,0.0,63.02958354353905,9.712335691677739,11.275409204781107,14,20,0.0,15,375519365721824,53,19.7,-165.64366149902344,0.8539999723434448,0,0.0,0.0,,,,,0,,5,,
Raw,4335080,4355015000000,,,-1278313578426114048,0.0,63.02958354353905,9.712335691677739,11.275409204781107,14,27,0.0,15,375519364320296,125,17.6,392.509521484375,5.502500057220459,0,0.0,0.0,,,,,0,,5,,
Raw,4335080,4355015000000,,,-1278313578426114048,0.0,63.02958354353905,9.712335691677739,11.275409204781107,14,29,0.0,15,375519358678745,776,13.8,-549.8762817382812,17.78350067138672,0,0.0,0.0,,,,,0,,5,,
Raw,4335080,4355015000000,,,-1278313578426114048,0.0,63.02958354353905,9.712335691677739,11.275409204781107,14,4,0.0,7183,375533357923266,35,22.9,-398.1229248046875,0.6420000195503235,0,0.0,0.0,,,,,0,,6,,
Raw,4335080,4355015000000,,,-1278313578426114048,0.0,63.02958354353905,9.712335691677739,11.275409204781107,14,11,0.0,7183,375533351821732,124,14.4,-420.3016052246094,3.445000171661377,0,0.0,0.0,,,,,0,,6,,
Raw,4335081,4355015000000,,,-1278313578426114048,0.0,63.02958354353905,9.712335691677739,11.275409204781107,14,24,0.0,7183,375533352052869,27,24.7,301.7106018066406,0.5504999756813049,0,0.0,0.0,,,,,0,,6,,
Raw,4335081,4355015000000,,,-1278313578426114048,0.0,63.02958354353905,9.712335691677739,11.275409204781107,14,31,0.0,7183,375533346505382,115,18.6,321.2442626953125,5.373500347137451,0,0.0,0.0,,,,,0,,6,,
NMEA,$GPGSV,4,1,13,02,56,009,15,05,55,309,19,09,12,039,16,12,21,254,29*7A,1594282715456
NMEA,$GPGSV,4,2,13,13,37,182,20,15,13,208,29,17,16,150,16,19,35,150,23*7C,1594282715456
NMEA,$GPGSV,4,3,13,25,09,282,30,29,09,322,24,30,10,113,12,06,40,071,*78,1594282715456
NMEA,$GPGSV,4,4,13,07,06,082,*40,1594282715457
NMEA,$GLGSV,2,1,06,70,20,025,12,65,06,219,26,85,52,105,16,71,67,350,12*61,1594282715458
NMEA,$GLGSV,2,2,06,72,47,232,21,84,02,135,*6C,1594282715458
NMEA,$GAGSV,2,1,05,04,43,209,23,11,08,314,14,24,04,258,25,31,05,212,19*68,1594282715458
NMEA,$GAGSV,2,2,05,33,51,085,*54,1594282715459
NMEA,$PQGSV,1,1,02,194,11,158,13,195,68,146,15,0,5*6E,1594282715459
NMEA,$PQGSV,4,1,16,05,17,258,24,06,51,174,15,07,18,194,18,09,27,192,22,0,4*6A,1594282715459
NMEA,$PQGSV,4,2,16,10,24,219,12,13,41,331,13,16,47,180,15,19,09,232,30,0,4*68,1594282715459
NMEA,$PQGSV,4,3,16,20,56,255,20,27,43,130,18,29,22,322,14,01,50,130,,0,4*68,1594282715460
NMEA,$PQGSV,4,4,16,03,62,203,,04,37,113,,08,51,009,,30,76,341,,0,4*68,1594282715460
NMEA,$GNGSA,A,3,02,05,09,12,13,15,19,25,30,,,,0.9,0.6,0.7,1*3E,1594282715462
NMEA,$GNGSA,A,3,65,70,72,85,,,,,,,,,0.9,0.6,0.7,2*36,1594282715463
NMEA,$GNGSA,A,3,04,11,24,31,,,,,,,,,0.9,0.6,0.7,3*3B,1594282715463
NMEA,$PQGSA,A,3,05,06,07,09,10,13,16,,,,,,0.9,0.6,0.7,4*3D,1594282715464
NMEA,$GNVTG,,T,,M,0.0,N,0.0,K,A*3D,1594282715465
NMEA,$GNRMC,081836.00,A,2255.514065,N,12017.672501,E,0.0,,090720,2.8,W,A*14,1594282715465
NMEA,$GNGGA,081836.00,2255.514065,N,12017.672501,E,1,12,0.6,30.8,M,17.5,M,,*4A,1594282715466
Fix,gps,22.925234,120.294541,48.382080,0.000000,10.720000,1594282717000
NMEA,$GPGSV,4,1,13,02,56,009,15,05,55,309,18,09,12,039,16,12,21,254,28*7A,1594282716456
NMEA,$GPGSV,4,2,13,13,37,182,22,15,13,208,30,17,16,150,16,19,35,150,25*70,1594282716457
Raw,4336067,4356015000000,,,-1278313578426114048,0.0,61.97947368491441,7.640488943753393,11.257728567029421,14,6,0.0,207,40716366018019,630,12.2,715.1448974609375,15.770501136779785,0,0.0,0.0,,,,,0,,3,,
Raw,4336067,4356015000000,,,-1278313578426114048,0.0,61.97947368491441,7.640488943753393,11.257728567029421,14,1,0.0,207,40716361420059,19,27.2,-680.7684936523438,0.2428000122308731,0,0.0,0.0,,,,,0,,3,,
Raw,4336067,4356015000000,,,-1278313578426114048,0.0,61.97947368491441,7.640488943753393,11.257728567029421,14,21,0.0,207,40716373811784,46,20.8,208.242919921875,1.0989999771118164,0,0.0,0.0,,,,,0,,3,,
Raw,4336067,4356015000000,,,-1278313578426114048,0.0,61.97947368491441,7.640488943753393,11.257728567029421,14,7,0.0,207,40716375926614,872,12.0,292.0189208984375,19.069000244140625,0,0.0,0.0,,,,,0,,3,,
Raw,4336067,4356015000000,,,-1278313578426114048,0.0,61.97947368491441,7.640488943753393,11.257728567029421,14,8,0.0,207,40716372975899,40,21.0,-372.3094177246094,1.004499912261963,0,0.0,0.0,,,,,0,,3,,
Raw,4336068,4356015000000,,,-1278313578426114048,0.0,61.97947368491441,7.640488943753393,11.257728567029421,14,2,0.0,15,375534368959072,135,15.1,-201.21653747558594,5.118500232696533,0,0.0,0.0,,,,,0,,1,,
Raw,4336068,4356015000000,,,-1278313578426114048,0.0,61.97947368491441,7.640488943753393,11.257728567029421,14,5,0.0,15,375534371488815,70,17.6,12.321515083312988,1.0929999351501465,0,0.0,0.0,,,,,0,,1,,
Raw,4336068,4356015000000,,,-1278313578426114048,0.0,61.97947368491441,7.640488943753393,11.257728567029421,14,9,0.0,15,375534359404502,313,15.9,605.2005004882812,10.600000381469727,0,0.0,0.0,,,,,0,,1,,
Raw,4336068,4356015000000,,,-1278313578426114048,0.0,61.97947368491441,7.640488943753393,11.257728567029421,14,12,0.0,15,375534362216480,17,28.3,315.7742004394531,0.03629999980330467,0,0.0,0.0,,,,,0,,1,,
Raw,4336069,4356015000000,,,-1278313578426114048,0.0,61.97947368491441,7.640488943753393,11.257728567029421,14,13,0.0,15,375534367365503,35,22.3,-605.0482177734375,0.796999990940094,0,0.0,0.0,,,,,0,,1,,
Raw,4336069,4356015000000,,,-1278313578426114048,0.0,61.97947368491441,7.640488943753393,11.257728567029421,14,15,0.0,15,375534359948497,16,29.6,-719.8492431640625,0.025200001895427704,0,0.0,0.0,,,,,0,,1,,
Raw,4336069,4356015000000,,,-1278313578426114048,0.0,61.97947368491441,7.640488943753393,11.257728567029421,14,17,0.0,15,375534362037526,1349,16.0,659.4531860351562,24.50950050354004,0,0.0,0.0,,,,,0,,1,,
Raw,4336069,4356015000000,,,-1278313578426114048,0.0,61.97947368491441,7.640488943753393,11.257728567029421,14,19,0.0,15,375534366239228,27,24.8,614.81982421875,0.6255000233650208,0,0.0,0.0,,,,,0,,1,,
Raw,4336070,4356015000000,,,-1278313578426114048,0.0,61.97947368491441,7.640488943753393,11.257728567029421,14,25,0.0,15,375534358740958,14,30.0,121.99137878417969,0.052800003439188004,0,0.0,0.0,,,,,0,,1,,
Raw,4336070,4356015000000,,,-1278313578426114048,0.0,61.97947368491441,7.640488943753393,11.257728567029421,14,29,0.0,15,375534358929703,27,24.9,-658.5302734375,0.643500030040741,0,0.0,0.0,,,,,0,,1,,
Raw,4336070,4356015000000,,,-1278313578426114048,0.0,61.97947368491441,7.640488943753393,11.257728567029421,14,30,0.0,15,375534358482281,536,12.1,-281.19696044921875,14.24850082397461,0,0.0,0.0,,,,,0,,1,,
Raw,4336070,4356015000000,,,-1278313578426114048,0.0,61.97947368491441,7.640488943753393,11.257728567029421,14,5,0.0,783,375520307962741,51,24.3,5.876408576965332,3.575000047683716,0,0.0,0.0,,,,,0,,5,,
Raw,4336070,4356015000000,,,-1278313578426114048,0.0,61.97947368491441,7.640488943753393,11.257728567029421,14,6,0.0,15,375520318010653,151,13.4,-207.94036865234375,4.383500099182129,0,0.0,0.0,,,,,0,,5,,
Raw,4336071,4356015000000,,,-1278313578426114048,0.0,61.97947368491441,7.640488943753393,11.257728567029421,14,7,0.0,15,375520309943177,69,18.1,273.70428466796875,2.430000066757202,0,0.0,0.0,,,,,0,,5,,
Raw,4336071,4356015000000,,,-1278313578426114048,0.0,61.97947368491441,7.640488943753393,11.257728567029421,14,9,0.0,15,375520312353586,31,23.6,-251.927001953125,0.6345000267028809,0,0.0,0.0,,,,,0,,5,,
Raw,4336071,4356015000000,,,-1278313578426114048,0.0,61.97947368491441,7.640488943753393,11.257728567029421,14,10,0.0,15,375520311525092,183,12.3,313.466064453125,5.243000030517578,0,0.0,0.0,,,,,0,,5,,
Raw,4336071,4356015000000,,,-1278313578426114048,0.0,61.97947368491441,7.640488943753393,11.257728567029421,14,13,0.0,15,375520315865438,381,12.9,-86.23533630371094,11.129000663757324,0,0.0,0.0,,,,,0,,5,,
Raw,4336072,4356015000000,,,-1278313578426114048,0.0,61.97947368491441,7.640488943753393,11.257728567029421,14,16,0.0,15,375520316012219,943,15.0,-241.1920166015625,6.740500450134277,0,0.0,0.0,,,,,0,,5,,
Raw,4336072,4356015000000,,,-1278313578426114048,0.0,61.97947368491441,7.640488943753393,11.257728567029421,14,19,0.0,15,375520354581889,14,30.4,-480.2444763183594,0.046800002455711365,0,0.0,0.0,,,,,0,,5,,
Raw,4336072,4356015000000,,,-1278313578426114048,0.0,61.97947368491441,7.640488943753393,11.257728567029421,14,20,0.0,15,375520365722412,46,20.1,-167.59286499023438,0.793999969959259,0,0.0,0.0,,,,,0,,5,,
Raw,4336072,4356015000000,,,-1278313578426114048,0.0,61.97947368491441,7.640488943753393,11.257728567029421,14,27,0.0,15,375520364318972,158,12.4,390.91558837890625,3.7325000762939453,0,0.0,0.0,,,,,0,,5,,
Raw,4336073,4356015000000,,,-1278313578426114048,0.0,61.97947368491441,7.640488943753393,11.257728567029421,14,29,0.0,15,375520358680579,895,13.8,-549.8762817382812,19.28350067138672,0,0.0,0.0,,,,,0,,5,,
Raw,4336073,4356015000000,,,-1278313578426114048,0.0,61.97947368491441,7.640488943753393,11.257728567029421,14,4,0.0,7183,375534357924564,27,24.1,-399.7499084472656,0.5519999861717224,0,0.0,0.0,,,,,0,,6,,
Raw,4336073,4356015000000,,,-1278313578426114048,0.0,61.97947368491441,7.640488943753393,11.257728567029421,14,11,0.0,7183,375534351823134,148,14.4,-420.3016052246094,4.945000171661377,0,0.0,0.0,,,,,0,,6,,
Raw,4336073,4356015000000,,,-1278313578426114048,0.0,61.97947368491441,7.640488943753393,11.257728567029421,14,24,0.0,7183,375534352051847,27,24.6,300.3975830078125,0.5504999756813049,0,0.0,0.0,,,,,0,,6,,
Raw,4336073,4356015000000,,,-1278313578426114048,0.0,61.97947368491441,7.640488943753393,11.257728567029421,14,31,0.0,7183,375534346504311,153,18.6,321.2442626953125,6.873500347137451,0,0.0,0.0,,,,,0,,6,,
NMEA,$GPGSV,4,3,13,25,09,282,30,29,09,322,25,30,10,113,12,06,40,071,*79,1594282716457
NMEA,$GPGSV,4,4,13,07,06,082,*40,1594282716457
NMEA,$GLGSV,2,1,06,70,20,025,12,65,06,219,27,85,52,105,21,71,67,350,12*64,1594282716457
NMEA,$GLGSV,2,2,06,72,47,232,21,84,02,135,*6C,1594282716457
NMEA,$GAGSV,2,1,05,04,43,209,24,11,08,314,14,24,04,258,25,31,05,212,19*6F,1594282716457
NMEA,$GAGSV,2,2,05,33,51,085,*54,1594282716457
NMEA,$PQGSV,1,1,02,194,11,158,13,195,68,146,15,0,5*6E,1594282716458
NMEA,$PQGSV,4,1,16,05,17,258,24,06,51,174,13,07,18,194,18,09,27,192,24,0,4*6A,1594282716458
NMEA,$PQGSV,4,2,16,10,24,219,12,13,41,331,13,16,47,180,15,19,09,232,30,0,4*68,1594282716458
NMEA,$PQGSV,4,3,16,20,56,255,20,27,43,130,12,29,22,322,14,01,50,130,,0,4*62,1594282716458
NMEA,$PQGSV,4,4,16,03,62,203,,04,37,113,,08,51,009,,30,76,341,,0,4*68,1594282716459
NMEA,$GNGSA,A,3,02,05,09,12,13,15,19,25,30,,,,0.9,0.6,0.7,1*3E,1594282716460
NMEA,$GNGSA,A,3,65,70,72,85,,,,,,,,,0.9,0.6,0.7,2*36,1594282716460
NMEA,$GNGSA,A,3,04,11,24,31,,,,,,,,,0.9,0.6,0.7,3*3B,1594282716460
NMEA,$PQGSA,A,3,05,06,07,09,10,13,16,,,,,,0.9,0.6,0.7,4*3D,1594282716460
NMEA,$GNVTG,,T,,M,0.0,N,0.0,K,A*3D,1594282716460
NMEA,$GNRMC,081837.00,A,2255.514042,N,12017.672462,E,0.0,,090720,2.8,W,A*14,1594282716461
NMEA,$GNGGA,081837.00,2255.514042,N,12017.672462,E,1,12,0.6,30.9,M,17.5,M,,*4B,1594282716461
Raw,4337187,4357015000000,,,-1278313578426114048,0.0,60.5882378295064,3.9750263989664725,12.038837065960141,14,6,0.0,207,40717366015633,734,12.2,715.1448974609375,17.27050018310547,0,0.0,0.0,,,,,0,,3,,
Raw,4337187,4357015000000,,,-1278313578426114048,0.0,60.5882378295064,3.9750263989664725,12.038837065960141,14,1,0.0,207,40717361422305,19,27.0,-680.1398315429688,0.2428000122308731,0,0.0,0.0,,,,,0,,3,,
Raw,4337187,4357015000000,,,-1278313578426114048,0.0,60.5882378295064,3.9750263989664725,12.038837065960141,14,21,0.0,207,40717373810967,46,20.2,209.8500518798828,1.065999984741211,0,0.0,0.0,,,,,0,,3,,
Raw,4337187,4357015000000,,,-1278313578426114048,0.0,60.5882378295064,3.9750263989664725,12.038837065960141,14,7,0.0,207,40717375925640,999,12.0,292.0189208984375,20.569000244140625,0,0.0,0.0,,,,,0,,3,,
Raw,4337188,4357015000000,,,-1278313578426114048,0.0,60.5882378295064,3.9750263989664725,12.038837065960141,14,8,0.0,207,40717372977083,35,22.3,-370.619384765625,0.9444999694824219,0,0.0,0.0,,,,,0,,3,,
Raw,4337188,4357015000000,,,-1278313578426114048,0.0,60.5882378295064,3.9750263989664725,12.038837065960141,14,2,0.0,15,375535368959763,84,16.0,-204.3468475341797,2.0185000896453857,0,0.0,0.0,,,,,0,,1,,
Raw,4337188,4357015000000,,,-1278313578426114048,0.0,60.5882378295064,3.9750263989664725,12.038837065960141,14,5,0.0,15,375535371488738,93,15.9,11.73160457611084,1.2730000019073486,0,0.0,0.0,,,,,0,,1,,
Raw,4337188,4357015000000,,,-1278313578426114048,0.0,60.5882378295064,3.9750263989664725,12.038837065960141,14,9,0.0,15,375535359402595,63,18.4,604.7723388671875,1.6150000095367432,0,0.0,0.0,,,,,0,,1,,
Raw,4337188,4357015000000,,,-1278313578426114048,0.0,60.5882378295064,3.9750263989664725,12.038837065960141,14,12,0.0,15,375535362215421,17,28.8,316.4761657714844,0.03629999980330467,0,0.0,0.0,,,,,0,,1,,
Raw,4337189,4357015000000,,,-1278313578426114048,0.0,60.5882378295064,3.9750263989664725,12.038837065960141,14,13,0.0,15,375535367367538,46,20.7,-604.8008422851562,0.8569999933242798,0,0.0,0.0,,,,,0,,1,,
Raw,4337189,4357015000000,,,-1278313578426114048,0.0,60.5882378295064,3.9750263989664725,12.038837065960141,14,15,0.0,15,375535359950906,16,29.6,-719.1574096679688,0.025200001895427704,0,0.0,0.0,,,,,0,,1,,
Raw,4337189,4357015000000,,,-1278313578426114048,0.0,60.5882378295064,3.9750263989664725,12.038837065960141,14,17,0.0,15,375535362035420,125,14.2,660.300048828125,3.7295000553131104,0,0.0,0.0,,,,,0,,1,,
Raw,4337189,4357015000000,,,-1278313578426114048,0.0,60.5882378295064,3.9750263989664725,12.038837065960141,14,19,0.0,15,375535366237191,24,25.5,615.4619140625,0.39079999923706055,0,0.0,0.0,,,,,0,,1,,
Raw,4337190,4357015000000,,,-1278313578426114048,0.0,60.5882378295064,3.9750263989664725,12.038837065960141,14,25,0.0,15,375535358740565,16,29.9,122.6964111328125,0.053700003772974014,0,0.0,0.0,,,,,0,,1,,
Raw,4337190,4357015000000,,,-1278313578426114048,0.0,60.5882378295064,3.9750263989664725,12.038837065960141,14,29,0.0,15,375535358931899,24,25.9,-658.0703125,0.40880000591278076,0,0.0,0.0,,,,,0,,1,,
Raw,4337190,4357015000000,,,-1278313578426114048,0.0,60.5882378295064,3.9750263989664725,12.038837065960141,14,30,0.0,15,375535358483219,631,12.1,-281.19696044921875,15.74850082397461,0,0.0,0.0,,,,,0,,1,,
Raw,4337190,4357015000000,,,-1278313578426114048,0.0,60.5882378295064,3.9750263989664725,12.038837065960141,14,5,0.0,783,375521307962722,78,24.3,5.876408576965332,5.075000286102295,0,0.0,0.0,,,,,0,,5,,
Raw,4337190,4357015000000,,,-1278313578426114048,0.0,60.5882378295064,3.9750263989664725,12.038837065960141,14,6,0.0,15,375521318011347,181,13.4,-207.94036865234375,5.883500099182129,0,0.0,0.0,,,,,0,,5,,
Raw,4337191,4357015000000,,,-1278313578426114048,0.0,60.5882378295064,3.9750263989664725,12.038837065960141,14,7,0.0,15,375521309942390,84,16.6,272.811279296875,1.840000033378601,0,0.0,0.0,,,,,0,,5,,
Raw,4337191,4357015000000,,,-1278313578426114048,0.0,60.5882378295064,3.9750263989664725,12.038837065960141,14,9,0.0,15,375521312354444,31,23.8,-250.8419952392578,0.5945000052452087,0,0.0,0.0,,,,,0,,5,,
Raw,4337191,4357015000000,,,-1278313578426114048,0.0,60.5882378295064,3.9750263989664725,12.038837065960141,14,10,0.0,15,375521311524046,218,12.3,313.466064453125,6.743000507354736,0,0.0,0.0,,,,,0,,5,,
Raw,4337191,4357015000000,,,-1278313578426114048,0.0,60.5882378295064,3.9750263989664725,12.038837065960141,14,13,0.0,15,375521315865725,456,12.9,-86.23533630371094,12.629000663757324,0,0.0,0.0,,,,,0,,5,,
Raw,4337192,4357015000000,,,-1278313578426114048,0.0,60.5882378295064,3.9750263989664725,12.038837065960141,14,16,0.0,15,375521316013027,965,15.0,-240.95196533203125,7.490500450134277,0,0.0,0.0,,,,,0,,5,,
Raw,4337192,4357015000000,,,-1278313578426114048,0.0,60.5882378295064,3.9750263989664725,12.038837065960141,14,19,0.0,15,375521354583496,13,31.1,-479.55462646484375,0.04620000347495079,0,0.0,0.0,,,,,0,,5,,
Raw,4337192,4357015000000,,,-1278313578426114048,0.0,60.5882378295064,3.9750263989664725,12.038837065960141,14,20,0.0,15,375521365722885,46,20.1,-166.48863220214844,0.793999969959259,0,0.0,0.0,,,,,0,,5,,
Raw,4337192,4357015000000,,,-1278313578426114048,0.0,60.5882378295064,3.9750263989664725,12.038837065960141,14,27,0.0,15,375521364317668,183,12.4,390.91558837890625,5.232500076293945,0,0.0,0.0,,,,,0,,5,,
Raw,4337192,4357015000000,,,-1278313578426114048,0.0,60.5882378295064,3.9750263989664725,12.038837065960141,14,29,0.0,15,375521358682413,1025,13.8,-549.8762817382812,20.78350067138672,0,0.0,0.0,,,,,0,,5,,
Raw,4337193,4357015000000,,,-1278313578426114048,0.0,60.5882378295064,3.9750263989664725,12.038837065960141,14,4,0.0,7183,375535357925922,31,23.6,-399.36932373046875,0.6019999980926514,0,0.0,0.0,,,,,0,,6,,
Raw,4337193,4357015000000,,,-1278313578426114048,0.0,60.5882378295064,3.9750263989664725,12.038837065960141,14,11,0.0,7183,375535351824634,84,16.7,-420.3302001953125,1.7750000953674316,0,0.0,0.0,,,,,0,,6,,
Raw,4337193,4357015000000,,,-1278313578426114048,0.0,60.5882378295064,3.9750263989664725,12.038837065960141,14,24,0.0,7183,375535352050868,24,25.3,300.60321044921875,0.4058000147342682,0,0.0,0.0,,,,,0,,6,,
Raw,4337193,4357015000000,,,-1278313578426114048,0.0,60.5882378295064,3.9750263989664725,12.038837065960141,14,31,0.0,7183,375535346503314,151,13.4,318.1519775390625,4.2835001945495605,0,0.0,0.0,,,,,0,,6,,
Fix,gps,22.925232,120.294538,48.775391,0.000000,10.720000,1594282718000
NMEA,$GPGSV,4,1,13,02,56,009,16,05,55,309,16,09,12,039,18,12,21,254,29*78,1594282717470
NMEA,$GPGSV,4,2,13,13,37,182,21,15,13,208,30,17,16,150,14,19,35,150,26*72,1594282717471
NMEA,$GPGSV,4,3,13,25,09,282,30,29,09,322,26,30,10,113,12,06,40,071,*7A,1594282717472
NMEA,$GPGSV,4,4,13,07,06,082,*40,1594282717472
NMEA,$GLGSV,2,1,06,70,20,025,12,65,06,219,27,85,52,105,20,71,67,350,12*65,1594282717473
NMEA,$GLGSV,2,2,06,72,47,232,22,84,02,135,*6F,1594282717474
NMEA,$GAGSV,2,1,05,04,43,209,24,11,08,314,17,24,04,258,25,31,05,212,13*66,1594282717475
NMEA,$GAGSV,2,2,05,33,51,085,*54,1594282717475
NMEA,$PQGSV,1,1,02,194,11,158,13,195,68,146,12,0,5*69,1594282717476
NMEA,$PQGSV,4,1,16,05,17,258,24,06,51,174,13,07,18,194,17,09,27,192,24,0,4*65,1594282717477
NMEA,$PQGSV,4,2,16,10,24,219,12,13,41,331,13,16,47,180,15,19,09,232,31,0,4*69,1594282717477
NMEA,$PQGSV,4,3,16,20,56,255,20,27,43,130,12,29,22,322,14,01,50,130,,0,4*62,1594282717478
NMEA,$PQGSV,4,4,16,03,62,203,,04,37,113,,08,51,009,,30,76,341,,0,4*68,1594282717478
NMEA,$GNGSA,A,3,02,05,09,12,13,15,19,25,30,,,,0.8,0.5,0.7,1*3C,1594282717483
NMEA,$GNGSA,A,3,65,70,72,85,,,,,,,,,0.8,0.5,0.7,2*34,1594282717484
NMEA,$GNGSA,A,3,04,11,24,31,,,,,,,,,0.8,0.5,0.7,3*39,1594282717484
NMEA,$PQGSA,A,3,05,06,07,09,10,13,16,,,,,,0.8,0.5,0.7,4*3F,1594282717485
NMEA,$GNVTG,,T,,M,0.0,N,0.0,K,A*3D,1594282717486
NMEA,$GNRMC,081838.00,A,2255.513925,N,12017.672304,E,0.0,,090720,2.8,W,A*13,1594282717486
NMEA,$GNGGA,081838.00,2255.513925,N,12017.672304,E,1,12,0.5,31.3,M,17.5,M,,*44,1594282717491
Fix,gps,22.925229,120.294534,49.290527,0.000000,10.720000,1594282719000
Raw,4338123,4358015000000,,,-1278313578426114048,0.0,62.337661802303046,6.18612407476088,11.79173281630299,14,6,0.0,207,40718366013248,848,12.2,715.1448974609375,18.77050018310547,0,0.0,0.0,,,,,0,,3,,
Raw,4338124,4358015000000,,,-1278313578426114048,0.0,62.337661802303046,6.18612407476088,11.79173281630299,14,1,0.0,207,40718361424642,24,25.9,-679.7796630859375,0.583299994468689,0,0.0,0.0,,,,,0,,3,,
Raw,4338124,4358015000000,,,-1278313578426114048,0.0,62.337661802303046,6.18612407476088,11.79173281630299,14,21,0.0,207,40718373810285,70,17.5,210.3452606201172,1.2960000038146973,0,0.0,0.0,,,,,0,,3,,
Raw,4338125,4358015000000,,,-1278313578426114048,0.0,62.337661802303046,6.18612407476088,11.79173281630299,14,7,0.0,207,40718375924666,1135,12.0,292.0189208984375,22.069000244140625,0,0.0,0.0,,,,,0,,3,,
Raw,4338125,4358015000000,,,-1278313578426114048,0.0,62.337661802303046,6.18612407476088,11.79173281630299,14,8,0.0,207,40718372978400,35,22.9,-369.9377746582031,0.9444999694824219,0,0.0,0.0,,,,,0,,3,,
Raw,4338126,4358015000000,,,-1278313578426114048,0.0,62.337661802303046,6.18612407476088,11.79173281630299,14,2,0.0,15,375536368960445,98,16.0,-204.3468475341797,3.5185000896453857,0,0.0,0.0,,,,,0,,1,,
Raw,4338126,4358015000000,,,-1278313578426114048,0.0,62.337661802303046,6.18612407476088,11.79173281630299,14,5,0.0,15,375536371488727,70,17.8,12.730647087097168,1.0929999351501465,0,0.0,0.0,,,,,0,,1,,
Raw,4338127,4358015000000,,,-1278313578426114048,0.0,62.337661802303046,6.18612407476088,11.79173281630299,14,9,0.0,15,375536359400632,61,18.2,604.3346557617188,1.1049998998641968,0,0.0,0.0,,,,,0,,1,,
Raw,4338127,4358015000000,,,-1278313578426114048,0.0,62.337661802303046,6.18612407476088,11.79173281630299,14,12,0.0,15,375536362214345,17,28.5,316.8644714355469,0.03629999980330467,0,0.0,0.0,,,,,0,,1,,
Raw,4338128,4358015000000,,,-1278313578426114048,0.0,62.337661802303046,6.18612407476088,11.79173281630299,14,13,0.0,15,375536367369544,46,20.8,-603.7542114257812,0.8569999933242798,0,0.0,0.0,,,,,0,,1,,
Raw,4338128,4358015000000,,,-1278313578426114048,0.0,62.337661802303046,6.18612407476088,11.79173281630299,14,15,0.0,15,375536359953278,16,29.6,-718.8234252929688,0.025200001895427704,0,0.0,0.0,,,,,0,,1,,
Raw,4338129,4358015000000,,,-1278313578426114048,0.0,62.337661802303046,6.18612407476088,11.79173281630299,14,17,0.0,15,375536362033218,150,14.2,660.300048828125,5.2295002937316895,0,0.0,0.0,,,,,0,,1,,
Raw,4338129,4358015000000,,,-1278313578426114048,0.0,62.337661802303046,6.18612407476088,11.79173281630299,14,19,0.0,15,375536366235137,27,24.9,615.9235229492188,0.6255000233650208,0,0.0,0.0,,,,,0,,1,,
Raw,4338130,4358015000000,,,-1278313578426114048,0.0,62.337661802303046,6.18612407476088,11.79173281630299,14,25,0.0,15,375536358740162,16,29.8,123.11034393310547,0.053700003772974014,0,0.0,0.0,,,,,0,,1,,
Raw,4338130,4358015000000,,,-1278313578426114048,0.0,62.337661802303046,6.18612407476088,11.79173281630299,14,29,0.0,15,375536358934133,24,25.1,-657.7340698242188,0.40880000591278076,0,0.0,0.0,,,,,0,,1,,
Raw,4338131,4358015000000,,,-1278313578426114048,0.0,62.337661802303046,6.18612407476088,11.79173281630299,14,30,0.0,15,375536358484157,735,12.1,-281.19696044921875,17.24850082397461,0,0.0,0.0,,,,,0,,1,,
Raw,4338131,4358015000000,,,-1278313578426114048,0.0,62.337661802303046,6.18612407476088,11.79173281630299,14,5,0.0,783,375522307962791,34,24.7,1.4787040948867798,2.075000047683716,0,0.0,0.0,,,,,0,,5,,
Raw,4338132,4358015000000,,,-1278313578426114048,0.0,62.337661802303046,6.18612407476088,11.79173281630299,14,6,0.0,15,375522318012040,221,13.4,-207.94036865234375,7.383500099182129,0,0.0,0.0,,,,,0,,5,,
Raw,4338132,4358015000000,,,-1278313578426114048,0.0,62.337661802303046,6.18612407476088,11.79173281630299,14,7,0.0,15,375522309941413,70,17.3,273.2049865722656,1.0099999904632568,0,0.0,0.0,,,,,0,,5,,
Raw,4338132,4358015000000,,,-1278313578426114048,0.0,62.337661802303046,6.18612407476088,11.79173281630299,14,9,0.0,15,375522312355280,35,22.9,-251.02442932128906,0.6345000267028809,0,0.0,0.0,,,,,0,,5,,
Raw,4338133,4358015000000,,,-1278313578426114048,0.0,62.337661802303046,6.18612407476088,11.79173281630299,14,10,0.0,15,375522311523268,101,15.9,308.8379211425781,2.5929999351501465,0,0.0,0.0,,,,,0,,5,,
Raw,4338133,4358015000000,,,-1278313578426114048,0.0,62.337661802303046,6.18612407476088,11.79173281630299,14,13,0.0,15,375522315866013,541,12.9,-86.23533630371094,14.129000663757324,0,0.0,0.0,,,,,0,,5,,
Raw,4338134,4358015000000,,,-1278313578426114048,0.0,62.337661802303046,6.18612407476088,11.79173281630299,14,16,0.0,15,375522316013846,989,15.0,-241.07676696777344,8.240500450134277,0,0.0,0.0,,,,,0,,5,,
Raw,4338134,4358015000000,,,-1278313578426114048,0.0,62.337661802303046,6.18612407476088,11.79173281630299,14,19,0.0,15,375522354585093,14,30.7,-479.2077331542969,0.046800002455711365,0,0.0,0.0,,,,,0,,5,,
Raw,4338135,4358015000000,,,-1278313578426114048,0.0,62.337661802303046,6.18612407476088,11.79173281630299,14,20,0.0,15,375522365723544,61,18.2,-166.4310302734375,0.9239999651908875,0,0.0,0.0,,,,,0,,5,,
Raw,4338135,4358015000000,,,-1278313578426114048,0.0,62.337661802303046,6.18612407476088,11.79173281630299,14,27,0.0,15,375522364316364,218,12.4,390.91558837890625,6.732500076293945,0,0.0,0.0,,,,,0,,5,,
Raw,4338136,4358015000000,,,-1278313578426114048,0.0,62.337661802303046,6.18612407476088,11.79173281630299,14,29,0.0,15,375522358684247,1164,13.8,-549.8762817382812,22.28350067138672,0,0.0,0.0,,,,,0,,5,,
Raw,4338136,4358015000000,,,-1278313578426114048,0.0,62.337661802303046,6.18612407476088,11.79173281630299,14,4,0.0,7183,375536357927238,31,23.5,-398.2751159667969,0.6019999980926514,0,0.0,0.0,,,,,0,,6,,
Raw,4338137,4358015000000,,,-1278313578426114048,0.0,62.337661802303046,6.18612407476088,11.79173281630299,14,11,0.0,7183,375536351826036,97,16.7,-420.3302001953125,3.2750000953674316,0,0.0,0.0,,,,,0,,6,,
Raw,4338137,4358015000000,,,-1278313578426114048,0.0,62.337661802303046,6.18612407476088,11.79173281630299,14,24,0.0,7183,375536352049855,27,24.5,301.85333251953125,0.5504999756813049,0,0.0,0.0,,,,,0,,6,,
Raw,4338138,4358015000000,,,-1278313578426114048,0.0,62.337661802303046,6.18612407476088,11.79173281630299,14,31,0.0,7183,375536346502190,70,17.7,319.0463562011719,0.9434999823570251,0,0.0,0.0,,,,,0,,6,,
NMEA,$GPGSV,4,1,13,02,56,009,16,05,55,309,18,09,12,039,18,12,21,254,29*76,1594282718482
NMEA,$GPGSV,4,2,13,13,37,182,21,15,13,208,30,17,16,150,14,19,35,150,25*71,1594282718483
NMEA,$GPGSV,4,3,13,25,09,282,30,29,09,322,25,30,10,113,12,06,40,071,*79,1594282718483
NMEA,$GPGSV,4,4,13,07,06,082,*40,1594282718486
NMEA,$GLGSV,2,1,06,70,20,025,12,65,06,219,26,85,52,105,18,71,67,350,12*6F,1594282718487
NMEA,$GLGSV,2,2,06,72,47,232,23,84,02,135,*6E,1594282718488
NMEA,$GAGSV,2,1,05,04,43,209,24,11,08,314,17,24,04,258,25,31,05,212,18*6D,1594282718489
NMEA,$GAGSV,2,2,05,33,51,085,*54,1594282718490
NMEA,$PQGSV,1,1,02,194,11,158,13,195,68,146,12,0,5*69,1594282718490
NMEA,$PQGSV,4,1,16,05,17,258,25,06,51,174,13,07,18,194,17,09,27,192,23,0,4*63,1594282718491
NMEA,$PQGSV,4,2,16,10,24,219,16,13,41,331,13,16,47,180,15,19,09,232,31,0,4*6D,1594282718491
NMEA,$PQGSV,4,3,16,20,56,255,18,27,43,130,12,29,22,322,14,01,50,130,,0,4*69,1594282718492
NMEA,$PQGSV,4,4,16,03,62,203,,04,37,113,,08,51,009,,30,76,341,,0,4*68,1594282718495
NMEA,$GNGSA,A,3,02,05,09,12,13,15,17,19,25,30,,,0.9,0.6,0.7,1*38,1594282718500
NMEA,$GNGSA,A,3,65,70,72,85,,,,,,,,,0.9,0.6,0.7,2*36,1594282718501
NMEA,$GNGSA,A,3,04,11,24,31,,,,,,,,,0.9,0.6,0.7,3*3B,1594282718501
NMEA,$PQGSA,A,3,05,06,07,09,10,13,16,,,,,,0.9,0.6,0.7,4*3D,1594282718501
NMEA,$GNVTG,,T,,M,0.0,N,0.0,K,A*3D,1594282718501
NMEA,$GNRMC,081839.00,A,2255.513731,N,12017.672047,E,0.0,,090720,2.8,W,A*1D,1594282718502
NMEA,$GNGGA,081839.00,2255.513731,N,12017.672047,E,1,12,0.6,31.8,M,17.5,M,,*42,1594282718502
Fix,gps,22.925225,120.294529,49.805237,0.000000,10.720000,1594282720000
Raw,4339086,4359015000000,,,-1278313578426114048,0.0,62.00894131325185,7.248097600315094,11.89660861435212,14,6,0.0,207,40719366010862,973,12.2,715.1448974609375,20.27050018310547,0,0.0,0.0,,,,,0,,3,,
Raw,4339086,4359015000000,,,-1278313578426114048,0.0,62.00894131325185,7.248097600315094,11.89660861435212,14,1,0.0,207,40719361426914,24,25.4,-679.2744750976562,0.583299994468689,0,0.0,0.0,,,,,0,,3,,
Raw,4339087,4359015000000,,,-1278313578426114048,0.0,62.00894131325185,7.248097600315094,11.89660861435212,14,21,0.0,207,40719373809660,70,17.9,210.27984619140625,1.2960000038146973,0,0.0,0.0,,,,,0,,3,,
Raw,4339087,4359015000000,,,-1278313578426114048,0.0,62.00894131325185,7.248097600315094,11.89660861435212,14,7,0.0,207,40719375923692,1281,12.0,292.0189208984375,23.569000244140625,0,0.0,0.0,,,,,0,,3,,
Raw,4339088,4359015000000,,,-1278313578426114048,0.0,62.00894131325185,7.248097600315094,11.89660861435212,14,8,0.0,207,40719372979618,35,22.3,-371.23565673828125,0.9444999694824219,0,0.0,0.0,,,,,0,,3,,
Raw,4339088,4359015000000,,,-1278313578426114048,0.0,62.00894131325185,7.248097600315094,11.89660861435212,14,2,0.0,15,375537368961127,123,16.0,-204.3468475341797,5.018500328063965,0,0.0,0.0,,,,,0,,1,,
Raw,4339089,4359015000000,,,-1278313578426114048,0.0,62.00894131325185,7.248097600315094,11.89660861435212,14,5,0.0,15,375537371488707,70,17.7,11.855295181274414,1.0929999351501465,0,0.0,0.0,,,,,0,,1,,
Raw,4339089,4359015000000,,,-1278313578426114048,0.0,62.00894131325185,7.248097600315094,11.89660861435212,14,9,0.0,15,375537359398465,46,20.6,604.1728515625,0.875,0,0.0,0.0,,,,,0,,1,,
Raw,4339090,4359015000000,,,-1278313578426114048,0.0,62.00894131325185,7.248097600315094,11.89660861435212,14,12,0.0,15,375537362213298,19,27.8,316.3970947265625,0.04430000111460686,0,0.0,0.0,,,,,0,,1,,
Raw,4339090,4359015000000,,,-1278313578426114048,0.0,62.00894131325185,7.248097600315094,11.89660861435212,14,13,0.0,15,375537367371501,35,22.6,-604.3536987304688,0.7369999885559082,0,0.0,0.0,,,,,0,,1,,
Raw,4339091,4359015000000,,,-1278313578426114048,0.0,62.00894131325185,7.248097600315094,11.89660861435212,14,15,0.0,15,375537359955682,16,29.3,-719.3358154296875,0.025200001895427704,0,0.0,0.0,,,,,0,,1,,
Raw,4339091,4359015000000,,,-1278313578426114048,0.0,62.00894131325185,7.248097600315094,11.89660861435212,14,17,0.0,15,375537362030744,84,16.5,661.3847045898438,1.9194999933242798,0,0.0,0.0,,,,,0,,1,,
Raw,4339092,4359015000000,,,-1278313578426114048,0.0,62.00894131325185,7.248097600315094,11.89660861435212,14,19,0.0,15,375537366233100,24,25.5,615.4031372070312,0.39079999923706055,0,0.0,0.0,,,,,0,,1,,
Raw,4339092,4359015000000,,,-1278313578426114048,0.0,62.00894131325185,7.248097600315094,11.89660861435212,14,25,0.0,15,375537358739731,16,29.8,122.6353759765625,0.053700003772974014,0,0.0,0.0,,,,,0,,1,,
Raw,4339093,4359015000000,,,-1278313578426114048,0.0,62.00894131325185,7.248097600315094,11.89660861435212,14,29,0.0,15,375537358936320,24,25.1,-657.0590209960938,0.40880000591278076,0,0.0,0.0,,,,,0,,1,,
Raw,4339093,4359015000000,,,-1278313578426114048,0.0,62.00894131325185,7.248097600315094,11.89660861435212,14,30,0.0,15,375537358485084,164,13.3,-281.8154296875,5.2235002517700195,0,0.0,0.0,,,,,0,,1,,
Raw,4339094,4359015000000,,,-1278313578426114048,0.0,62.00894131325185,7.248097600315094,11.89660861435212,14,5,0.0,783,375523307962786,51,24.7,1.4787040948867798,3.575000047683716,0,0.0,0.0,,,,,0,,5,,
Raw,4339094,4359015000000,,,-1278313578426114048,0.0,62.00894131325185,7.248097600315094,11.89660861435212,14,6,0.0,15,375523318012734,271,13.4,-207.94036865234375,8.883500099182129,0,0.0,0.0,,,,,0,,5,,
Raw,4339095,4359015000000,,,-1278313578426114048,0.0,62.00894131325185,7.248097600315094,11.89660861435212,14,7,0.0,15,375523309940502,78,17.3,273.2049865722656,2.509999990463257,0,0.0,0.0,,,,,0,,5,,
Raw,4339095,4359015000000,,,-1278313578426114048,0.0,62.00894131325185,7.248097600315094,11.89660861435212,14,9,0.0,15,375523312356112,31,23.4,-251.7061767578125,0.6345000267028809,0,0.0,0.0,,,,,0,,5,,
Raw,4339096,4359015000000,,,-1278313578426114048,0.0,62.00894131325185,7.248097600315094,11.89660861435212,14,10,0.0,15,375523311522134,80,16.6,308.0217590332031,1.0929999351501465,0,0.0,0.0,,,,,0,,5,,
Raw,4339096,4359015000000,,,-1278313578426114048,0.0,62.00894131325185,7.248097600315094,11.89660861435212,14,13,0.0,15,375523315866301,636,12.9,-86.23533630371094,15.629000663757324,0,0.0,0.0,,,,,0,,5,,
Raw,4339097,4359015000000,,,-1278313578426114048,0.0,62.00894131325185,7.248097600315094,11.89660861435212,14,16,0.0,15,375523316014654,1016,14.8,-240.9615478515625,8.990500450134277,0,0.0,0.0,,,,,0,,5,,
Raw,4339097,4359015000000,,,-1278313578426114048,0.0,62.00894131325185,7.248097600315094,11.89660861435212,14,19,0.0,15,375523354586703,14,30.4,-479.73016357421875,0.046800002455711365,0,0.0,0.0,,,,,0,,5,,
Raw,4339098,4359015000000,,,-1278313578426114048,0.0,62.00894131325185,7.248097600315094,11.89660861435212,14,20,0.0,15,375523365723974,61,18.3,-165.80690002441406,0.9239999651908875,0,0.0,0.0,,,,,0,,5,,
Raw,4339098,4359015000000,,,-1278313578426114048,0.0,62.00894131325185,7.248097600315094,11.89660861435212,14,27,0.0,15,375523364315060,263,12.4,390.91558837890625,8.232500076293945,0,0.0,0.0,,,,,0,,5,,
Raw,4339099,4359015000000,,,-1278313578426114048,0.0,62.00894131325185,7.248097600315094,11.89660861435212,14,29,0.0,15,375523358686081,1314,13.8,-549.8762817382812,23.78350067138672,0,0.0,0.0,,,,,0,,5,,
Raw,4339099,4359015000000,,,-1278313578426114048,0.0,62.00894131325185,7.248097600315094,11.89660861435212,14,4,0.0,7183,375537357928580,35,22.3,-398.6842956542969,0.6420000195503235,0,0.0,0.0,,,,,0,,6,,
Raw,4339100,4359015000000,,,-1278313578426114048,0.0,62.00894131325185,7.248097600315094,11.89660861435212,14,11,0.0,7183,375537351827438,121,16.7,-420.3302001953125,4.775000095367432,0,0.0,0.0,,,,,0,,6,,
Raw,4339100,4359015000000,,,-1278313578426114048,0.0,62.00894131325185,7.248097600315094,11.89660861435212,14,24,0.0,7183,375537352048852,31,23.5,301.70111083984375,0.6004999876022339,0,0.0,0.0,,,,,0,,6,,
Raw,4339100,4359015000000,,,-1278313578426114048,0.0,62.00894131325185,7.248097600315094,11.89660861435212,14,31,0.0,7183,375537346501196,61,18.4,317.1529541015625,0.8734999895095825,0,0.0,0.0,,,,,0,,6,,
NMEA,$GPGSV,4,1,13,02,56,009,16,05,55,309,18,09,12,039,21,12,21,254,28*7D,1594282719456
NMEA,$GPGSV,4,2,13,13,37,182,23,15,13,208,29,17,16,150,17,19,35,150,26*7B,1594282719456
NMEA,$GPGSV,4,3,13,25,09,282,30,29,09,322,25,30,10,113,13,06,40,071,*78,1594282719456
NMEA,$GPGSV,4,4,13,07,06,082,*40,1594282719457
NMEA,$GLGSV,2,1,06,70,20,025,12,65,06,219,25,85,52,105,18,71,67,350,12*6C,1594282719457
NMEA,$GLGSV,2,2,06,72,47,232,22,84,02,135,*6F,1594282719457
NMEA,$GAGSV,2,1,05,04,43,209,22,11,08,314,17,24,04,258,24,31,05,212,18*6A,1594282719458
NMEA,$GAGSV,2,2,05,33,51,085,*54,1594282719458
NMEA,$PQGSV,1,1,02,194,11,158,13,195,68,146,12,0,5*69,1594282719459
NMEA,$PQGSV,4,1,16,05,17,258,25,06,51,174,13,07,18,194,17,09,27,192,23,0,4*63,1594282719459
NMEA,$PQGSV,4,2,16,10,24,219,17,13,41,331,13,16,47,180,15,19,09,232,30,0,4*6D,1594282719459
NMEA,$PQGSV,4,3,16,20,56,255,18,27,43,130,12,29,22,322,14,01,50,130,,0,4*69,1594282719459
NMEA,$PQGSV,4,4,16,03,62,203,,04,37,113,,08,51,009,,30,76,341,,0,4*68,1594282719459
NMEA,$GNGSA,A,3,02,05,09,12,13,15,17,19,25,30,,,0.9,0.6,0.7,1*38,1594282719460
NMEA,$GNGSA,A,3,65,70,72,85,,,,,,,,,0.9,0.6,0.7,2*36,1594282719460
NMEA,$GNGSA,A,3,04,11,24,31,,,,,,,,,0.9,0.6,0.7,3*3B,1594282719460
NMEA,$PQGSA,A,3,05,06,07,09,10,16,,,,,,,0.9,0.6,0.7,4*3F,1594282719460
NMEA,$GNVTG,,T,,M,0.0,N,0.0,K,A*3D,1594282719461
NMEA,$GNRMC,081840.00,A,2255.513513,N,12017.671742,E,0.0,,090720,2.8,W,A*10,1594282719461
NMEA,$GNGGA,081840.00,2255.513513,N,12017.671742,E,1,12,0.6,32.3,M,17.5,M,,*47,1594282719462
Fix,gps,22.925222,120.294525,50.134583,0.000000,10.720000,1594282721000
NMEA,$GPGSV,4,1,13,02,56,009,16,05,55,309,18,09,12,039,19,12,21,254,28*76,1594282720454
NMEA,$GPGSV,4,2,13,13,37,182,23,15,13,208,29,17,16,150,17,19,35,150,25*78,1594282720454
NMEA,$GPGSV,4,3,13,25,09,282,30,29,09,322,25,30,10,113,13,06,40,071,*78,1594282720454
Raw,4340072,4360015000000,,,-1278313578426114048,0.0,62.33780732145533,5.391625467075879,9.741565367816886,14,6,0.0,207,40720366008477,1107,12.2,715.1448974609375,21.77050018310547,0,0.0,0.0,,,,,0,,3,,
Raw,4340072,4360015000000,,,-1278313578426114048,0.0,62.33780732145533,5.391625467075879,9.741565367816886,14,1,0.0,207,40720361429160,24,25.8,-682.6583251953125,0.777999997138977,0,0.0,0.0,,,,,0,,3,,
Raw,4340073,4360015000000,,,-1278313578426114048,0.0,62.33780732145533,5.391625467075879,9.741565367816886,14,21,0.0,207,40720373809066,61,18.0,206.61712646484375,1.2160000801086426,0,0.0,0.0,,,,,0,,3,,
Raw,4340074,4360015000000,,,-1278313578426114048,0.0,62.33780732145533,5.391625467075879,9.741565367816886,14,7,0.0,207,40720375922718,1437,12.0,292.0189208984375,25.069000244140625,0,0.0,0.0,,,,,0,,3,,
Raw,4340074,4360015000000,,,-1278313578426114048,0.0,62.33780732145533,5.391625467075879,9.741565367816886,14,8,0.0,207,40720372980868,35,22.1,-372.9163513183594,0.9444999694824219,0,0.0,0.0,,,,,0,,3,,
Raw,4340075,4360015000000,,,-1278313578426114048,0.0,62.33780732145533,5.391625467075879,9.741565367816886,14,2,0.0,15,375538368961808,157,16.0,-204.3468475341797,6.518500328063965,0,0.0,0.0,,,,,0,,1,,
Raw,4340075,4360015000000,,,-1278313578426114048,0.0,62.33780732145533,5.391625467075879,9.741565367816886,14,5,0.0,15,375538371488667,79,17.7,11.855295181274414,2.5929999351501465,0,0.0,0.0,,,,,0,,1,,
Raw,4340076,4360015000000,,,-1278313578426114048,0.0,62.33780732145533,5.391625467075879,9.741565367816886,14,9,0.0,15,375538359396508,61,18.5,601.19482421875,1.024999976158142,0,0.0,0.0,,,,,0,,1,,
Raw,4340076,4360015000000,,,-1278313578426114048,0.0,62.33780732145533,5.391625467075879,9.741565367816886,14,12,0.0,15,375538362212251,19,27.6,313.98797607421875,0.04430000111460686,0,0.0,0.0,,,,,0,,1,,
Raw,4340077,4360015000000,,,-1278313578426114048,0.0,62.33780732145533,5.391625467075879,9.741565367816886,14,13,0.0,15,375538367373547,31,23.0,-606.5230102539062,0.7369999885559082,0,0.0,0.0,,,,,0,,1,,
Raw,4340077,4360015000000,,,-1278313578426114048,0.0,62.33780732145533,5.391625467075879,9.741565367816886,14,15,0.0,15,375538359958088,16,29.2,-721.8074340820312,0.025200001895427704,0,0.0,0.0,,,,,0,,1,,
Raw,4340078,4360015000000,,,-1278313578426114048,0.0,62.33780732145533,5.391625467075879,9.741565367816886,14,17,0.0,15,375538362028538,98,16.5,661.3847045898438,3.4195001125335693,0,0.0,0.0,,,,,0,,1,,
Raw,4340078,4360015000000,,,-1278313578426114048,0.0,62.33780732145533,5.391625467075879,9.741565367816886,14,19,0.0,15,375538366230978,24,25.0,612.8707275390625,0.39079999923706055,0,0.0,0.0,,,,,0,,1,,
Raw,4340079,4360015000000,,,-1278313578426114048,0.0,62.33780732145533,5.391625467075879,9.741565367816886,14,25,0.0,15,375538358739323,16,29.6,120.3010025024414,0.053700003772974014,0,0.0,0.0,,,,,0,,1,,
Raw,4340079,4360015000000,,,-1278313578426114048,0.0,62.33780732145533,5.391625467075879,9.741565367816886,14,29,0.0,15,375538358938529,24,25.2,-660.4332275390625,0.643500030040741,0,0.0,0.0,,,,,0,,1,,
Raw,4340080,4360015000000,,,-1278313578426114048,0.0,62.33780732145533,5.391625467075879,9.741565367816886,14,30,0.0,15,375538358486024,199,13.3,-281.8154296875,6.7235002517700195,0,0.0,0.0,,,,,0,,1,,
Raw,4340080,4360015000000,,,-1278313578426114048,0.0,62.33780732145533,5.391625467075879,9.741565367816886,14,5,0.0,783,375524307962781,78,24.7,1.4787040948867798,5.075000286102295,0,0.0,0.0,,,,,0,,5,,
Raw,4340081,4360015000000,,,-1278313578426114048,0.0,62.33780732145533,5.391625467075879,9.741565367816886,14,6,0.0,15,375524318013428,330,13.4,-207.94036865234375,10.383500099182129,0,0.0,0.0,,,,,0,,5,,
Raw,4340081,4360015000000,,,-1278313578426114048,0.0,62.33780732145533,5.391625467075879,9.741565367816886,14,7,0.0,15,375524309939552,83,16.9,271.380615234375,1.7600001096725464,0,0.0,0.0,,,,,0,,5,,
Raw,4340082,4360015000000,,,-1278313578426114048,0.0,62.33780732145533,5.391625467075879,9.741565367816886,14,9,0.0,15,375524312356972,31,23.2,-254.28909301757812,0.6345000267028809,0,0.0,0.0,,,,,0,,5,,
Raw,4340082,4360015000000,,,-1278313578426114048,0.0,62.33780732145533,5.391625467075879,9.741565367816886,14,10,0.0,15,375524311521222,80,16.3,306.6390686035156,1.0929999351501465,0,0.0,0.0,,,,,0,,5,,
Raw,4340083,4360015000000,,,-1278313578426114048,0.0,62.33780732145533,5.391625467075879,9.741565367816886,14,13,0.0,15,375524315866588,741,12.9,-86.23533630371094,17.12900161743164,0,0.0,0.0,,,,,0,,5,,
Raw,4340083,4360015000000,,,-1278313578426114048,0.0,62.33780732145533,5.391625467075879,9.741565367816886,14,16,0.0,15,375524316015458,1178,14.3,-241.17279052734375,9.830500602722168,0,0.0,0.0,,,,,0,,5,,
Raw,4340083,4360015000000,,,-1278313578426114048,0.0,62.33780732145533,5.391625467075879,9.741565367816886,14,19,0.0,15,375524354588294,14,30.8,-482.0789489746094,0.046800002455711365,0,0.0,0.0,,,,,0,,5,,
Raw,4340084,4360015000000,,,-1278313578426114048,0.0,62.33780732145533,5.391625467075879,9.741565367816886,14,20,0.0,15,375524365724637,80,16.6,-167.41043090820312,1.0839999914169312,0,0.0,0.0,,,,,0,,5,,
Raw,4340084,4360015000000,,,-1278313578426114048,0.0,62.33780732145533,5.391625467075879,9.741565367816886,14,27,0.0,15,375524364313756,318,12.4,390.91558837890625,9.732500076293945,0,0.0,0.0,,,,,0,,5,,
Raw,4340085,4360015000000,,,-1278313578426114048,0.0,62.33780732145533,5.391625467075879,9.741565367816886,14,29,0.0,15,375524358687838,365,10.6,-549.63623046875,10.003499984741211,0,0.0,0.0,,,,,0,,5,,
Raw,4340086,4360015000000,,,-1278313578426114048,0.0,62.33780732145533,5.391625467075879,9.741565367816886,14,4,0.0,7183,375538357929911,31,23.1,-400.57769775390625,0.6019999980926514,0,0.0,0.0,,,,,0,,6,,
Raw,4340086,4360015000000,,,-1278313578426114048,0.0,62.33780732145533,5.391625467075879,9.741565367816886,14,11,0.0,7183,375538351828840,154,16.7,-420.3302001953125,6.275000095367432,0,0.0,0.0,,,,,0,,6,,
Raw,4340087,4360015000000,,,-1278313578426114048,0.0,62.33780732145533,5.391625467075879,9.741565367816886,14,24,0.0,7183,375538352047846,31,23.2,298.2187194824219,0.6004999876022339,0,0.0,0.0,,,,,0,,6,,
Raw,4340087,4360015000000,,,-1278313578426114048,0.0,62.33780732145533,5.391625467075879,9.741565367816886,14,31,0.0,7183,375538346500139,69,18.4,317.1529541015625,2.373500108718872,0,0.0,0.0,,,,,0,,6,,
NMEA,$GPGSV,4,4,13,07,06,082,*40,1594282720455
NMEA,$GLGSV,2,1,06,70,20,025,12,65,06,219,26,85,52,105,18,71,67,350,12*6F,1594282720455
NMEA,$GLGSV,2,2,06,72,47,232,22,84,02,135,*6F,1594282720456
NMEA,$GAGSV,2,1,05,04,43,209,23,11,08,314,17,24,04,258,23,31,05,212,18*6C,1594282720456
NMEA,$GAGSV,2,2,05,33,51,085,*54,1594282720457
NMEA,$PQGSV,1,1,02,194,11,158,13,195,68,146,12,0,5*69,1594282720457
NMEA,$PQGSV,4,1,16,05,17,258,25,06,51,174,13,07,18,194,17,09,27,192,23,0,4*63,1594282720457
NMEA,$PQGSV,4,2,16,10,24,219,16,13,41,331,13,16,47,180,14,19,09,232,31,0,4*6C,1594282720457
NMEA,$PQGSV,4,3,16,20,56,255,17,27,43,130,12,29,22,322,11,01,50,130,,0,4*63,1594282720458
NMEA,$PQGSV,4,4,16,03,62,203,,04,37,113,,08,51,009,,30,76,341,,0,4*68,1594282720459
NMEA,$GNGSA,A,3,02,05,09,12,13,15,17,19,25,30,,,0.9,0.6,0.7,1*38,1594282720460
NMEA,$GNGSA,A,2,65,72,85,,,,,,,,,,0.9,0.6,0.7,2*30,1594282720460
NMEA,$GNGSA,A,3,04,11,24,31,,,,,,,,,0.9,0.6,0.7,3*3B,1594282720460
NMEA,$PQGSA,A,3,05,06,07,09,10,16,,,,,,,0.9,0.6,0.7,4*3F,1594282720460
NMEA,$GNVTG,,T,,M,0.0,N,0.0,K,A*3D,1594282720461
NMEA,$GNRMC,081841.00,A,2255.513318,N,12017.671476,E,0.0,,090720,2.8,W,A*18,1594282720461
NMEA,$GNGGA,081841.00,2255.513318,N,12017.671476,E,1,12,0.6,32.7,M,17.5,M,,*4B,1594282720461
Raw,4341137,4361015000000,,,-1278313578426114048,0.0,67.64767022104934,-2.8487575666547755,13.700730329232147,14,6,0.0,207,40721366006091,1251,12.2,715.1448974609375,23.27050018310547,0,0.0,0.0,,,,,0,,3,,
Raw,4341138,4361015000000,,,-1278313578426114048,0.0,67.64767022104934,-2.8487575666547755,13.700730329232147,14,1,0.0,207,40721361431480,17,28.7,-681.7035522460938,0.23480001091957092,0,0.0,0.0,,,,,0,,3,,
Raw,4341139,4361015000000,,,-1278313578426114048,0.0,67.64767022104934,-2.8487575666547755,13.700730329232147,14,21,0.0,207,40721373808326,46,20.6,207.84115600585938,1.065999984741211,0,0.0,0.0,,,,,0,,3,,
Raw,4341139,4361015000000,,,-1278313578426114048,0.0,67.64767022104934,-2.8487575666547755,13.700730329232147,14,7,0.0,207,40721375921744,1604,12.0,292.0189208984375,26.569002151489258,0,0.0,0.0,,,,,0,,3,,
Raw,4341140,4361015000000,,,-1278313578426114048,0.0,67.64767022104934,-2.8487575666547755,13.700730329232147,14,8,0.0,207,40721372982156,35,22.7,-372.99102783203125,0.9444999694824219,0,0.0,0.0,,,,,0,,3,,
Raw,4341141,4361015000000,,,-1278313578426114048,0.0,67.64767022104934,-2.8487575666547755,13.700730329232147,14,2,0.0,15,375539368962490,201,16.0,-204.3468475341797,8.018500328063965,0,0.0,0.0,,,,,0,,1,,
Raw,4341142,4361015000000,,,-1278313578426114048,0.0,67.64767022104934,-2.8487575666547755,13.700730329232147,14,5,0.0,15,375539371488538,110,14.9,9.771580696105957,2.123000144958496,0,0.0,0.0,,,,,0,,1,,
Raw,4341143,4361015000000,,,-1278313578426114048,0.0,67.64767022104934,-2.8487575666547755,13.700730329232147,14,9,0.0,15,375539359394634,46,20.2,600.3194580078125,0.9449999928474426,0,0.0,0.0,,,,,0,,1,,
Raw,4341143,4361015000000,,,-1278313578426114048,0.0,67.64767022104934,-2.8487575666547755,13.700730329232147,14,12,0.0,15,375539362211178,17,28.4,315.0367431640625,0.03629999980330467,0,0.0,0.0,,,,,0,,1,,
Raw,4341144,4361015000000,,,-1278313578426114048,0.0,67.64767022104934,-2.8487575666547755,13.700730329232147,14,13,0.0,15,375539367375554,35,22.9,-607.0939331054688,0.7369999885559082,0,0.0,0.0,,,,,0,,1,,
Raw,4341145,4361015000000,,,-1278313578426114048,0.0,67.64767022104934,-2.8487575666547755,13.700730329232147,14,15,0.0,15,375539359960525,16,29.8,-720.7957153320312,0.025200001895427704,0,0.0,0.0,,,,,0,,1,,
Raw,4341146,4361015000000,,,-1278313578426114048,0.0,67.64767022104934,-2.8487575666547755,13.700730329232147,14,17,0.0,15,375539362026513,84,16.9,657.92138671875,1.9194999933242798,0,0.0,0.0,,,,,0,,1,,
Raw,4341147,4361015000000,,,-1278313578426114048,0.0,67.64767022104934,-2.8487575666547755,13.700730329232147,14,19,0.0,15,375539366229016,35,22.8,612.6885375976562,0.7354999780654907,0,0.0,0.0,,,,,0,,1,,
Raw,4341147,4361015000000,,,-1278313578426114048,0.0,67.64767022104934,-2.8487575666547755,13.700730329232147,14,25,0.0,15,375539358738906,16,29.4,121.1940689086914,0.053700003772974014,0,0.0,0.0,,,,,0,,1,,
Raw,4341148,4361015000000,,,-1278313578426114048,0.0,67.64767022104934,-2.8487575666547755,13.700730329232147,14,29,0.0,15,375539358940680,21,26.2,-659.7762451171875,0.13819999992847443,0,0.0,0.0,,,,,0,,1,,
Raw,4341149,4361015000000,,,-1278313578426114048,0.0,67.64767022104934,-2.8487575666547755,13.700730329232147,14,30,0.0,15,375539358487104,73,17.0,-284.6888427734375,1.94350004196167,0,0.0,0.0,,,,,0,,1,,
Raw,4341150,4361015000000,,,-1278313578426114048,0.0,67.64767022104934,-2.8487575666547755,13.700730329232147,14,5,0.0,783,375525307962830,34,24.5,-7.652774333953857,2.075000047683716,0,0.0,0.0,,,,,0,,5,,
