# 
# Header Description:
# 
# Version: v2.0.0.1 Platform: 8.0.0 Manufacturer: Sony Model: G8142
# 
# Raw,ElapsedRealtimeMillis,TimeNanos,LeapSecond,TimeUncertaintyNanos,FullBiasNanos,BiasNanos,BiasUncertaintyNanos,DriftNanosPerSecond,DriftUncertaintyNanosPerSecond,HardwareClockDiscontinuityCount,Svid,TimeOffsetNanos,State,ReceivedSvTimeNanos,ReceivedSvTimeUncertaintyNanos,Cn0DbHz,PseudorangeRateMetersPerSecond,PseudorangeRateUncertaintyMetersPerSecond,AccumulatedDeltaRangeState,AccumulatedDeltaRangeMeters,AccumulatedDeltaRangeUncertaintyMeters,CarrierFrequencyHz,CarrierCycles,CarrierPhase,CarrierPhaseUncertainty,MultipathIndicator,SnrInDb,ConstellationType,AgcDb,CarrierFrequencyHz
# 
# Fix,Provider,Latitude,Longitude,Altitude,Speed,Accuracy,(UTC)TimeInMs
# 
# Nav,Svid,Type,Status,MessageId,Sub-messageId,Data(Bytes)
# 
Raw,4604068,4624015000000,,,-1278313578426112256,0.0,85.5279722600244,13.381635854199041,13.406357890234888,14,6,0.0,207,40984365377938,1616,10.6,715.379150390625,26.44900131225586,0,0.0,0.0,,,,,0,,3,,
Raw,4604068,4624015000000,,,-1278313578426112256,0.0,85.5279722600244,13.381635854199041,13.406357890234888,14,1,0.0,207,40984362021419,16,29.5,-663.6205444335938,0.2296999990940094,0,0.0,0.0,,,,,0,,3,,
Raw,4604069,4624015000000,,,-1278313578426112256,0.0,85.5279722600244,13.381635854199041,13.406357890234888,14,21,0.0,207,40984373609965,46,20.7,244.68333435058594,1.065999984741211,0,0.0,0.0,,,,,0,,3,,
Raw,4604069,4624015000000,,,-1278313578426112256,0.0,85.5279722600244,13.381635854199041,13.406357890234888,14,7,0.0,207,40984375650537,295,12.3,323.5054626464844,9.319000244140625,0,0.0,0.0,,,,,0,,3,,
Raw,4604069,4624015000000,,,-1278313578426112256,0.0,85.5279722600244,13.381635854199041,13.406357890234888,14,8,0.0,207,40984373293006,84,16.5,-335.48370361328125,2.136000156402588,0,0.0,0.0,,,,,0,,3,,
Raw,4604069,4624015000000,,,-1278313578426112256,0.0,85.5279722600244,13.381635854199041,13.406357890234888,14,2,0.0,15,375802369138429,169,15.8,-196.78268432617188,6.520000457763672,0,0.0,0.0,,,,,0,,1,,
Raw,4604070,4624015000000,,,-1278313578426112256,0.0,85.5279722600244,13.381635854199041,13.406357890234888,14,5,0.0,15,375802371470590,126,17.7,27.75433349609375,5.5929999351501465,0,0.0,0.0,,,,,0,,1,,
Raw,4604070,4624015000000,,,-1278313578426112256,0.0,85.5279722600244,13.381635854199041,13.406357890234888,14,6,0.0,15,375802367397822,1247,14.6,161.6259307861328,7.577000141143799,0,0.0,0.0,,,,,0,,1,,
Raw,4604071,4624015000000,,,-1278313578426112256,0.0,85.5279722600244,13.381635854199041,13.406357890234888,14,12,0.0,15,375802361927020,24,25.3,331.8293151855469,0.3833000063896179,0,0.0,0.0,,,,,0,,1,,
Raw,4604071,4624015000000,,,-1278313578426112256,0.0,85.5279722600244,13.381635854199041,13.406357890234888,14,13,0.0,15,375802367898654,93,15.9,-587.6839599609375,1.2669999599456787,0,0.0,0.0,,,,,0,,1,,
Raw,4604071,4624015000000,,,-1278313578426112256,0.0,85.5279722600244,13.381635854199041,13.406357890234888,14,15,0.0,15,375802360589249,13,31.6,-712.9927368164062,0.025200000032782555,0,0.0,0.0,,,,,0,,1,,
Raw,4604072,4624015000000,,,-1278313578426112256,0.0,85.5279722600244,13.381635854199041,13.406357890234888,14,17,0.0,15,375802361442600,150,14.4,673.1829223632812,5.228000164031982,0,0.0,0.0,,,,,0,,1,,
Raw,4604072,4624015000000,,,-1278313578426112256,0.0,85.5279722600244,13.381635854199041,13.406357890234888,14,19,0.0,15,375802365681671,61,18.9,631.92724609375,1.0040000677108765,0,0.0,0.0,,,,,0,,1,,
Raw,4604072,4624015000000,,,-1278313578426112256,0.0,85.5279722600244,13.381635854199041,13.406357890234888,14,25,0.0,15,375802358621858,17,28.6,144.80380249023438,0.06030000001192093,0,0.0,0.0,,,,,0,,1,,
Raw,4604072,4624015000000,,,-1278313578426112256,0.0,85.5279722600244,13.381635854199041,13.406357890234888,14,29,0.0,15,375802359514237,35,22.8,-648.0926513671875,0.7549999952316284,0,0.0,0.0,,,,,0,,1,,
Raw,4604073,4624015000000,,,-1278313578426112256,0.0,85.5279722600244,13.381635854199041,13.406357890234888,14,5,0.0,783,375788307963278,71,20.8,-1.5939278602600098,3.7250001430511475,0,0.0,0.0,,,,,0,,5,,
Raw,4604073,4624015000000,,,-1278313578426112256,0.0,85.5279722600244,13.381635854199041,13.406357890234888,14,7,0.0,15,375788309701176,78,17.4,270.8717041015625,2.509999990463257,0,0.0,0.0,,,,,0,,5,,
Raw,4604073,4624015000000,,,-1278313578426112256,0.0,85.5279722600244,13.381635854199041,13.406357890234888,14,9,0.0,15,375788312576988,35,22.5,-247.2604522705078,0.684499979019165,0,0.0,0.0,,,,,0,,5,,
Raw,4604073,4624015000000,,,-1278313578426112256,0.0,85.5279722600244,13.381635854199041,13.406357890234888,14,10,0.0,15,375788311249537,850,16.7,309.25079345703125,7.39300012588501,0,0.0,0.0,,,,,0,,5,,
Raw,4604074,4624015000000,,,-1278313578426112256,0.0,85.5279722600244,13.381635854199041,13.406357890234888,14,16,0.0,15,375788316225593,253,14.4,-235.33480834960938,8.780500411987305,0,0.0,0.0,,,,,0,,5,,
Raw,4604074,4624015000000,,,-1278313578426112256,0.0,85.5279722600244,13.381635854199041,13.406357890234888,14,19,0.0,15,375788355005466,11,33.3,-466.8161315917969,0.04540000110864639,0,0.0,0.0,,,,,0,,5,,
Raw,4604074,4624015000000,,,-1278313578426112256,0.0,85.5279722600244,13.381635854199041,13.406357890234888,14,20,0.0,15,375788365862426,87,18.6,-146.37249755859375,3.9240000247955322,0,0.0,0.0,,,,,0,,5,,
Raw,4604074,4624015000000,,,-1278313578426112256,0.0,85.5279722600244,13.381635854199041,13.406357890234888,14,27,0.0,15,375788363961388,70,17.3,409.8699035644531,1.0010000467300415,0,0.0,0.0,,,,,0,,5,,
Raw,4604075,4624015000000,,,-1278313578426112256,0.0,85.5279722600244,13.381635854199041,13.406357890234888,14,29,0.0,15,375788359169867,72,20.6,-543.318115234375,3.815000057220459,0,0.0,0.0,,,,,0,,5,,
Raw,4604075,4624015000000,,,-1278313578426112256,0.0,85.5279722600244,13.381635854199041,13.406357890234888,14,30,0.0,15,375788369353702,724,14.7,-117.19210052490234,17.30500030517578,0,0.0,0.0,,,,,0,,5,,
Raw,4604075,4624015000000,,,-1278313578426112256,0.0,85.5279722600244,13.381635854199041,13.406357890234888,14,4,0.0,7183,375802358274048,115,18.9,-380.9013366699219,5.373500347137451,0,0.0,0.0,,,,,0,,6,,
Raw,4604075,4624015000000,,,-1278313578426112256,0.0,85.5279722600244,13.381635854199041,13.406357890234888,14,24,0.0,7183,375802351781172,19,27.7,307.0099792480469,0.06379999965429306,0,0.0,0.0,,,,,0,,6,,
Raw,4604076,4624015000000,,,-1278313578426112256,0.0,85.5279722600244,13.381635854199041,13.406357890234888,14,31,0.0,7183,375802346225201,24,25.9,308.9909362792969,0.40880000591278076,0,0.0,0.0,,,,,0,,6,,
Fix,gps,22.925222,120.294558,43.412659,0.000000,11.792000,1594282985000
NMEA,$GPGSV,4,1,13,02,56,012,16,05,55,312,18,06,40,074,15,12,20,253,25*70,1594282984456
NMEA,$GPGSV,4,2,13,13,38,182,16,15,14,208,32,17,14,150,14,19,33,150,19*74,1594282984456
NMEA,$GPGSV,4,3,13,25,09,281,29,29,10,322,23,07,06,081,,09,11,039,*71,1594282984457
NMEA,$GPGSV,4,4,13,30,11,112,*4A,1594282984457
NMEA,$GLGSV,2,1,06,70,18,026,11,65,07,220,30,85,51,108,21,71,65,352,12*6C,1594282984457
NMEA,$GLGSV,2,2,06,72,49,234,17,84,01,136,*61,1594282984457
NMEA,$GAGSV,2,1,05,04,45,210,19,24,04,255,28,31,04,210,26,11,09,314,*64,1594282984457
NMEA,$GAGSV,2,2,05,33,50,088,*58,1594282984457
NMEA,$PQGSV,1,1,02,195,68,147,19,194,11,158,,0,5*61,1594282984458
NMEA,$PQGSV,4,1,16,05,17,258,21,07,18,194,17,09,28,192,23,10,23,219,17,0,4*66,1594282984458
NMEA,$PQGSV,4,2,16,16,47,181,14,19,10,233,33,20,56,258,19,27,42,132,17,0,4*6B,1594282984458
NMEA,$PQGSV,4,3,16,29,23,322,21,30,78,340,15,01,50,130,,03,62,203,,0,4*6E,1594282984458
NMEA,$PQGSV,4,4,16,04,37,113,,06,52,174,,08,51,009,,13,42,333,,0,4*6E,1594282984459
NMEA,$GNGSA,A,3,02,05,06,12,13,15,17,19,25,29,,,1.0,0.7,0.7,1*36,1594282984459
NMEA,$GNGSA,A,3,65,71,72,85,,,,,,,,,1.0,0.7,0.7,2*3E,1594282984459
NMEA,$GNGSA,A,2,04,31,,,,,,,,,,,1.0,0.7,0.7,3*35,1594282984460
NMEA,$PQGSA,A,3,05,07,09,10,16,,,,,,,,1.0,0.7,0.7,4*30,1594282984460
NMEA,$GNVTG,,T,,M,0.0,N,0.0,K,A*3D,1594282984460
NMEA,$GNRMC,082305.00,A,2255.513346,N,12017.673468,E,0.0,,090720,2.8,W,A*16,1594282984460
NMEA,$GNGGA,082305.00,2255.513346,N,12017.673468,E,1,12,0.7,25.9,M,17.5,M,,*4C,1594282984460
Raw,4605140,4625015000000,,,-1278313578426112256,0.0,86.62126492708921,11.805826746774175,14.924244458555371,14,6,0.0,207,40985365375552,1791,10.6,715.379150390625,27.94900131225586,0,0.0,0.0,,,,,0,,3,,
Raw,4605140,4625015000000,,,-1278313578426112256,0.0,86.62126492708921,11.805826746774175,14.924244458555371,14,1,0.0,207,40985362023638,16,29.9,-664.5750122070312,0.2296999990940094,0,0.0,0.0,,,,,0,,3,,
Raw,4605140,4625015000000,,,-1278313578426112256,0.0,86.62126492708921,11.805826746774175,14.924244458555371,14,21,0.0,207,40985373609044,53,19.5,242.7398681640625,1.1360000371932983,0,0.0,0.0,,,,,0,,3,,
Raw,4605140,4625015000000,,,-1278313578426112256,0.0,86.62126492708921,11.805826746774175,14.924244458555371,14,7,0.0,207,40985375649458,357,12.3,323.5054626464844,10.819000244140625,0,0.0,0.0,,,,,0,,3,,
Raw,4605141,4625015000000,,,-1278313578426112256,0.0,86.62126492708921,11.805826746774175,14.924244458555371,14,8,0.0,207,40985373293691,53,19.3,-336.6415100097656,1.1360000371932983,0,0.0,0.0,,,,,0,,3,,
Raw,4605141,4625015000000,,,-1278313578426112256,0.0,86.62126492708921,11.805826746774175,14.924244458555371,14,2,0.0,15,375803369138555,141,13.1,-195.4791717529297,3.8600001335144043,0,0.0,0.0,,,,,0,,1,,
Raw,4605141,4625015000000,,,-1278313578426112256,0.0,86.62126492708921,11.805826746774175,14.924244458555371,14,5,0.0,15,375803371470497,165,17.7,27.75433349609375,7.093000411987305,0,0.0,0.0,,,,,0,,1,,
Raw,4605141,4625015000000,,,-1278313578426112256,0.0,86.62126492708921,11.805826746774175,14.924244458555371,14,6,0.0,15,375803367397290,1271,14.9,161.51174926757812,8.327000617980957,0,0.0,0.0,,,,,0,,1,,
Raw,4605142,4625015000000,,,-1278313578426112256,0.0,86.62126492708921,11.805826746774175,14.924244458555371,14,12,0.0,15,375803361925940,24,25.5,330.8525390625,0.3833000063896179,0,0.0,0.0,,,,,0,,1,,
Raw,4605142,4625015000000,,,-1278313578426112256,0.0,86.62126492708921,11.805826746774175,14.924244458555371,14,13,0.0,15,375803367900646,80,16.5,-587.2843017578125,1.1769999265670776,0,0.0,0.0,,,,,0,,1,,
Raw,4605142,4625015000000,,,-1278313578426112256,0.0,86.62126492708921,11.805826746774175,14.924244458555371,14,15,0.0,15,375803360591604,13,31.2,-713.9720458984375,0.025200000032782555,0,0.0,0.0,,,,,0,,1,,
Raw,4605142,4625015000000,,,-1278313578426112256,0.0,86.62126492708921,11.805826746774175,14.924244458555371,14,17,0.0,15,375803361440355,185,14.4,673.1829223632812,6.728000164031982,0,0.0,0.0,,,,,0,,1,,
Raw,4605143,4625015000000,,,-1278313578426112256,0.0,86.62126492708921,11.805826746774175,14.924244458555371,14,19,0.0,15,375803365679432,46,20.7,631.9747924804688,0.8539999723434448,0,0.0,0.0,,,,,0,,1,,
Raw,4605143,4625015000000,,,-1278313578426112256,0.0,86.62126492708921,11.805826746774175,14.924244458555371,14,25,0.0,15,375803358621380,16,29.1,143.78091430664062,0.053700003772974014,0,0.0,0.0,,,,,0,,1,,
Raw,4605143,4625015000000,,,-1278313578426112256,0.0,86.62126492708921,11.805826746774175,14.924244458555371,14,29,0.0,15,375803359516454,35,22.9,-648.948974609375,0.7549999952316284,0,0.0,0.0,,,,,0,,1,,
Raw,4605143,4625015000000,,,-1278313578426112256,0.0,86.62126492708921,11.805826746774175,14.924244458555371,14,5,0.0,783,375789307963284,98,20.8,-1.5939278602600098,5.225000381469727,0,0.0,0.0,,,,,0,,5,,
Raw,4605143,4625015000000,,,-1278313578426112256,0.0,86.62126492708921,11.805826746774175,14.924244458555371,14,7,0.0,15,375789309700272,97,17.4,270.8717041015625,4.010000228881836,0,0.0,0.0,,,,,0,,5,,
Raw,4605144,4625015000000,,,-1278313578426112256,0.0,86.62126492708921,11.805826746774175,14.924244458555371,14,9,0.0,15,375789312577816,40,21.5,-248.67193603515625,0.7444999814033508,0,0.0,0.0,,,,,0,,5,,
Raw,4605144,4625015000000,,,-1278313578426112256,0.0,86.62126492708921,11.805826746774175,14.924244458555371,14,10,0.0,15,375789311248508,874,16.3,309.1547546386719,8.143000602722168,0,0.0,0.0,,,,,0,,5,,
Raw,4605144,4625015000000,,,-1278313578426112256,0.0,86.62126492708921,11.805826746774175,14.924244458555371,14,16,0.0,15,375789316226378,313,14.4,-235.33480834960938,10.280500411987305,0,0.0,0.0,,,,,0,,5,,
Raw,4605144,4625015000000,,,-1278313578426112256,0.0,86.62126492708921,11.805826746774175,14.924244458555371,14,19,0.0,15,375789355007026,11,33.7,-467.85638427734375,0.04540000110864639,0,0.0,0.0,,,,,0,,5,,
Raw,4605145,4625015000000,,,-1278313578426112256,0.0,86.62126492708921,11.805826746774175,14.924244458555371,14,20,0.0,15,375789365862914,115,18.6,-146.37249755859375,5.424000263214111,0,0.0,0.0,,,,,0,,5,,
Raw,4605145,4625015000000,,,-1278313578426112256,0.0,86.62126492708921,11.805826746774175,14.924244458555371,14,27,0.0,15,375789363959991,53,19.2,409.19775390625,0.8510000109672546,0,0.0,0.0,,,,,0,,5,,
Raw,4605145,4625015000000,,,-1278313578426112256,0.0,86.62126492708921,11.805826746774175,14.924244458555371,14,29,0.0,15,375789359171728,116,14.3,-543.3565673828125,2.7850000858306885,0,0.0,0.0,,,,,0,,5,,
Raw,4605145,4625015000000,,,-1278313578426112256,0.0,86.62126492708921,11.805826746774175,14.924244458555371,14,30,0.0,15,375789369354093,841,14.7,-117.19210052490234,18.80500030517578,0,0.0,0.0,,,,,0,,5,,
Raw,4605145,4625015000000,,,-1278313578426112256,0.0,86.62126492708921,11.805826746774175,14.924244458555371,14,4,0.0,7183,375803358275318,153,18.9,-380.9013366699219,6.873500347137451,0,0.0,0.0,,,,,0,,6,,
Raw,4605146,4625015000000,,,-1278313578426112256,0.0,86.62126492708921,11.805826746774175,14.924244458555371,14,24,0.0,7183,375803351780158,19,27.3,304.42230224609375,0.4390000104904175,0,0.0,0.0,,,,,0,,6,,
Raw,4605146,4625015000000,,,-1278313578426112256,0.0,86.62126492708921,11.805826746774175,14.924244458555371,14,31,0.0,7183,375803346224176,24,25.9,307.15301513671875,0.5234999656677246,0,0.0,0.0,,,,,0,,6,,
Fix,gps,22.925222,120.294558,43.401550,0.000000,11.792000,1594282986000
NMEA,$GPGSV,4,1,13,02,56,012,13,05,55,312,18,06,40,074,15,12,20,253,26*76,1594282985455
NMEA,$GPGSV,4,2,13,13,38,182,17,15,14,208,31,17,14,150,14,19,33,150,21*7D,1594282985455
NMEA,$GPGSV,4,3,13,25,09,281,29,29,10,322,23,07,06,081,,09,11,039,*71,1594282985455
NMEA,$GPGSV,4,4,13,30,11,112,*4A,1594282985455
NMEA,$GLGSV,2,1,06,70,18,026,11,65,07,220,30,85,51,108,20,71,65,352,12*6D,1594282985455
NMEA,$GLGSV,2,2,06,72,49,234,19,84,01,136,*6F,1594282985456
NMEA,$GAGSV,2,1,05,04,45,210,19,24,04,255,27,31,04,210,26,11,09,314,*6B,1594282985457
NMEA,$GAGSV,2,2,05,33,50,088,*58,1594282985457
NMEA,$PQGSV,1,1,02,195,68,147,19,194,11,158,,0,5*61,1594282985457
NMEA,$PQGSV,4,1,16,05,17,258,21,07,18,194,17,09,28,192,22,10,23,219,16,0,4*66,1594282985458
NMEA,$PQGSV,4,2,16,16,47,181,14,19,10,233,34,20,56,258,19,27,42,132,19,0,4*62,1594282985458
NMEA,$PQGSV,4,3,16,29,23,322,14,30,78,340,15,01,50,130,,03,62,203,,0,4*68,1594282985458
NMEA,$PQGSV,4,4,16,04,37,113,,06,52,174,,08,51,009,,13,42,333,,0,4*6E,1594282985458
NMEA,$GNGSA,A,3,02,05,06,12,13,15,17,19,25,29,,,1.0,0.7,0.7,1*36,1594282985459
NMEA,$GNGSA,A,3,65,71,72,85,,,,,,,,,1.0,0.7,0.7,2*3E,1594282985459
NMEA,$GNGSA,A,2,04,31,,,,,,,,,,,1.0,0.7,0.7,3*35,1594282985460
NMEA,$PQGSA,A,3,05,07,09,10,16,,,,,,,,1.0,0.7,0.7,4*30,1594282985460
NMEA,$GNVTG,,T,,M,0.0,N,0.0,K,A*3D,1594282985460
NMEA,$GNRMC,082306.00,A,2255.513340,N,12017.673465,E,0.0,,090720,2.8,W,A*1E,1594282985460
NMEA,$GNGGA,082306.00,2255.513340,N,12017.673465,E,1,12,0.7,25.9,M,17.5,M,,*44,1594282985461
Fix,gps,22.925222,120.294558,43.391602,0.000000,11.792000,1594282987000
NMEA,$GPGSV,4,1,13,02,56,012,13,05,55,312,18,06,40,074,15,12,20,253,25*75,1594282986455
Raw,4606064,4626015000000,,,-1278313578426112256,0.0,89.9438964552246,8.762818163827665,16.34013811439032,14,6,0.0,207,40986365373166,1975,10.6,715.379150390625,29.44900131225586,0,0.0,0.0,,,,,0,,3,,
Raw,4606064,4626015000000,,,-1278313578426112256,0.0,89.9438964552246,8.762818163827665,16.34013811439032,14,1,0.0,207,40986362025876,14,30.4,-664.4066772460938,0.2287999987602234,0,0.0,0.0,,,,,0,,3,,
Raw,4606064,4626015000000,,,-1278313578426112256,0.0,89.9438964552246,8.762818163827665,16.34013811439032,14,21,0.0,207,40986373608352,40,21.6,243.50604248046875,1.0059999227523804,0,0.0,0.0,,,,,0,,3,,
Raw,4606065,4626015000000,,,-1278313578426112256,0.0,89.9438964552246,8.762818163827665,16.34013811439032,14,7,0.0,207,40986375648379,428,12.3,323.5054626464844,12.319000244140625,0,0.0,0.0,,,,,0,,3,,
Raw,4606065,4626015000000,,,-1278313578426112256,0.0,89.9438964552246,8.762818163827665,16.34013811439032,14,8,0.0,207,40986373294902,46,20.0,-334.8581237792969,1.065999984741211,0,0.0,0.0,,,,,0,,3,,
Raw,4606065,4626015000000,,,-1278313578426112256,0.0,89.9438964552246,8.762818163827665,16.34013811439032,14,2,0.0,15,375804369139207,167,13.1,-195.4791717529297,5.360000133514404,0,0.0,0.0,,,,,0,,1,,
Raw,4606066,4626015000000,,,-1278313578426112256,0.0,89.9438964552246,8.762818163827665,16.34013811439032,14,5,0.0,15,375804371470405,214,17.7,27.75433349609375,8.593000411987305,0,0.0,0.0,,,,,0,,1,,
Raw,4606066,4626015000000,,,-1278313578426112256,0.0,89.9438964552246,8.762818163827665,16.34013811439032,14,6,0.0,15,375804367396771,1298,15.3,161.40708923339844,9.077000617980957,0,0.0,0.0,,,,,0,,1,,
Raw,4606066,4626015000000,,,-1278313578426112256,0.0,89.9438964552246,8.762818163827665,16.34013811439032,14,12,0.0,15,375804361924818,24,25.0,331.0384216308594,0.3833000063896179,0,0.0,0.0,,,,,0,,1,,
Raw,4606066,4626015000000,,,-1278313578426112256,0.0,89.9438964552246,8.762818163827665,16.34013811439032,14,13,0.0,15,375804367902757,53,19.6,-588.1216430664062,0.9269999861717224,0,0.0,0.0,,,,,0,,1,,
Raw,4606066,4626015000000,,,-1278313578426112256,0.0,89.9438964552246,8.762818163827665,16.34013811439032,14,15,0.0,15,375804360594014,13,31.4,-713.8544311523438,0.025200000032782555,0,0.0,0.0,,,,,0,,1,,
Raw,4606067,4626015000000,,,-1278313578426112256,0.0,89.9438964552246,8.762818163827665,16.34013811439032,14,17,0.0,15,375804361438109,230,14.4,673.1829223632812,8.22800064086914,0,0.0,0.0,,,,,0,,1,,
Raw,4606067,4626015000000,,,-1278313578426112256,0.0,89.9438964552246,8.762818163827665,16.34013811439032,14,19,0.0,15,375804365677231,61,18.9,632.193603515625,1.0040000677108765,0,0.0,0.0,,,,,0,,1,,
Raw,4606067,4626015000000,,,-1278313578426112256,0.0,89.9438964552246,8.762818163827665,16.34013811439032,14,25,0.0,15,375804358620903,16,29.3,143.98585510253906,0.053700003772974014,0,0.0,0.0,,,,,0,,1,,
Raw,4606067,4626015000000,,,-1278313578426112256,0.0,89.9438964552246,8.762818163827665,16.34013811439032,14,29,0.0,15,375804359518613,35,22.8,-648.8823852539062,0.7549999952316284,0,0.0,0.0,,,,,0,,1,,
Raw,4606068,4626015000000,,,-1278313578426112256,0.0,89.9438964552246,8.762818163827665,16.34013811439032,14,5,0.0,783,375790307963270,38,23.3,0.8065659403800964,2.115000009536743,0,0.0,0.0,,,,,0,,5,,
Raw,4606068,4626015000000,,,-1278313578426112256,0.0,89.9438964552246,8.762818163827665,16.34013811439032,14,7,0.0,15,375790309699457,89,16.9,269.1241455078125,2.509999990463257,0,0.0,0.0,,,,,0,,5,,
Raw,4606068,4626015000000,,,-1278313578426112256,0.0,89.9438964552246,8.762818163827665,16.34013811439032,14,9,0.0,15,375790312578649,40,21.6,-247.77894592285156,0.7444999814033508,0,0.0,0.0,,,,,0,,5,,
Raw,4606068,4626015000000,,,-1278313578426112256,0.0,89.9438964552246,8.762818163827665,16.34013811439032,14,10,0.0,15,375790311247475,900,16.1,309.1739807128906,8.893000602722168,0,0.0,0.0,,,,,0,,5,,
Raw,4606069,4626015000000,,,-1278313578426112256,0.0,89.9438964552246,8.762818163827665,16.34013811439032,14,16,0.0,15,375790316227163,382,14.4,-235.33480834960938,11.780500411987305,0,0.0,0.0,,,,,0,,5,,
Raw,4606069,4626015000000,,,-1278313578426112256,0.0,89.9438964552246,8.762818163827665,16.34013811439032,14,19,0.0,15,375790355008591,11,33.5,-467.6793518066406,0.04540000110864639,0,0.0,0.0,,,,,0,,5,,
Raw,4606069,4626015000000,,,-1278313578426112256,0.0,89.9438964552246,8.762818163827665,16.34013811439032,14,20,0.0,15,375790365863402,153,18.6,-146.37249755859375,6.924000263214111,0,0.0,0.0,,,,,0,,5,,
Raw,4606069,4626015000000,,,-1278313578426112256,0.0,89.9438964552246,8.762818163827665,16.34013811439032,14,27,0.0,15,375790363958570,53,19.5,410.5036315917969,0.8510000109672546,0,0.0,0.0,,,,,0,,5,,
Raw,4606069,4626015000000,,,-1278313578426112256,0.0,89.9438964552246,8.762818163827665,16.34013811439032,14,29,0.0,15,375790359173540,135,14.3,-543.3565673828125,4.285000324249268,0,0.0,0.0,,,,,0,,5,,
Raw,4606070,4626015000000,,,-1278313578426112256,0.0,89.9438964552246,8.762818163827665,16.34013811439032,14,30,0.0,15,375790369354484,967,14.7,-117.19210052490234,20.30500030517578,0,0.0,0.0,,,,,0,,5,,
Raw,4606070,4626015000000,,,-1278313578426112256,0.0,89.9438964552246,8.762818163827665,16.34013811439032,14,4,0.0,7183,375804358276618,151,13.1,-380.8727722167969,4.2835001945495605,0,0.0,0.0,,,,,0,,6,,
Raw,4606070,4626015000000,,,-1278313578426112256,0.0,89.9438964552246,8.762818163827665,16.34013811439032,14,24,0.0,7183,375804351779156,17,28.7,304.7159729003906,0.055800002068281174,0,0.0,0.0,,,,,0,,6,,
Raw,4606070,4626015000000,,,-1278313578426112256,0.0,89.9438964552246,8.762818163827665,16.34013811439032,14,31,0.0,7183,375804346223165,21,26.4,308.29351806640625,0.13819999992847443,0,0.0,0.0,,,,,0,,6,,
NMEA,$GPGSV,4,2,13,13,38,182,20,15,14,208,31,17,14,150,14,19,33,150,19*72,1594282986455
NMEA,$GPGSV,4,3,13,25,09,281,29,29,10,322,23,07,06,081,,09,11,039,*71,1594282986455
NMEA,$GPGSV,4,4,13,30,11,112,*4A,1594282986456
NMEA,$GLGSV,2,1,06,70,18,026,11,65,07,220,30,85,51,108,22,71,65,352,12*6F,1594282986457
NMEA,$GLGSV,2,2,06,72,49,234,20,84,01,136,*65,1594282986457
NMEA,$GAGSV,2,1,05,04,45,210,13,24,04,255,29,31,04,210,26,11,09,314,*6F,1594282986457
NMEA,$GAGSV,2,2,05,33,50,088,*58,1594282986458
NMEA,$PQGSV,1,1,02,195,68,147,19,194,11,158,,0,5*61,1594282986458
NMEA,$PQGSV,4,1,16,05,17,258,23,07,18,194,17,09,28,192,22,10,23,219,16,0,4*64,1594282986458
NMEA,$PQGSV,4,2,16,16,47,181,14,19,10,233,34,20,56,258,19,27,42,132,20,0,4*68,1594282986458
NMEA,$PQGSV,4,3,16,29,23,322,14,30,78,340,15,01,50,130,,03,62,203,,0,4*68,1594282986459
NMEA,$PQGSV,4,4,16,04,37,113,,06,52,174,,08,51,009,,13,42,333,,0,4*6E,1594282986459
NMEA,$GNGSA,A,3,02,05,06,12,13,15,17,19,25,29,,,1.0,0.7,0.8,1*39,1594282986460
NMEA,$GNGSA,A,3,65,71,72,85,,,,,,,,,1.0,0.7,0.8,2*31,1594282986460
NMEA,$GNGSA,A,2,04,31,,,,,,,,,,,1.0,0.7,0.8,3*3A,1594282986460
NMEA,$PQGSA,A,3,05,07,09,10,16,,,,,,,,1.0,0.7,0.8,4*3F,1594282986460
NMEA,$GNVTG,,T,,M,0.0,N,0.0,K,A*3D,1594282986460
NMEA,$GNRMC,082307.00,A,2255.513334,N,12017.673463,E,0.0,,090720,2.8,W,A*1A,1594282986460
NMEA,$GNGGA,082307.00,2255.513334,N,12017.673463,E,1,12,0.7,25.9,M,17.5,M,,*40,1594282986461
Fix,gps,22.925222,120.294558,43.389832,0.000000,11.792000,1594282988000
Raw,4607115,4627015000000,,,-1278313578426112256,0.0,93.79890252603218,8.559217253784261,17.17102947415138,14,6,0.0,207,40987365370779,2170,10.6,715.379150390625,30.94900131225586,0,0.0,0.0,,,,,0,,3,,
Raw,4607116,4627015000000,,,-1278313578426112256,0.0,93.79890252603218,8.559217253784261,17.17102947415138,14,1,0.0,207,40987362028058,16,29.8,-663.9854736328125,0.2296999990940094,0,0.0,0.0,,,,,0,,3,,
Raw,4607116,4627015000000,,,-1278313578426112256,0.0,93.79890252603218,8.559217253784261,17.17102947415138,14,21,0.0,207,40987373607541,46,20.9,244.38433837890625,1.065999984741211,0,0.0,0.0,,,,,0,,3,,
Raw,4607117,4627015000000,,,-1278313578426112256,0.0,93.79890252603218,8.559217253784261,17.17102947415138,14,7,0.0,207,40987375647109,111,15.4,325.50433349609375,3.7290000915527344,0,0.0,0.0,,,,,0,,3,,
Raw,4607117,4627015000000,,,-1278313578426112256,0.0,93.79890252603218,8.559217253784261,17.17102947415138,14,8,0.0,207,40987373295856,81,16.3,-335.3249816894531,1.3860000371932983,0,0.0,0.0,,,,,0,,3,,
Raw,4607118,4627015000000,,,-1278313578426112256,0.0,93.79890252603218,8.559217253784261,17.17102947415138,14,2,0.0,15,375805369139859,202,13.1,-195.4791717529297,6.860000133514404,0,0.0,0.0,,,,,0,,1,,
Raw,4607119,4627015000000,,,-1278313578426112256,0.0,93.79890252603218,8.559217253784261,17.17102947415138,14,5,0.0,15,375805371470312,273,17.7,27.75433349609375,10.093000411987305,0,0.0,0.0,,,,,0,,1,,
Raw,4607119,4627015000000,,,-1278313578426112256,0.0,93.79890252603218,8.559217253784261,17.17102947415138,14,6,0.0,15,375805367396221,1174,15.5,161.54029846191406,9.72700023651123,0,0.0,0.0,,,,,0,,1,,
Raw,4607120,4627015000000,,,-1278313578426112256,0.0,93.79890252603218,8.559217253784261,17.17102947415138,14,12,0.0,15,375805361923729,31,23.9,331.4725341796875,0.6679999828338623,0,0.0,0.0,,,,,0,,1,,
Raw,4607120,4627015000000,,,-1278313578426112256,0.0,93.79890252603218,8.559217253784261,17.17102947415138,14,13,0.0,15,375805367904657,70,17.7,-587.6934814453125,1.0869998931884766,0,0.0,0.0,,,,,0,,1,,
Raw,4607121,4627015000000,,,-1278313578426112256,0.0,93.79890252603218,8.559217253784261,17.17102947415138,14,15,0.0,15,375805360596388,14,30.8,-713.4690551757812,0.025800000876188278,0,0.0,0.0,,,,,0,,1,,
Raw,4607121,4627015000000,,,-1278313578426112256,0.0,93.79890252603218,8.559217253784261,17.17102947415138,14,17,0.0,15,375805361435864,285,14.4,673.1829223632812,9.72800064086914,0,0.0,0.0,,,,,0,,1,,
Raw,4607122,4627015000000,,,-1278313578426112256,0.0,93.79890252603218,8.559217253784261,17.17102947415138,14,19,0.0,15,375805365675123,69,18.9,632.193603515625,2.504000186920166,0,0.0,0.0,,,,,0,,1,,
Raw,4607122,4627015000000,,,-1278313578426112256,0.0,93.79890252603218,8.559217253784261,17.17102947415138,14,25,0.0,15,375805358620407,17,28.8,144.42596435546875,0.06030000001192093,0,0.0,0.0,,,,,0,,1,,
Raw,4607123,4627015000000,,,-1278313578426112256,0.0,93.79890252603218,8.559217253784261,17.17102947415138,14,29,0.0,15,375805359520800,27,24.2,-649.2630004882812,0.6949999928474426,0,0.0,0.0,,,,,0,,1,,
Raw,4607123,4627015000000,,,-1278313578426112256,0.0,93.79890252603218,8.559217253784261,17.17102947415138,14,5,0.0,783,375791307963267,55,23.3,0.8065659403800964,3.6150002479553223,0,0.0,0.0,,,,,0,,5,,
Raw,4607124,4627015000000,,,-1278313578426112256,0.0,93.79890252603218,8.559217253784261,17.17102947415138,14,7,0.0,15,375791309698560,107,16.9,269.1241455078125,4.010000228881836,0,0.0,0.0,,,,,0,,5,,
Raw,4607125,4627015000000,,,-1278313578426112256,0.0,93.79890252603218,8.559217253784261,17.17102947415138,14,9,0.0,15,375791312579437,35,22.2,-247.60610961914062,0.684499979019165,0,0.0,0.0,,,,,0,,5,,
Raw,4607126,4627015000000,,,-1278313578426112256,0.0,93.79890252603218,8.559217253784261,17.17102947415138,14,10,0.0,15,375791311246454,1045,15.5,309.1739807128906,9.733000755310059,0,0.0,0.0,,,,,0,,5,,
Raw,4607127,4627015000000,,,-1278313578426112256,0.0,93.79890252603218,8.559217253784261,17.17102947415138,14,16,0.0,15,375791316227948,462,14.4,-235.33480834960938,13.280500411987305,0,0.0,0.0,,,,,0,,5,,
Raw,4607127,4627015000000,,,-1278313578426112256,0.0,93.79890252603218,8.559217253784261,17.17102947415138,14,19,0.0,15,375791355010146,11,33.7,-467.2781677246094,0.04540000110864639,0,0.0,0.0,,,,,0,,5,,
Raw,4607128,4627015000000,,,-1278313578426112256,0.0,93.79890252603218,8.559217253784261,17.17102947415138,14,20,0.0,15,375791365863890,202,18.6,-146.37249755859375,8.42400074005127,0,0.0,0.0,,,,,0,,5,,
Raw,4607128,4627015000000,,,-1278313578426112256,0.0,93.79890252603218,8.559217253784261,17.17102947415138,14,27,0.0,15,375791363957240,61,18.9,410.4460144042969,0.8510000109672546,0,0.0,0.0,,,,,0,,5,,
Raw,4607129,4627015000000,,,-1278313578426112256,0.0,93.79890252603218,8.559217253784261,17.17102947415138,14,29,0.0,15,375791359175352,165,14.3,-543.3565673828125,5.785000324249268,0,0.0,0.0,,,,,0,,5,,
Raw,4607129,4627015000000,,,-1278313578426112256,0.0,93.79890252603218,8.559217253784261,17.17102947415138,14,30,0.0,15,375791369354875,1103,14.7,-117.19210052490234,21.80500030517578,0,0.0,0.0,,,,,0,,5,,
Raw,4607130,4627015000000,,,-1278313578426112256,0.0,93.79890252603218,8.559217253784261,17.17102947415138,14,4,0.0,7183,375805358277889,180,13.1,-380.8727722167969,5.7835001945495605,0,0.0,0.0,,,,,0,,6,,
Raw,4607130,4627015000000,,,-1278313578426112256,0.0,93.79890252603218,8.559217253784261,17.17102947415138,14,24,0.0,7183,375805351778127,17,28.2,304.4490661621094,0.055800002068281174,0,0.0,0.0,,,,,0,,6,,
Raw,4607131,4627015000000,,,-1278313578426112256,0.0,93.79890252603218,8.559217253784261,17.17102947415138,14,31,0.0,7183,375805346222128,21,26.3,306.8307189941406,0.13819999992847443,0,0.0,0.0,,,,,0,,6,,
NMEA,$GPGSV,4,1,13,02,56,012,13,05,55,312,18,06,40,074,16,12,20,253,24*77,1594282987469
NMEA,$GPGSV,4,2,13,13,38,182,18,15,14,208,31,17,14,150,14,19,33,150,19*79,1594282987470
NMEA,$GPGSV,4,3,13,25,09,281,29,29,10,322,24,07,06,081,,09,11,039,*76,1594282987470
NMEA,$GPGSV,4,4,13,30,11,112,*4A,1594282987471
NMEA,$GLGSV,2,1,06,70,18,026,11,65,07,220,30,85,51,108,21,71,65,352,15*6B,1594282987472
NMEA,$GLGSV,2,2,06,72,49,234,16,84,01,136,*60,1594282987473
NMEA,$GAGSV,2,1,05,04,45,210,13,24,04,255,28,31,04,210,26,11,09,314,*6E,1594282987473
NMEA,$GAGSV,2,2,05,33,50,088,*58,1594282987474
NMEA,$PQGSV,1,1,02,195,68,147,19,194,11,158,,0,5*61,1594282987475
NMEA,$PQGSV,4,1,16,05,17,258,23,07,18,194,17,09,28,192,22,10,23,219,16,0,4*64,1594282987476
NMEA,$PQGSV,4,2,16,16,47,181,14,19,10,233,34,20,56,258,19,27,42,132,19,0,4*62,1594282987476
NMEA,$PQGSV,4,3,16,29,23,322,14,30,78,340,15,01,50,130,,03,62,203,,0,4*68,1594282987477
NMEA,$PQGSV,4,4,16,04,37,113,,06,52,174,,08,51,009,,13,42,333,,0,4*6E,1594282987478
NMEA,$GNGSA,A,3,02,05,06,12,13,15,17,19,25,29,,,1.1,0.7,0.8,1*38,1594282987480
NMEA,$GNGSA,A,3,65,71,72,85,,,,,,,,,1.1,0.7,0.8,2*30,1594282987481
NMEA,$GNGSA,A,2,04,31,,,,,,,,,,,1.1,0.7,0.8,3*3B,1594282987482
NMEA,$PQGSA,A,3,05,07,09,10,,,,,,,,,1.1,0.7,0.8,4*39,1594282987483
NMEA,$GNVTG,,T,,M,0.0,N,0.0,K,A*3D,1594282987484
NMEA,$GNRMC,082308.00,A,2255.513330,N,12017.673462,E,0.0,,090720,2.8,W,A*10,1594282987484
NMEA,$GNGGA,082308.00,2255.513330,N,12017.673462,E,1,12,0.7,25.9,M,17.5,M,,*4A,1594282987485
Raw,4608216,4628015000000,,,-1278313578426112256,0.0,99.31751992553473,9.080723697090406,17.80690893465161,14,6,0.0,207,40988365368393,2374,10.6,715.379150390625,32.44900131225586,0,0.0,0.0,,,,,0,,3,,
Raw,4608217,4628015000000,,,-1278313578426112256,0.0,99.31751992553473,9.080723697090406,17.80690893465161,14,1,0.0,207,40988362030273,16,29.3,-663.922119140625,0.2296999990940094,0,0.0,0.0,,,,,0,,3,,
Raw,4608217,4628015000000,,,-1278313578426112256,0.0,99.31751992553473,9.080723697090406,17.80690893465161,14,21,0.0,207,40988373606783,46,20.9,244.38433837890625,1.065999984741211,0,0.0,0.0,,,,,0,,3,,
Raw,4608217,4628015000000,,,-1278313578426112256,0.0,99.31751992553473,9.080723697090406,17.80690893465161,14,7,0.0,207,40988375645942,61,18.6,325.4482727050781,1.2190001010894775,0,0.0,0.0,,,,,0,,3,,
Raw,4608217,4628015000000,,,-1278313578426112256,0.0,99.31751992553473,9.080723697090406,17.80690893465161,14,8,0.0,207,40988373297226,81,16.1,-335.48370361328125,1.3860000371932983,0,0.0,0.0,,,,,0,,3,,
Raw,4608217,4628015000000,,,-1278313578426112256,0.0,99.31751992553473,9.080723697090406,17.80690893465161,14,2,0.0,15,375806369140904,132,13.7,-196.050048828125,2.990000009536743,0,0.0,0.0,,,,,0,,1,,
Raw,4608218,4628015000000,,,-1278313578426112256,0.0,99.31751992553473,9.080723697090406,17.80690893465161,14,5,0.0,15,375806371470220,341,17.7,27.75433349609375,11.593000411987305,0,0.0,0.0,,,,,0,,1,,
Raw,4608218,4628015000000,,,-1278313578426112256,0.0,99.31751992553473,9.080723697090406,17.80690893465161,14,6,0.0,15,375806367395679,324,15.5,161.5022430419922,10.85200023651123,0,0.0,0.0,,,,,0,,1,,
Raw,4608218,4628015000000,,,-1278313578426112256,0.0,99.31751992553473,9.080723697090406,17.80690893465161,14,12,0.0,15,375806361922718,35,22.3,331.2061462402344,0.7879999876022339,0,0.0,0.0,,,,,0,,1,,
Raw,4608218,4628015000000,,,-1278313578426112256,0.0,99.31751992553473,9.080723697090406,17.80690893465161,14,13,0.0,15,375806367906625,46,20.7,-587.7505493164062,0.8569999933242798,0,0.0,0.0,,,,,0,,1,,
Raw,4608219,4628015000000,,,-1278313578426112256,0.0,99.31751992553473,9.080723697090406,17.80690893465161,14,15,0.0,15,375806360598772,14,30.5,-713.4133911132812,0.025800000876188278,0,0.0,0.0,,,,,0,,1,,
Raw,4608219,4628015000000,,,-1278313578426112256,0.0,99.31751992553473,9.080723697090406,17.80690893465161,14,17,0.0,15,375806361433618,350,14.4,673.1829223632812,11.22800064086914,0,0.0,0.0,,,,,0,,1,,
Raw,4608219,4628015000000,,,-1278313578426112256,0.0,99.31751992553473,9.080723697090406,17.80690893465161,14,19,0.0,15,375806365673155,126,13.8,632.57421875,2.2339999675750732,0,0.0,0.0,,,,,0,,1,,
Raw,4608219,4628015000000,,,-1278313578426112256,0.0,99.31751992553473,9.080723697090406,17.80690893465161,14,25,0.0,15,375806358619940,17,28.2,144.5503387451172,0.06030000001192093,0,0.0,0.0,,,,,0,,1,,
Raw,4608220,4628015000000,,,-1278313578426112256,0.0,99.31751992553473,9.080723697090406,17.80690893465161,14,29,0.0,15,375806359522950,27,24.3,-648.3876342773438,0.6949999928474426,0,0.0,0.0,,,,,0,,1,,
Raw,4608220,4628015000000,,,-1278313578426112256,0.0,99.31751992553473,9.080723697090406,17.80690893465161,14,5,0.0,783,375792307963264,82,23.3,0.8065659403800964,5.115000247955322,0,0.0,0.0,,,,,0,,5,,
Raw,4608220,4628015000000,,,-1278313578426112256,0.0,99.31751992553473,9.080723697090406,17.80690893465161,14,7,0.0,15,375792309697674,73,17.0,269.19134521484375,1.7600001096725464,0,0.0,0.0,,,,,0,,5,,
Raw,4608220,4628015000000,,,-1278313578426112256,0.0,99.31751992553473,9.080723697090406,17.80690893465161,14,9,0.0,15,375792312580308,53,19.8,-248.633544921875,0.8044999837875366,0,0.0,0.0,,,,,0,,5,,
Raw,4608221,4628015000000,,,-1278313578426112256,0.0,99.31751992553473,9.080723697090406,17.80690893465161,14,10,0.0,15,375792311245428,327,15.3,309.1739807128906,10.858000755310059,0,0.0,0.0,,,,,0,,5,,
Raw,4608221,4628015000000,,,-1278313578426112256,0.0,99.31751992553473,9.080723697090406,17.80690893465161,14,16,0.0,15,375792316228733,551,14.4,-235.33480834960938,14.780500411987305,0,0.0,0.0,,,,,0,,5,,
Raw,4608221,4628015000000,,,-1278313578426112256,0.0,99.31751992553473,9.080723697090406,17.80690893465161,14,19,0.0,15,375792355011706,11,33.4,-467.1878662109375,0.04540000110864639,0,0.0,0.0,,,,,0,,5,,
Raw,4608221,4628015000000,,,-1278313578426112256,0.0,99.31751992553473,9.080723697090406,17.80690893465161,14,20,0.0,15,375792365864379,260,18.6,-146.37249755859375,9.92400074005127,0,0.0,0.0,,,,,0,,5,,
Raw,4608222,4628015000000,,,-1278313578426112256,0.0,99.31751992553473,9.080723697090406,17.80690893465161,14,27,0.0,15,375792363955790,70,17.4,410.8396911621094,1.0010000467300415,0,0.0,0.0,,,,,0,,5,,
Raw,4608222,4628015000000,,,-1278313578426112256,0.0,99.31751992553473,9.080723697090406,17.80690893465161,14,29,0.0,15,375792359177165,204,14.3,-543.3565673828125,7.285000324249268,0,0.0,0.0,,,,,0,,5,,
Raw,4608222,4628015000000,,,-1278313578426112256,0.0,99.31751992553473,9.080723697090406,17.80690893465161,14,30,0.0,15,375792369355266,1250,14.7,-117.19210052490234,23.30500030517578,0,0.0,0.0,,,,,0,,5,,
Raw,4608222,4628015000000,,,-1278313578426112256,0.0,99.31751992553473,9.080723697090406,17.80690893465161,14,4,0.0,7183,375806358279159,220,13.1,-380.8727722167969,7.2835001945495605,0,0.0,0.0,,,,,0,,6,,
Raw,4608223,4628015000000,,,-1278313578426112256,0.0,99.31751992553473,9.080723697090406,17.80690893465161,14,24,0.0,7183,375806351777117,19,27.9,305.1864318847656,0.06379999965429306,0,0.0,0.0,,,,,0,,6,,
Raw,4608223,4628015000000,,,-1278313578426112256,0.0,99.31751992553473,9.080723697090406,17.80690893465161,14,31,0.0,7183,375806346221112,21,26.4,307.5554504394531,0.13819999992847443,0,0.0,0.0,,,,,0,,6,,
Fix,gps,22.925222,120.294558,43.396362,0.000000,11.792000,1594282989000
NMEA,$GPGSV,4,1,13,02,56,012,14,05,55,312,18,06,40,074,16,12,20,253,22*76,1594282988456
NMEA,$GPGSV,4,2,13,13,38,182,21,15,14,208,31,17,14,150,14,19,33,150,14*7E,1594282988456
NMEA,$GPGSV,4,3,13,25,09,281,28,29,10,322,24,07,06,081,,09,11,039,*77,1594282988456
NMEA,$GPGSV,4,4,13,30,11,112,*4A,1594282988456
NMEA,$GLGSV,2,1,06,70,18,026,11,65,07,220,29,85,51,108,21,71,65,352,19*6F,1594282988457
NMEA,$GLGSV,2,2,06,72,49,234,16,84,01,136,*60,1594282988457
NMEA,$GAGSV,2,1,05,04,45,210,13,24,04,255,28,31,04,210,26,11,09,314,*6E,1594282988458
NMEA,$GAGSV,2,2,05,33,50,088,*58,1594282988458
NMEA,$PQGSV,1,1,02,195,68,147,19,194,11,158,,0,5*61,1594282988459
NMEA,$PQGSV,4,1,16,05,17,258,23,07,18,194,17,09,28,192,20,10,23,219,15,0,4*65,1594282988460
NMEA,$PQGSV,4,2,16,16,47,181,14,19,10,233,33,20,56,258,19,27,42,132,17,0,4*6B,1594282988463
NMEA,$PQGSV,4,3,16,29,23,322,14,30,78,340,15,01,50,130,,03,62,203,,0,4*68,1594282988463
NMEA,$PQGSV,4,4,16,04,37,113,,06,52,174,,08,51,009,,13,42,333,,0,4*6E,1594282988464
NMEA,$GNGSA,A,3,02,06,12,13,15,17,19,25,29,,,,1.1,0.7,0.8,1*3D,1594282988465
NMEA,$GNGSA,A,3,65,71,72,85,,,,,,,,,1.1,0.7,0.8,2*30,1594282988465
NMEA,$GNGSA,A,2,04,31,,,,,,,,,,,1.1,0.7,0.8,3*3B,1594282988465
NMEA,$PQGSA,A,3,05,07,09,10,,,,,,,,,1.1,0.7,0.8,4*39,1594282988466
NMEA,$GNVTG,,T,,M,0.0,N,0.0,K,A*3D,1594282988466
NMEA,$GNRMC,082309.00,A,2255.513322,N,12017.673459,E,0.0,,090720,2.8,W,A*1A,1594282988466
NMEA,$GNGGA,082309.00,2255.513322,N,12017.673459,E,1,12,0.7,25.9,M,17.5,M,,*40,1594282988466
Raw,4609109,4629015000000,,,-1278313578426112256,0.0,102.76545071974397,8.826074637683783,18.01943923479379,14,6,0.0,207,40989365366007,2589,10.6,715.379150390625,33.94900131225586,0,0.0,0.0,,,,,0,,3,,
Raw,4609109,4629015000000,,,-1278313578426112256,0.0,102.76545071974397,8.826074637683783,18.01943923479379,14,1,0.0,207,40989362032442,14,30.0,-664.1697998046875,0.2287999987602234,0,0.0,0.0,,,,,0,,3,,
Raw,4609110,4629015000000,,,-1278313578426112256,0.0,102.76545071974397,8.826074637683783,18.01943923479379,14,21,0.0,207,40989373605917,35,22.3,243.7115936279297,0.9459999799728394,0,0.0,0.0,,,,,0,,3,,
Raw,4609110,4629015000000,,,-1278313578426112256,0.0,102.76545071974397,8.826074637683783,18.01943923479379,14,7,0.0,207,40989375644782,61,18.3,324.8411560058594,1.2190001010894775,0,0.0,0.0,,,,,0,,3,,
Raw,4609111,4629015000000,,,-1278313578426112256,0.0,102.76545071974397,8.826074637683783,18.01943923479379,14,8,0.0,207,40989373298345,90,16.1,-335.48370361328125,2.886000156402588,0,0.0,0.0,,,,,0,,3,,
Raw,4609111,4629015000000,,,-1278313578426112256,0.0,102.76545071974397,8.826074637683783,18.01943923479379,14,2,0.0,15,375807369141545,70,17.9,-196.89688110351562,1.0899999141693115,0,0.0,0.0,,,,,0,,1,,
Raw,4609112,4629015000000,,,-1278313578426112256,0.0,102.76545071974397,8.826074637683783,18.01943923479379,14,5,0.0,15,375807371470127,420,17.7,27.75433349609375,13.093000411987305,0,0.0,0.0,,,,,0,,1,,
Raw,4609112,4629015000000,,,-1278313578426112256,0.0,102.76545071974397,8.826074637683783,18.01943923479379,14,6,0.0,15,375807367395140,398,15.5,161.5022430419922,12.35200023651123,0,0.0,0.0,,,,,0,,1,,
Raw,4609113,4629015000000,,,-1278313578426112256,0.0,102.76545071974397,8.826074637683783,18.01943923479379,14,12,0.0,15,375807361921629,31,23.2,331.6533203125,0.7279999852180481,0,0.0,0.0,,,,,0,,1,,
Raw,4609113,4629015000000,,,-1278313578426112256,0.0,102.76545071974397,8.826074637683783,18.01943923479379,14,13,0.0,15,375807367908541,31,23.0,-587.5126953125,0.7369999885559082,0,0.0,0.0,,,,,0,,1,,
Raw,4609114,4629015000000,,,-1278313578426112256,0.0,102.76545071974397,8.826074637683783,18.01943923479379,14,15,0.0,15,375807360601170,14,30.7,-713.718017578125,0.025800000876188278,0,0.0,0.0,,,,,0,,1,,
Raw,4609115,4629015000000,,,-1278313578426112256,0.0,102.76545071974397,8.826074637683783,18.01943923479379,14,17,0.0,15,375807361431373,425,14.4,673.1829223632812,12.72800064086914,0,0.0,0.0,,,,,0,,1,,
Raw,4609115,4629015000000,,,-1278313578426112256,0.0,102.76545071974397,8.826074637683783,18.01943923479379,14,19,0.0,15,375807365671045,141,13.8,632.57421875,3.7340002059936523,0,0.0,0.0,,,,,0,,1,,
Raw,4609116,4629015000000,,,-1278313578426112256,0.0,102.76545071974397,8.826074637683783,18.01943923479379,14,25,0.0,15,375807358619457,17,28.4,144.2806396484375,0.06030000001192093,0,0.0,0.0,,,,,0,,1,,
Raw,4609116,4629015000000,,,-1278313578426112256,0.0,102.76545071974397,8.826074637683783,18.01943923479379,14,29,0.0,15,375807359525115,24,25.0,-649.0369262695312,0.41030001640319824,0,0.0,0.0,,,,,0,,1,,
Raw,4609117,4629015000000,,,-1278313578426112256,0.0,102.76545071974397,8.826074637683783,18.01943923479379,14,5,0.0,783,375793307963236,38,23.3,4.580142021179199,2.115000009536743,0,0.0,0.0,,,,,0,,5,,
Raw,4609117,4629015000000,,,-1278313578426112256,0.0,102.76545071974397,8.826074637683783,18.01943923479379,14,6,0.0,15,375793318198038,1704,11.3,-201.5262451171875,9.993500709533691,0,0.0,0.0,,,,,0,,5,,
Raw,4609118,4629015000000,,,-1278313578426112256,0.0,102.76545071974397,8.826074637683783,18.01943923479379,14,7,0.0,15,375793309696727,53,19.2,269.633056640625,0.8600000143051147,0,0.0,0.0,,,,,0,,5,,
Raw,4609119,4629015000000,,,-1278313578426112256,0.0,102.76545071974397,8.826074637683783,18.01943923479379,14,9,0.0,15,375793312581151,35,22.2,-247.9901885986328,0.684499979019165,0,0.0,0.0,,,,,0,,5,,
Raw,4609120,4629015000000,,,-1278313578426112256,0.0,102.76545071974397,8.826074637683783,18.01943923479379,14,10,0.0,15,375793311244397,400,15.3,309.1739807128906,12.358000755310059,0,0.0,0.0,,,,,0,,5,,
Raw,4609120,4629015000000,,,-1278313578426112256,0.0,102.76545071974397,8.826074637683783,18.01943923479379,14,16,0.0,15,375793316229518,651,14.4,-235.33480834960938,16.280500411987305,0,0.0,0.0,,,,,0,,5,,
Raw,4609121,4629015000000,,,-1278313578426112256,0.0,102.76545071974397,8.826074637683783,18.01943923479379,14,19,0.0,15,375793355013255,11,33.4,-467.50048828125,0.04540000110864639,0,0.0,0.0,,,,,0,,5,,
Raw,4609121,4629015000000,,,-1278313578426112256,0.0,102.76545071974397,8.826074637683783,18.01943923479379,14,20,0.0,15,375793365864867,328,18.6,-146.37249755859375,11.42400074005127,0,0.0,0.0,,,,,0,,5,,
Raw,4609122,4629015000000,,,-1278313578426112256,0.0,102.76545071974397,8.826074637683783,18.01943923479379,14,27,0.0,15,375793363954465,40,21.4,411.0797424316406,0.7310000061988831,0,0.0,0.0,,,,,0,,5,,
Raw,4609122,4629015000000,,,-1278313578426112256,0.0,102.76545071974397,8.826074637683783,18.01943923479379,14,29,0.0,15,375793359178977,254,14.3,-543.3565673828125,8.785000801086426,0,0.0,0.0,,,,,0,,5,,
Raw,4609123,4629015000000,,,-1278313578426112256,0.0,102.76545071974397,8.826074637683783,18.01943923479379,14,30,0.0,15,375793369355657,1406,14.7,-117.19210052490234,24.80500030517578,0,0.0,0.0,,,,,0,,5,,
Raw,4609123,4629015000000,,,-1278313578426112256,0.0,102.76545071974397,8.826074637683783,18.01943923479379,14,4,0.0,7183,375807358280429,269,13.1,-380.8727722167969,8.783500671386719,0,0.0,0.0,,,,,0,,6,,
Raw,4609124,4629015000000,,,-1278313578426112256,0.0,102.76545071974397,8.826074637683783,18.01943923479379,14,24,0.0,7183,375807351776103,19,27.8,306.178955078125,0.06379999965429306,0,0.0,0.0,,,,,0,,6,,
Raw,4609125,4629015000000,,,-1278313578426112256,0.0,102.76545071974397,8.826074637683783,18.01943923479379,14,31,0.0,7183,375807346220080,19,27.4,307.51837158203125,0.06830000132322311,0,0.0,0.0,,,,,0,,6,,
Fix,gps,22.925232,120.294571,47.106873,0.800000,12.864000,1594282990000
NMEA,$GPGSV,4,1,13,02,56,012,18,05,55,312,18,06,40,074,16,12,20,253,23*7B,1594282989469
NMEA,$GPGSV,4,2,13,13,38,182,23,15,14,208,31,17,14,150,14,19,33,150,14*7C,1594282989470
NMEA,$GPGSV,4,3,13,25,09,281,28,29,10,322,25,07,06,081,,09,11,039,*76,1594282989470
NMEA,$GPGSV,4,4,13,30,11,112,*4A,1594282989471
NMEA,$GLGSV,2,1,06,70,18,026,11,65,07,220,30,85,51,108,22,71,65,352,18*65,1594282989473
NMEA,$GLGSV,2,2,06,72,49,234,16,84,01,136,*60,1594282989475
NMEA,$GAGSV,2,1,05,04,45,210,13,24,04,255,28,31,04,210,27,11,09,314,*6F,1594282989475
NMEA,$GAGSV,2,2,05,33,50,088,*58,1594282989476
NMEA,$PQGSV,1,1,02,195,68,147,19,194,11,158,,0,5*61,1594282989476
NMEA,$PQGSV,4,1,16,05,17,258,23,06,52,174,11,07,18,194,19,09,28,192,22,0,4*64,1594282989477
NMEA,$PQGSV,4,2,16,10,23,219,15,16,47,181,14,19,10,233,33,20,56,258,19,0,4*60,1594282989477
NMEA,$PQGSV,4,3,16,27,42,132,21,29,23,322,14,30,78,340,15,01,50,130,,0,4*6E,1594282989478
NMEA,$PQGSV,4,4,16,03,62,203,,04,37,113,,08,51,009,,13,42,333,,0,4*6B,1594282989479
NMEA,$GNGSA,A,3,02,06,12,13,15,17,19,25,29,,,,1.1,0.7,0.8,1*3D,1594282989483
NMEA,$GNGSA,A,3,65,71,72,85,,,,,,,,,1.1,0.7,0.8,2*30,1594282989484
NMEA,$GNGSA,A,2,04,31,,,,,,,,,,,1.1,0.7,0.8,3*3B,1594282989484
NMEA,$PQGSA,A,3,05,07,09,10,,,,,,,,,1.1,0.7,0.8,4*39,1594282989485
NMEA,$GNVTG,46.5,T,46.5,M,1.6,N,2.9,K,A*31,1594282989485
NMEA,$GNRMC,082310.00,A,2255.513934,N,12017.674235,E,1.6,46.5,090720,2.8,W,A*0A,1594282989485
NMEA,$GNGGA,082310.00,2255.513934,N,12017.674235,E,1,12,0.7,29.6,M,17.5,M,,*4D,1594282989485
Fix,gps,22.925237,120.294573,47.781616,0.000000,12.864000,1594282991000
NMEA,$GPGSV,4,1,13,02,56,012,20,05,55,312,18,06,40,074,16,12,20,253,23*70,1594282990454
NMEA,$GPGSV,4,2,13,13,38,182,23,15,14,208,30,17,14,150,14,19,33,150,14*7D,1594282990454
Raw,4610073,4630015000000,,,-1278313578426112256,0.0,107.63676255010068,7.089610469407168,18.28572083685937,14,6,0.0,207,40990365363621,2814,10.6,715.379150390625,35.44900131225586,0,0.0,0.0,,,,,0,,3,,
Raw,4610074,4630015000000,,,-1278313578426112256,0.0,107.63676255010068,7.089610469407168,18.28572083685937,14,1,0.0,207,40990362034728,17,28.5,-666.6264038085938,0.659500002861023,0,0.0,0.0,,,,,0,,3,,
Raw,4610074,4630015000000,,,-1278313578426112256,0.0,107.63676255010068,7.089610469407168,18.28572083685937,14,21,0.0,207,40990373604939,46,20.4,241.58123779296875,1.065999984741211,0,0.0,0.0,,,,,0,,3,,
Raw,4610075,4630015000000,,,-1278313578426112256,0.0,107.63676255010068,7.089610469407168,18.28572083685937,14,7,0.0,207,40990375643698,70,18.3,324.8411560058594,2.7190001010894775,0,0.0,0.0,,,,,0,,3,,
Raw,4610075,4630015000000,,,-1278313578426112256,0.0,107.63676255010068,7.089610469407168,18.28572083685937,14,8,0.0,207,40990373299098,110,14.4,-335.2502746582031,2.326000213623047,0,0.0,0.0,,,,,0,,3,,
Raw,4610076,4630015000000,,,-1278313578426112256,0.0,107.63676255010068,7.089610469407168,18.28572083685937,14,2,0.0,15,375808369142168,53,19.5,-199.0186309814453,0.9300000071525574,0,0.0,0.0,,,,,0,,1,,
Raw,4610076,4630015000000,,,-1278313578426112256,0.0,107.63676255010068,7.089610469407168,18.28572083685937,14,5,0.0,15,375808371470034,509,17.7,27.75433349609375,14.593000411987305,0,0.0,0.0,,,,,0,,1,,
Raw,4610077,4630015000000,,,-1278313578426112256,0.0,107.63676255010068,7.089610469407168,18.28572083685937,14,6,0.0,15,375808367394602,481,15.5,161.5022430419922,13.85200023651123,0,0.0,0.0,,,,,0,,1,,
Raw,4610077,4630015000000,,,-1278313578426112256,0.0,107.63676255010068,7.089610469407168,18.28572083685937,14,12,0.0,15,375808361920516,35,22.6,327.9235534667969,0.7279999852180481,0,0.0,0.0,,,,,0,,1,,
Raw,4610078,4630015000000,,,-1278313578426112256,0.0,107.63676255010068,7.089610469407168,18.28572083685937,14,13,0.0,15,375808367910496,35,22.6,-590.5098266601562,0.7369999885559082,0,0.0,0.0,,,,,0,,1,,
Raw,4610078,4630015000000,,,-1278313578426112256,0.0,107.63676255010068,7.089610469407168,18.28572083685937,14,15,0.0,15,375808360603551,14,30.0,-716.597900390625,0.025800000876188278,0,0.0,0.0,,,,,0,,1,,
Raw,4610079,4630015000000,,,-1278313578426112256,0.0,107.63676255010068,7.089610469407168,18.28572083685937,14,17,0.0,15,375808361429127,510,14.4,673.1829223632812,14.22800064086914,0,0.0,0.0,,,,,0,,1,,
Raw,4610079,4630015000000,,,-1278313578426112256,0.0,107.63676255010068,7.089610469407168,18.28572083685937,14,19,0.0,15,375808365668935,166,13.8,632.57421875,5.234000205993652,0,0.0,0.0,,,,,0,,1,,
Raw,4610080,4630015000000,,,-1278313578426112256,0.0,107.63676255010068,7.089610469407168,18.28572083685937,14,25,0.0,15,375808358618962,19,27.5,141.5975341796875,0.5234999656677246,0,0.0,0.0,,,,,0,,1,,
Raw,4610080,4630015000000,,,-1278313578426112256,0.0,107.63676255010068,7.089610469407168,18.28572083685937,14,29,0.0,15,375808359527220,31,23.7,-651.69873046875,0.6949999928474426,0,0.0,0.0,,,,,0,,1,,
Raw,4610081,4630015000000,,,-1278313578426112256,0.0,107.63676255010068,7.089610469407168,18.28572083685937,14,5,0.0,783,375794307963221,55,23.3,4.580142021179199,3.6150002479553223,0,0.0,0.0,,,,,0,,5,,
Raw,4610081,4630015000000,,,-1278313578426112256,0.0,107.63676255010068,7.089610469407168,18.28572083685937,14,6,0.0,15,375794318198729,395,11.4,-201.64146423339844,11.118500709533691,0,0.0,0.0,,,,,0,,5,,
Raw,4610082,4630015000000,,,-1278313578426112256,0.0,107.63676255010068,7.089610469407168,18.28572083685937,14,7,0.0,15,375794309695805,61,18.4,266.77166748046875,0.9300000071525574,0,0.0,0.0,,,,,0,,5,,
Raw,4610082,4630015000000,,,-1278313578426112256,0.0,107.63676255010068,7.089610469407168,18.28572083685937,14,9,0.0,15,375794312581959,35,22.2,-250.88999938964844,0.684499979019165,0,0.0,0.0,,,,,0,,5,,
Raw,4610083,4630015000000,,,-1278313578426112256,0.0,107.63676255010068,7.089610469407168,18.28572083685937,14,10,0.0,15,375794311243366,484,15.3,309.1739807128906,13.858000755310059,0,0.0,0.0,,,,,0,,5,,
Raw,4610083,4630015000000,,,-1278313578426112256,0.0,107.63676255010068,7.089610469407168,18.28572083685937,14,16,0.0,15,375794316230303,760,14.4,-235.33480834960938,17.780500411987305,0,0.0,0.0,,,,,0,,5,,
Raw,4610084,4630015000000,,,-1278313578426112256,0.0,107.63676255010068,7.089610469407168,18.28572083685937,14,19,0.0,15,375794355014841,12,32.4,-470.3192443847656,0.046400003135204315,0,0.0,0.0,,,,,0,,5,,
Raw,4610085,4630015000000,,,-1278313578426112256,0.0,107.63676255010068,7.089610469407168,18.28572083685937,14,20,0.0,15,375794365865355,406,18.6,-146.37249755859375,12.92400074005127,0,0.0,0.0,,,,,0,,5,,
Raw,4610085,4630015000000,,,-1278313578426112256,0.0,107.63676255010068,7.089610469407168,18.28572083685937,14,27,0.0,15,375794363953102,53,19.1,407.9111022949219,0.8510000109672546,0,0.0,0.0,,,,,0,,5,,
Raw,4610086,4630015000000,,,-1278313578426112256,0.0,107.63676255010068,7.089610469407168,18.28572083685937,14,29,0.0,15,375794359180790,313,14.3,-543.3565673828125,10.285000801086426,0,0.0,0.0,,,,,0,,5,,
Raw,4610086,4630015000000,,,-1278313578426112256,0.0,107.63676255010068,7.089610469407168,18.28572083685937,14,30,0.0,15,375794369356048,1572,14.7,-117.19210052490234,26.30500030517578,0,0.0,0.0,,,,,0,,5,,
Raw,4610087,4630015000000,,,-1278313578426112256,0.0,107.63676255010068,7.089610469407168,18.28572083685937,14,4,0.0,7183,375808358281700,328,13.1,-380.8727722167969,10.283500671386719,0,0.0,0.0,,,,,0,,6,,
Raw,4610087,4630015000000,,,-1278313578426112256,0.0,107.63676255010068,7.089610469407168,18.28572083685937,14,24,0.0,7183,375808351775089,21,26.3,301.7106018066406,0.4790000021457672,0,0.0,0.0,,,,,0,,6,,
Raw,4610088,4630015000000,,,-1278313578426112256,0.0,107.63676255010068,7.089610469407168,18.28572083685937,14,31,0.0,7183,375808346219071,24,25.9,303.6611328125,0.5234999656677246,0,0.0,0.0,,,,,0,,6,,
NMEA,$GPGSV,4,3,13,25,09,281,28,29,10,322,24,07,06,081,,09,11,039,*77,1594282990454
NMEA,$GPGSV,4,4,13,30,11,112,*4A,1594282990454
NMEA,$GLGSV,2,1,06,70,18,026,11,65,07,220,29,85,51,108,20,71,65,352,18*6F,1594282990455
NMEA,$GLGSV,2,2,06,72,49,234,14,84,01,136,*62,1594282990455
NMEA,$GAGSV,2,1,05,04,45,210,13,24,04,255,26,31,04,210,26,11,09,314,*60,1594282990456
NMEA,$GAGSV,2,2,05,33,50,088,*58,1594282990456
NMEA,$PQGSV,1,1,02,195,68,147,19,194,11,158,,0,5*61,1594282990456
NMEA,$PQGSV,4,1,16,05,17,258,23,06,52,174,11,07,18,194,18,09,28,192,22,0,4*65,1594282990456
NMEA,$PQGSV,4,2,16,10,23,219,15,16,47,181,14,19,10,233,32,20,56,258,19,0,4*61,1594282990457
NMEA,$PQGSV,4,3,16,27,42,132,19,29,23,322,14,30,78,340,15,01,50,130,,0,4*65,1594282990457
NMEA,$PQGSV,4,4,16,03,62,203,,04,37,113,,08,51,009,,13,42,333,,0,4*6B,1594282990457
NMEA,$GNGSA,A,3,02,06,12,13,15,19,25,29,,,,,1.1,0.7,0.8,1*3B,1594282990458
NMEA,$GNGSA,A,3,65,71,72,85,,,,,,,,,1.1,0.7,0.8,2*30,1594282990458
NMEA,$GNGSA,A,2,04,31,,,,,,,,,,,1.1,0.7,0.8,3*3B,1594282990459
NMEA,$PQGSA,A,3,05,06,07,09,10,,,,,,,,1.1,0.7,0.8,4*3F,1594282990460
NMEA,$GNVTG,,T,,M,0.0,N,0.0,K,A*3D,1594282990460
NMEA,$GNRMC,082311.00,A,2255.514248,N,12017.674384,E,0.0,,090720,2.8,W,A*19,1594282990460
NMEA,$GNGGA,082311.00,2255.514248,N,12017.674384,E,1,12,0.7,30.3,M,17.5,M,,*4D,1594282990461
Raw,4611139,4631015000000,,,-1278313578426112256,0.0,118.42979438370094,0.1488987529332526,21.04908236262808,14,6,0.0,207,40991365361234,3048,10.6,715.379150390625,36.94900131225586,0,0.0,0.0,,,,,0,,3,,
Raw,4611140,4631015000000,,,-1278313578426112256,0.0,118.42979438370094,0.1488987529332526,21.04908236262808,14,1,0.0,207,40991362036960,16,29.0,-667.1957397460938,0.2296999990940094,0,0.0,0.0,,,,,0,,3,,
Raw,4611141,4631015000000,,,-1278313578426112256,0.0,118.42979438370094,0.1488987529332526,21.04908236262808,14,21,0.0,207,40991373604029,27,24.7,241.1327362060547,0.8360000252723694,0,0.0,0.0,,,,,0,,3,,
Raw,4611141,4631015000000,,,-1278313578426112256,0.0,118.42979438370094,0.1488987529332526,21.04908236262808,14,7,0.0,207,40991375642393,64,18.2,322.85162353515625,1.9690001010894775,0,0.0,0.0,,,,,0,,3,,
Raw,4611142,4631015000000,,,-1278313578426112256,0.0,118.42979438370094,0.1488987529332526,21.04908236262808,14,8,0.0,207,40991373300217,126,14.4,-335.2502746582031,3.826000213623047,0,0.0,0.0,,,,,0,,3,,
Raw,4611143,4631015000000,,,-1278313578426112256,0.0,118.42979438370094,0.1488987529332526,21.04908236262808,14,2,0.0,15,375809369142981,35,22.0,-199.6085662841797,0.800000011920929,0,0.0,0.0,,,,,0,,1,,
Raw,4611144,4631015000000,,,-1278313578426112256,0.0,118.42979438370094,0.1488987529332526,21.04908236262808,14,5,0.0,15,375809371469942,608,17.7,27.75433349609375,16.093000411987305,0,0.0,0.0,,,,,0,,1,,
Raw,4611145,4631015000000,,,-1278313578426112256,0.0,118.42979438370094,0.1488987529332526,21.04908236262808,14,6,0.0,15,375809367394097,139,13.5,161.09310913085938,3.632000207901001,0,0.0,0.0,,,,,0,,1,,
Raw,4611146,4631015000000,,,-1278313578426112256,0.0,118.42979438370094,0.1488987529332526,21.04908236262808,14,12,0.0,15,375809361919377,24,25.9,328.0780944824219,0.3833000063896179,0,0.0,0.0,,,,,0,,1,,
Raw,4611147,4631015000000,,,-1278313578426112256,0.0,118.42979438370094,0.1488987529332526,21.04908236262808,14,13,0.0,15,375809367912452,53,19.6,-589.853271484375,0.9269999861717224,0,0.0,0.0,,,,,0,,1,,
Raw,4611147,4631015000000,,,-1278313578426112256,0.0,118.42979438370094,0.1488987529332526,21.04908236262808,14,15,0.0,15,375809360605919,12,32.7,-716.82958984375,0.023900000378489494,0,0.0,0.0,,,,,0,,1,,
Raw,4611148,4631015000000,,,-1278313578426112256,0.0,118.42979438370094,0.1488987529332526,21.04908236262808,14,17,0.0,15,375809361426882,605,14.4,673.1829223632812,15.72800064086914,0,0.0,0.0,,,,,0,,1,,
Raw,4611149,4631015000000,,,-1278313578426112256,0.0,118.42979438370094,0.1488987529332526,21.04908236262808,14,19,0.0,15,375809365666825,201,13.8,632.57421875,6.734000205993652,0,0.0,0.0,,,,,0,,1,,
Raw,4611149,4631015000000,,,-1278313578426112256,0.0,118.42979438370094,0.1488987529332526,21.04908236262808,14,25,0.0,15,375809358618506,17,28.3,141.19772338867188,0.06030000001192093,0,0.0,0.0,,,,,0,,1,,
Raw,4611150,4631015000000,,,-1278313578426112256,0.0,118.42979438370094,0.1488987529332526,21.04908236262808,14,29,0.0,15,375809359529449,24,25.6,-652.0925903320312,0.41030001640319824,0,0.0,0.0,,,,,0,,1,,
Raw,4611151,4631015000000,,,-1278313578426112256,0.0,118.42979438370094,0.1488987529332526,21.04908236262808,14,5,0.0,783,375795307963205,82,23.3,4.580142021179199,5.115000247955322,0,0.0,0.0,,,,,0,,5,,
Raw,4611152,4631015000000,,,-1278313578426112256,0.0,118.42979438370094,0.1488987529332526,21.04908236262808,14,6,0.0,15,375795318199402,469,11.4,-201.64146423339844,12.618500709533691,0,0.0,0.0,,,,,0,,5,,
Raw,4611152,4631015000000,,,-1278313578426112256,0.0,118.42979438370094,0.1488987529332526,21.04908236262808,14,7,0.0,15,375795309694902,46,20.1,265.5714111328125,0.800000011920929,0,0.0,0.0,,,,,0,,5,,
Raw,4611153,4631015000000,,,-1278313578426112256,0.0,118.42979438370094,0.1488987529332526,21.04908236262808,14,9,0.0,15,375795312582791,31,23.0,-250.7171630859375,0.6345000267028809,0,0.0,0.0,,,,,0,,5,,
Raw,4611154,4631015000000,,,-1278313578426112256,0.0,118.42979438370094,0.1488987529332526,21.04908236262808,14,10,0.0,15,375795311242335,578,15.3,309.1739807128906,15.358000755310059,0,0.0,0.0,,,,,0,,5,,
Raw,4611155,4631015000000,,,-1278313578426112256,0.0,118.42979438370094,0.1488987529332526,21.04908236262808,14,16,0.0,15,375795316231088,880,14.4,-235.33480834960938,19.280500411987305,0,0.0,0.0,,,,,0,,5,,
Raw,4611156,4631015000000,,,-1278313578426112256,0.0,118.42979438370094,0.1488987529332526,21.04908236262808,14,19,0.0,15,375795355016396,13,31.2,-470.5328369140625,0.047700002789497375,0,0.0,0.0,,,,,0,,5,,
Raw,4611157,4631015000000,,,-1278313578426112256,0.0,118.42979438370094,0.1488987529332526,21.04908236262808,14,20,0.0,15,375795365865843,494,18.6,-146.37249755859375,14.42400074005127,0,0.0,0.0,,,,,0,,5,,
Raw,4611158,4631015000000,,,-1278313578426112256,0.0,118.42979438370094,0.1488987529332526,21.04908236262808,14,27,0.0,15,375795363951683,80,16.2,406.5379943847656,1.0809999704360962,0,0.0,0.0,,,,,0,,5,,
Raw,4611158,4631015000000,,,-1278313578426112256,0.0,118.42979438370094,0.1488987529332526,21.04908236262808,14,29,0.0,15,375795359182602,383,14.3,-543.3565673828125,11.785000801086426,0,0.0,0.0,,,,,0,,5,,
Raw,4611159,4631015000000,,,-1278313578426112256,0.0,118.42979438370094,0.1488987529332526,21.04908236262808,14,30,0.0,15,375795369356438,1749,14.7,-117.19210052490234,27.805002212524414,0,0.0,0.0,,,,,0,,5,,
Raw,4611160,4631015000000,,,-1278313578426112256,0.0,118.42979438370094,0.1488987529332526,21.04908236262808,14,4,0.0,7183,375809358282970,398,13.1,-380.8727722167969,11.783500671386719,0,0.0,0.0,,,,,0,,6,,
Raw,4611161,4631015000000,,,-1278313578426112256,0.0,118.42979438370094,0.1488987529332526,21.04908236262808,14,24,0.0,7183,375809351774084,21,26.4,301.7106018066406,0.4790000021457672,0,0.0,0.0,,,,,0,,6,,
Raw,4611162,4631015000000,,,-1278313578426112256,0.0,118.42979438370094,0.1488987529332526,21.04908236262808,14,31,0.0,7183,375809346218060,27,24.8,304.06072998046875,0.5534999966621399,0,0.0,0.0,,,,,0,,6,,
Fix,gps,22.925240,120.294564,46.705078,0.690000,12.864000,1594282992000
NMEA,$GPGSV,4,1,13,02,56,012,22,05,55,312,18,06,40,074,14,12,20,253,26*75,1594282991455
NMEA,$GPGSV,4,2,13,13,38,182,20,15,14,208,33,17,14,150,14,19,33,150,14*7D,1594282991455
NMEA,$GPGSV,4,3,13,25,09,281,28,29,10,322,26,07,06,081,,09,11,039,*75,1594282991456
NMEA,$GPGSV,4,4,13,30,11,112,*4A,1594282991456
NMEA,$GLGSV,2,1,06,70,18,026,11,65,07,220,29,85,51,108,25,71,65,352,18*6A,1594282991456
NMEA,$GLGSV,2,2,06,72,49,234,14,84,01,136,*62,1594282991456
NMEA,$GAGSV,2,1,05,04,45,210,13,24,04,255,26,31,04,210,25,11,09,314,*63,1594282991457
NMEA,$GAGSV,2,2,05,33,50,088,*58,1594282991457
NMEA,$PQGSV,1,1,02,195,68,147,19,194,11,158,,0,5*61,1594282991457
NMEA,$PQGSV,4,1,16,05,17,258,23,06,52,174,11,07,18,194,20,09,28,192,23,0,4*6F,1594282991457
NMEA,$PQGSV,4,2,16,10,23,219,15,16,47,181,14,19,10,233,31,20,56,258,19,0,4*62,1594282991457
NMEA,$PQGSV,4,3,16,27,42,132,16,29,23,322,14,30,78,340,15,01,50,130,,0,4*6A,1594282991458
NMEA,$PQGSV,4,4,16,03,62,203,,04,37,113,,08,51,009,,13,42,333,,0,4*6B,1594282991458
NMEA,$GNGSA,A,3,02,06,12,13,15,19,25,29,,,,,1.1,0.7,0.8,1*3B,1594282991459
NMEA,$GNGSA,A,3,65,71,72,85,,,,,,,,,1.1,0.7,0.8,2*30,1594282991459
NMEA,$GNGSA,A,2,04,31,,,,,,,,,,,1.1,0.7,0.8,3*3B,1594282991459
NMEA,$PQGSA,A,3,05,06,07,09,10,,,,,,,,1.1,0.7,0.8,4*3F,1594282991459
NMEA,$GNVTG,326.8,T,326.8,M,1.3,N,2.5,K,A*38,1594282991459
NMEA,$GNRMC,082312.00,A,2255.514415,N,12017.673865,E,1.3,326.8,090720,2.8,W,A*34,1594282991460
NMEA,$GNGGA,082312.00,2255.514415,N,12017.673865,E,1,12,0.7,29.2,M,17.5,M,,*4A,1594282991460
Fix,gps,22.925242,120.294554,45.250366,0.500000,12.864000,1594282993000
NMEA,$GPGSV,4,1,13,02,56,012,22,05,55,312,18,06,40,074,14,12,20,253,27*74,1594282992456
