# 
# Header Description:
# 
# Version: v2.0.0.1 Platform: 8.0.0 Manufacturer: Sony Model: G8142
# 
# Raw,ElapsedRealtimeMillis,TimeNanos,LeapSecond,TimeUncertaintyNanos,FullBiasNanos,BiasNanos,BiasUncertaintyNanos,DriftNanosPerSecond,DriftUncertaintyNanosPerSecond,HardwareClockDiscontinuityCount,Svid,TimeOffsetNanos,State,ReceivedSvTimeNanos,ReceivedSvTimeUncertaintyNanos,Cn0DbHz,PseudorangeRateMetersPerSecond,PseudorangeRateUncertaintyMetersPerSecond,AccumulatedDeltaRangeState,AccumulatedDeltaRangeMeters,AccumulatedDeltaRangeUncertaintyMeters,CarrierFrequencyHz,CarrierCycles,CarrierPhase,CarrierPhaseUncertainty,MultipathIndicator,SnrInDb,ConstellationType,AgcDb,CarrierFrequencyHz
# 
# Fix,Provider,Latitude,Longitude,Altitude,Speed,Accuracy,(UTC)TimeInMs
# 
# Nav,Svid,Type,Status,MessageId,Sub-messageId,Data(Bytes)
# 
Raw,4877241,4897015000000,,,-1278313578426110208,0.0,90.51367669599131,10.942264539609505,16.479525034931104,14,1,0.0,207,41257362619524,31,23.6,-648.6676025390625,0.8694999814033508,0,0.0,0.0,,,,,0,,3,,
Raw,4877241,4897015000000,,,-1278313578426110208,0.0,90.51367669599131,10.942264539609505,16.479525034931104,14,23,0.0,207,41257359551527,27,24.9,-719.4832153320312,0.8450000286102295,0,0.0,0.0,,,,,0,,3,,
Raw,4877242,4897015000000,,,-1278313578426110208,0.0,90.51367669599131,10.942264539609505,16.479525034931104,14,21,0.0,207,41257373373124,118,18.8,279.0027160644531,5.716000080108643,0,0.0,0.0,,,,,0,,3,,
Raw,4877242,4897015000000,,,-1278313578426110208,0.0,90.51367669599131,10.942264539609505,16.479525034931104,14,7,0.0,207,41257375341827,295,12.0,354.403564453125,9.319000244140625,0,0.0,0.0,,,,,0,,3,,
Raw,4877242,4897015000000,,,-1278313578426110208,0.0,90.51367669599131,10.942264539609505,16.479525034931104,14,8,0.0,207,41257373584829,123,15.1,-301.851318359375,4.4760003089904785,0,0.0,0.0,,,,,0,,3,,
Raw,4877242,4897015000000,,,-1278313578426110208,0.0,90.51367669599131,10.942264539609505,16.479525034931104,14,2,0.0,15,376075369315005,220,12.5,-189.76084899902344,6.860000133514404,0,0.0,0.0,,,,,0,,1,,
Raw,4877243,4897015000000,,,-1278313578426110208,0.0,90.51367669599131,10.942264539609505,16.479525034931104,14,6,0.0,15,376075367245623,169,15.9,175.4507598876953,6.517000198364258,0,0.0,0.0,,,,,0,,1,,
Raw,4877243,4897015000000,,,-1278313578426110208,0.0,90.51367669599131,10.942264539609505,16.479525034931104,14,12,0.0,15,376075361620294,10,34.6,342.7775573730469,0.023600000888109207,0,0.0,0.0,,,,,0,,1,,
Raw,4877243,4897015000000,,,-1278313578426110208,0.0,90.51367669599131,10.942264539609505,16.479525034931104,14,13,0.0,15,376075368426955,40,21.6,-571.2615966796875,0.7985000014305115,0,0.0,0.0,,,,,0,,1,,
Raw,4877243,4897015000000,,,-1278313578426110208,0.0,90.51367669599131,10.942264539609505,16.479525034931104,14,15,0.0,15,376075361237071,10,34.0,-708.6048583984375,0.023600000888109207,0,0.0,0.0,,,,,0,,1,,
Raw,4877244,4897015000000,,,-1278313578426110208,0.0,90.51367669599131,10.942264539609505,16.479525034931104,14,19,0.0,15,376075365099083,320,12.5,648.5493774414062,9.854000091552734,0,0.0,0.0,,,,,0,,1,,
Raw,4877244,4897015000000,,,-1278313578426110208,0.0,90.51367669599131,10.942264539609505,16.479525034931104,14,25,0.0,15,376075358482060,24,25.0,162.880615234375,0.40880000591278076,0,0.0,0.0,,,,,0,,1,,
Raw,4877244,4897015000000,,,-1278313578426110208,0.0,90.51367669599131,10.942264539609505,16.479525034931104,14,29,0.0,15,376075360101531,19,27.5,-640.202880859375,0.04130000248551369,0,0.0,0.0,,,,,0,,1,,
Raw,4877246,4897015000000,,,-1278313578426110208,0.0,90.51367669599131,10.942264539609505,16.479525034931104,14,5,0.0,783,376061307963620,35,26.0,2.2468619346618652,2.745000123977661,0,0.0,0.0,,,,,0,,5,,
Raw,4877247,4897015000000,,,-1278313578426110208,0.0,90.51367669599131,10.942264539609505,16.479525034931104,14,6,0.0,15,376061318376338,785,13.1,-195.688232421875,17.958499908447266,0,0.0,0.0,,,,,0,,5,,
Raw,4877247,4897015000000,,,-1278313578426110208,0.0,90.51367669599131,10.942264539609505,16.479525034931104,14,7,0.0,15,376061309458679,24,25.0,263.6129150390625,0.3953000009059906,0,0.0,0.0,,,,,0,,5,,
Raw,4877247,4897015000000,,,-1278313578426110208,0.0,90.51367669599131,10.942264539609505,16.479525034931104,14,9,0.0,15,376061312801922,46,20.6,-244.9559783935547,0.8044999837875366,0,0.0,0.0,,,,,0,,5,,
Raw,4877248,4897015000000,,,-1278313578426110208,0.0,90.51367669599131,10.942264539609505,16.479525034931104,14,10,0.0,15,376061310969602,27,24.1,306.85028076171875,0.5914999842643738,0,0.0,0.0,,,,,0,,5,,
Raw,4877248,4897015000000,,,-1278313578426110208,0.0,90.51367669599131,10.942264539609505,16.479525034931104,14,13,0.0,15,376061316030441,927,15.5,-95.32839965820312,6.140500068664551,0,0.0,0.0,,,,,0,,5,,
Raw,4877248,4897015000000,,,-1278313578426110208,0.0,90.51367669599131,10.942264539609505,16.479525034931104,14,16,0.0,15,376061316437420,1436,12.5,-229.6600341796875,8.115500450134277,0,0.0,0.0,,,,,0,,5,,
Raw,4877248,4897015000000,,,-1278313578426110208,0.0,90.51367669599131,10.942264539609505,16.479525034931104,14,19,0.0,15,376061355426444,19,27.3,-456.73553466796875,0.06379999965429306,0,0.0,0.0,,,,,0,,5,,
Raw,4877249,4897015000000,,,-1278313578426110208,0.0,90.51367669599131,10.942264539609505,16.479525034931104,14,20,0.0,15,376061365986928,53,19.7,-126.93810272216797,0.8539999723434448,0,0.0,0.0,,,,,0,,5,,
Raw,4877249,4897015000000,,,-1278313578426110208,0.0,90.51367669599131,10.942264539609505,16.479525034931104,14,27,0.0,15,376061363579705,53,19.5,427.93121337890625,0.8510000109672546,0,0.0,0.0,,,,,0,,5,,
Raw,4877249,4897015000000,,,-1278313578426110208,0.0,90.51367669599131,10.942264539609505,16.479525034931104,14,29,0.0,15,376061359662393,135,14.1,-535.9150390625,4.285000324249268,0,0.0,0.0,,,,,0,,5,,
Raw,4877249,4897015000000,,,-1278313578426110208,0.0,90.51367669599131,10.942264539609505,16.479525034931104,14,30,0.0,15,376061369448697,1279,15.4,-94.57945251464844,23.68000030517578,0,0.0,0.0,,,,,0,,5,,
Raw,4877250,4897015000000,,,-1278313578426110208,0.0,90.51367669599131,10.942264539609505,16.479525034931104,14,4,0.0,7183,376075358615619,148,14.2,-365.1449890136719,4.94350004196167,0,0.0,0.0,,,,,0,,6,,
Raw,4877250,4897015000000,,,-1278313578426110208,0.0,90.51367669599131,10.942264539609505,16.479525034931104,14,11,0.0,7183,376075352594364,167,15.1,-431.0056457519531,6.350500106811523,0,0.0,0.0,,,,,0,,6,,
Raw,4877250,4897015000000,,,-1278313578426110208,0.0,90.51367669599131,10.942264539609505,16.479525034931104,14,31,0.0,7183,376075345951912,31,23.4,293.65167236328125,0.6019999980926514,0,0.0,0.0,,,,,0,,6,,
Fix,gps,22.925171,120.294415,74.828491,0.000000,10.720000,1594283258000
NMEA,$GPGSV,4,1,13,02,56,015,13,06,40,075,16,12,19,250,35,13,40,182,22*79,1594283257455
NMEA,$GPGSV,4,2,13,15,16,209,34,19,32,151,13,25,09,279,25,29,12,322,28*78,1594283257455
NMEA,$GPGSV,4,3,13,05,55,314,,07,06,080,,09,09,037,,17,13,150,*72,1594283257455
NMEA,$GPGSV,4,4,13,30,11,111,*49,1594283257455
NMEA,$GLGSV,2,1,07,65,09,222,24,87,00,000,25,85,49,112,19,71,63,354,12*6F,1594283257458
NMEA,$GLGSV,2,2,07,72,50,237,15,70,16,026,,84,00,000,*58,1594283257458
NMEA,$GAGSV,2,1,05,04,47,212,14,11,10,316,15,31,04,209,23,24,03,255,*67,1594283257459
NMEA,$GAGSV,2,2,05,33,50,091,*50,1594283257459
NMEA,$PQGSV,1,1,02,195,68,150,16,194,11,158,,0,5*68,1594283257459
NMEA,$PQGSV,4,1,16,05,17,258,26,06,52,175,13,07,17,194,25,09,28,192,21,0,4*61,1594283257459
NMEA,$PQGSV,4,2,16,10,23,219,24,13,42,333,16,16,48,181,13,19,11,234,27,0,4*6F,1594283257460
NMEA,$PQGSV,4,3,16,20,57,261,20,27,40,133,20,29,25,322,14,30,80,338,15,0,4*63,1594283257460
NMEA,$PQGSV,4,4,16,01,50,130,,03,62,203,,04,37,113,,08,52,011,,0,4*60,1594283257460
NMEA,$GNGSA,A,3,06,12,13,15,19,25,29,,,,,,1.0,0.7,0.8,1*38,1594283257461
NMEA,$GNGSA,A,3,65,71,72,85,,,,,,,,,1.0,0.7,0.8,2*31,1594283257461
NMEA,$GNGSA,A,2,04,11,,,,,,,,,,,1.0,0.7,0.8,3*38,1594283257461
NMEA,$PQGSA,A,3,05,06,07,09,10,13,16,,,,,,1.0,0.7,0.8,4*3B,1594283257462
NMEA,$GNVTG,,T,,M,0.0,N,0.0,K,A*3D,1594283257462
NMEA,$GNRMC,082738.00,A,2255.510250,N,12017.664903,E,0.0,,090720,2.8,W,A*1F,1594283257462
NMEA,$GNGGA,082738.00,2255.510250,N,12017.664903,E,1,12,0.7,57.4,M,17.5,M,,*4D,1594283257463
Fix,gps,22.925170,120.294414,75.059998,0.000000,10.720000,1594283259000
Raw,4878069,4898015000000,,,-1278313578426110208,0.0,85.89771459810436,6.46079865139071,13.854616772419963,14,1,0.0,207,41258362621702,35,22.4,-648.9107666015625,0.9294999837875366,0,0.0,0.0,,,,,0,,3,,
Raw,4878070,4898015000000,,,-1278313578426110208,0.0,85.89771459810436,6.46079865139071,13.854616772419963,14,23,0.0,207,41258359553926,24,25.2,-720.09423828125,0.6103000044822693,0,0.0,0.0,,,,,0,,3,,
Raw,4878070,4898015000000,,,-1278313578426110208,0.0,85.89771459810436,6.46079865139071,13.854616772419963,14,21,0.0,207,41258373372193,158,18.8,279.0027160644531,7.216000556945801,0,0.0,0.0,,,,,0,,3,,
Raw,4878070,4898015000000,,,-1278313578426110208,0.0,85.89771459810436,6.46079865139071,13.854616772419963,14,7,0.0,207,41258375340645,357,12.0,354.403564453125,10.819000244140625,0,0.0,0.0,,,,,0,,3,,
Raw,4878070,4898015000000,,,-1278313578426110208,0.0,85.89771459810436,6.46079865139071,13.854616772419963,14,8,0.0,207,41258373585836,153,15.1,-301.851318359375,5.9760003089904785,0,0.0,0.0,,,,,0,,3,,
Raw,4878071,4898015000000,,,-1278313578426110208,0.0,85.89771459810436,6.46079865139071,13.854616772419963,14,2,0.0,15,376076369315626,61,18.0,-191.7779541015625,1.0899999141693115,0,0.0,0.0,,,,,0,,1,,
Raw,4878071,4898015000000,,,-1278313578426110208,0.0,85.89771459810436,6.46079865139071,13.854616772419963,14,6,0.0,15,376076367245038,213,15.9,175.4507598876953,8.017000198364258,0,0.0,0.0,,,,,0,,1,,
Raw,4878071,4898015000000,,,-1278313578426110208,0.0,85.89771459810436,6.46079865139071,13.854616772419963,14,12,0.0,15,376076361619146,10,34.9,342.1415100097656,0.023600000888109207,0,0.0,0.0,,,,,0,,1,,
Raw,4878071,4898015000000,,,-1278313578426110208,0.0,85.89771459810436,6.46079865139071,13.854616772419963,14,13,0.0,15,376076368428745,31,23.2,-572.2130737304688,0.7384999990463257,0,0.0,0.0,,,,,0,,1,,
Raw,4878072,4898015000000,,,-1278313578426110208,0.0,85.89771459810436,6.46079865139071,13.854616772419963,14,15,0.0,15,376076361239434,11,33.8,-709.2612915039062,0.024400001391768456,0,0.0,0.0,,,,,0,,1,,
Raw,4878072,4898015000000,,,-1278313578426110208,0.0,85.89771459810436,6.46079865139071,13.854616772419963,14,19,0.0,15,376076365096919,386,12.5,648.5493774414062,11.354000091552734,0,0.0,0.0,,,,,0,,1,,
Raw,4878072,4898015000000,,,-1278313578426110208,0.0,85.89771459810436,6.46079865139071,13.854616772419963,14,25,0.0,15,376076358481496,21,26.0,162.3615264892578,0.13819999992847443,0,0.0,0.0,,,,,0,,1,,
Raw,4878072,4898015000000,,,-1278313578426110208,0.0,85.89771459810436,6.46079865139071,13.854616772419963,14,29,0.0,15,376076360103703,19,27.7,-640.8740844726562,0.04130000248551369,0,0.0,0.0,,,,,0,,1,,
Raw,4878073,4898015000000,,,-1278313578426110208,0.0,85.89771459810436,6.46079865139071,13.854616772419963,14,5,0.0,783,376062307963622,23,26.3,-0.6241283416748047,1.2450000047683716,0,0.0,0.0,,,,,0,,5,,
Raw,4878073,4898015000000,,,-1278313578426110208,0.0,85.89771459810436,6.46079865139071,13.854616772419963,14,6,0.0,15,376062318376991,906,13.1,-195.688232421875,19.4585018157959,0,0.0,0.0,,,,,0,,5,,
Raw,4878073,4898015000000,,,-1278313578426110208,0.0,85.89771459810436,6.46079865139071,13.854616772419963,14,7,0.0,15,376062309457811,27,24.6,262.8348388671875,0.5900000333786011,0,0.0,0.0,,,,,0,,5,,
Raw,4878073,4898015000000,,,-1278313578426110208,0.0,85.89771459810436,6.46079865139071,13.854616772419963,14,9,0.0,15,376062312802683,40,21.9,-246.46348571777344,0.684499979019165,0,0.0,0.0,,,,,0,,5,,
Raw,4878074,4898015000000,,,-1278313578426110208,0.0,85.89771459810436,6.46079865139071,13.854616772419963,14,10,0.0,15,376062310968574,31,23.1,305.630859375,0.6315000057220459,0,0.0,0.0,,,,,0,,5,,
Raw,4878074,4898015000000,,,-1278313578426110208,0.0,85.89771459810436,6.46079865139071,13.854616772419963,14,13,0.0,15,376062316030772,947,15.4,-95.48204040527344,6.890500068664551,0,0.0,0.0,,,,,0,,5,,
Raw,4878074,4898015000000,,,-1278313578426110208,0.0,85.89771459810436,6.46079865139071,13.854616772419963,14,16,0.0,15,376062316438227,1449,12.3,-230.0345001220703,8.490500450134277,0,0.0,0.0,,,,,0,,5,,
Raw,4878074,4898015000000,,,-1278313578426110208,0.0,85.89771459810436,6.46079865139071,13.854616772419963,14,19,0.0,15,376062355427981,19,27.0,-457.3678283691406,0.06379999965429306,0,0.0,0.0,,,,,0,,5,,
Raw,4878075,4898015000000,,,-1278313578426110208,0.0,85.89771459810436,6.46079865139071,13.854616772419963,14,20,0.0,15,376062365987342,46,20.0,-128.15756225585938,0.793999969959259,0,0.0,0.0,,,,,0,,5,,
Raw,4878075,4898015000000,,,-1278313578426110208,0.0,85.89771459810436,6.46079865139071,13.854616772419963,14,27,0.0,15,376062363578278,53,19.6,426.8461608886719,0.8510000109672546,0,0.0,0.0,,,,,0,,5,,
Raw,4878075,4898015000000,,,-1278313578426110208,0.0,85.89771459810436,6.46079865139071,13.854616772419963,14,29,0.0,15,376062359664181,165,14.1,-535.9150390625,5.785000324249268,0,0.0,0.0,,,,,0,,5,,
Raw,4878076,4898015000000,,,-1278313578426110208,0.0,85.89771459810436,6.46079865139071,13.854616772419963,14,30,0.0,15,376062369449013,1438,15.4,-94.57945251464844,25.18000030517578,0,0.0,0.0,,,,,0,,5,,
Raw,4878076,4898015000000,,,-1278313578426110208,0.0,85.89771459810436,6.46079865139071,13.854616772419963,14,4,0.0,7183,376076358616837,182,14.2,-365.1449890136719,6.44350004196167,0,0.0,0.0,,,,,0,,6,,
Raw,4878076,4898015000000,,,-1278313578426110208,0.0,85.89771459810436,6.46079865139071,13.854616772419963,14,11,0.0,7183,376076352595863,101,15.7,-432.5565490722656,2.6005001068115234,0,0.0,0.0,,,,,0,,6,,
Raw,4878076,4898015000000,,,-1278313578426110208,0.0,85.89771459810436,6.46079865139071,13.854616772419963,14,31,0.0,7183,376076345950928,31,23.4,293.0427551269531,0.6019999980926514,0,0.0,0.0,,,,,0,,6,,
NMEA,$GPGSV,4,1,13,02,56,015,18,06,40,075,16,12,19,250,35,13,40,182,23*73,1594283258454
NMEA,$GPGSV,4,2,13,15,16,209,34,19,32,151,13,25,09,279,26,29,12,322,28*7B,1594283258455
NMEA,$GPGSV,4,3,13,05,55,314,,07,06,080,,09,09,037,,17,13,150,*72,1594283258455
NMEA,$GPGSV,4,4,13,30,11,111,*49,1594283258455
NMEA,$GLGSV,2,1,07,65,09,222,22,87,00,000,25,85,49,112,19,71,63,354,12*69,1594283258456
NMEA,$GLGSV,2,2,07,72,50,237,15,70,16,026,,84,00,000,*58,1594283258456
NMEA,$GAGSV,2,1,05,04,47,212,14,11,10,316,16,31,04,209,23,24,03,255,*64,1594283258457
NMEA,$GAGSV,2,2,05,33,50,091,*50,1594283258457
NMEA,$PQGSV,1,1,02,195,68,150,16,194,11,158,,0,5*68,1594283258458
NMEA,$PQGSV,4,1,16,05,17,258,26,06,52,175,13,07,17,194,25,09,28,192,22,0,4*62,1594283258458
NMEA,$PQGSV,4,2,16,10,23,219,23,13,42,333,15,16,48,181,12,19,11,234,27,0,4*6A,1594283258458
NMEA,$PQGSV,4,3,16,20,57,261,20,27,40,133,20,29,25,322,14,30,80,338,15,0,4*63,1594283258458
NMEA,$PQGSV,4,4,16,01,50,130,,03,62,203,,04,37,113,,08,52,011,,0,4*60,1594283258459
NMEA,$GNGSA,A,3,02,06,12,13,15,19,25,29,,,,,1.0,0.7,0.8,1*3A,1594283258459
NMEA,$GNGSA,A,3,65,71,72,85,,,,,,,,,1.0,0.7,0.8,2*31,1594283258459
NMEA,$GNGSA,A,2,04,11,,,,,,,,,,,1.0,0.7,0.8,3*38,1594283258459
NMEA,$PQGSA,A,3,05,06,07,09,10,13,16,,,,,,1.0,0.7,0.8,4*3B,1594283258459
NMEA,$GNVTG,,T,,M,0.0,N,0.0,K,A*3D,1594283258459
NMEA,$GNRMC,082739.00,A,2255.510215,N,12017.664854,E,0.0,,090720,2.8,W,A*1C,1594283258460
NMEA,$GNGGA,082739.00,2255.510215,N,12017.664854,E,1,12,0.7,57.6,M,17.5,M,,*4C,1594283258460
Raw,4879102,4899015000000,,,-1278313578426110208,0.0,82.69850513897836,4.072832566334889,13.837071332060223,14,1,0.0,207,41259362623789,40,21.9,-649.9022827148438,0.9894999861717224,0,0.0,0.0,,,,,0,,3,,
Raw,4879103,4899015000000,,,-1278313578426110208,0.0,82.69850513897836,4.072832566334889,13.837071332060223,14,23,0.0,207,41259359556355,24,25.7,-720.493408203125,0.6103000044822693,0,0.0,0.0,,,,,0,,3,,
Raw,4879103,4899015000000,,,-1278313578426110208,0.0,82.69850513897836,4.072832566334889,13.837071332060223,14,21,0.0,207,41259373371016,123,15.8,276.7322082519531,4.4760003089904785,0,0.0,0.0,,,,,0,,3,,
Raw,4879104,4899015000000,,,-1278313578426110208,0.0,82.69850513897836,4.072832566334889,13.837071332060223,14,7,0.0,207,41259375339463,428,12.0,354.403564453125,12.319000244140625,0,0.0,0.0,,,,,0,,3,,
Raw,4879105,4899015000000,,,-1278313578426110208,0.0,82.69850513897836,4.072832566334889,13.837071332060223,14,8,0.0,207,41259373586843,193,15.1,-301.851318359375,7.4760003089904785,0,0.0,0.0,,,,,0,,3,,
Raw,4879105,4899015000000,,,-1278313578426110208,0.0,82.69850513897836,4.072832566334889,13.837071332060223,14,2,0.0,15,376077369316109,80,16.6,-191.99679565429688,1.1799999475479126,0,0.0,0.0,,,,,0,,1,,
Raw,4879106,4899015000000,,,-1278313578426110208,0.0,82.69850513897836,4.072832566334889,13.837071332060223,14,6,0.0,15,376077367244452,268,15.9,175.4507598876953,9.517000198364258,0,0.0,0.0,,,,,0,,1,,
Raw,4879106,4899015000000,,,-1278313578426110208,0.0,82.69850513897836,4.072832566334889,13.837071332060223,14,12,0.0,15,376077361618008,10,34.9,341.8034973144531,0.023600000888109207,0,0.0,0.0,,,,,0,,1,,
Raw,4879107,4899015000000,,,-1278313578426110208,0.0,82.69850513897836,4.072832566334889,13.837071332060223,14,13,0.0,15,376077368430669,31,23.9,-572.783935546875,0.6784999966621399,0,0.0,0.0,,,,,0,,1,,
Raw,4879107,4899015000000,,,-1278313578426110208,0.0,82.69850513897836,4.072832566334889,13.837071332060223,14,15,0.0,15,376077361241815,11,33.5,-709.6256103515625,0.024400001391768456,0,0.0,0.0,,,,,0,,1,,
Raw,4879108,4899015000000,,,-1278313578426110208,0.0,82.69850513897836,4.072832566334889,13.837071332060223,14,19,0.0,15,376077365094756,461,12.5,648.5493774414062,12.85400104522705,0,0.0,0.0,,,,,0,,1,,
Raw,4879108,4899015000000,,,-1278313578426110208,0.0,82.69850513897836,4.072832566334889,13.837071332060223,14,25,0.0,15,376077358480988,24,25.6,162.07969665527344,0.40880000591278076,0,0.0,0.0,,,,,0,,1,,
Raw,4879109,4899015000000,,,-1278313578426110208,0.0,82.69850513897836,4.072832566334889,13.837071332060223,14,29,0.0,15,376077360105821,19,27.6,-641.2037963867188,0.04130000248551369,0,0.0,0.0,,,,,0,,1,,
Raw,4879109,4899015000000,,,-1278313578426110208,0.0,82.69850513897836,4.072832566334889,13.837071332060223,14,5,0.0,783,376063307963624,35,26.3,-0.6241283416748047,2.745000123977661,0,0.0,0.0,,,,,0,,5,,
Raw,4879110,4899015000000,,,-1278313578426110208,0.0,82.69850513897836,4.072832566334889,13.837071332060223,14,6,0.0,15,376063318377644,1036,13.1,-195.688232421875,20.9585018157959,0,0.0,0.0,,,,,0,,5,,
Raw,4879110,4899015000000,,,-1278313578426110208,0.0,82.69850513897836,4.072832566334889,13.837071332060223,14,7,0.0,15,376063309456916,27,24.3,262.22991943359375,0.5900000333786011,0,0.0,0.0,,,,,0,,5,,
Raw,4879111,4899015000000,,,-1278313578426110208,0.0,82.69850513897836,4.072832566334889,13.837071332060223,14,9,0.0,15,376063312803553,46,20.5,-246.43467712402344,0.8044999837875366,0,0.0,0.0,,,,,0,,5,,
Raw,4879111,4899015000000,,,-1278313578426110208,0.0,82.69850513897836,4.072832566334889,13.837071332060223,14,10,0.0,15,376063310967565,31,23.9,305.2659606933594,0.5914999842643738,0,0.0,0.0,,,,,0,,5,,
Raw,4879112,4899015000000,,,-1278313578426110208,0.0,82.69850513897836,4.072832566334889,13.837071332060223,14,13,0.0,15,376063316031095,970,15.3,-95.81810760498047,7.640500068664551,0,0.0,0.0,,,,,0,,5,,
Raw,4879112,4899015000000,,,-1278313578426110208,0.0,82.69850513897836,4.072832566334889,13.837071332060223,14,16,0.0,15,376063316439003,1300,12.9,-230.40899658203125,9.120500564575195,0,0.0,0.0,,,,,0,,5,,
Raw,4879113,4899015000000,,,-1278313578426110208,0.0,82.69850513897836,4.072832566334889,13.837071332060223,14,19,0.0,15,376063355429511,19,27.3,-457.6788635253906,0.06379999965429306,0,0.0,0.0,,,,,0,,5,,
Raw,4879113,4899015000000,,,-1278313578426110208,0.0,82.69850513897836,4.072832566334889,13.837071332060223,14,20,0.0,15,376063365987721,61,18.9,-128.33998107910156,0.8539999723434448,0,0.0,0.0,,,,,0,,5,,
Raw,4879114,4899015000000,,,-1278313578426110208,0.0,82.69850513897836,4.072832566334889,13.837071332060223,14,27,0.0,15,376063363576855,40,21.6,427.65277099609375,0.7310000061988831,0,0.0,0.0,,,,,0,,5,,
Raw,4879114,4899015000000,,,-1278313578426110208,0.0,82.69850513897836,4.072832566334889,13.837071332060223,14,29,0.0,15,376063359665969,204,14.1,-535.9150390625,7.285000324249268,0,0.0,0.0,,,,,0,,5,,
Raw,4879115,4899015000000,,,-1278313578426110208,0.0,82.69850513897836,4.072832566334889,13.837071332060223,14,30,0.0,15,376063369449328,1607,15.4,-94.57945251464844,26.68000030517578,0,0.0,0.0,,,,,0,,5,,
Raw,4879115,4899015000000,,,-1278313578426110208,0.0,82.69850513897836,4.072832566334889,13.837071332060223,14,4,0.0,7183,376077358618076,89,16.7,-367.9898986816406,2.5235002040863037,0,0.0,0.0,,,,,0,,6,,
Raw,4879116,4899015000000,,,-1278313578426110208,0.0,82.69850513897836,4.072832566334889,13.837071332060223,14,11,0.0,7183,376077352597272,53,19.2,-434.6593017578125,0.8104999661445618,0,0.0,0.0,,,,,0,,6,,
Raw,4879116,4899015000000,,,-1278313578426110208,0.0,82.69850513897836,4.072832566334889,13.837071332060223,14,31,0.0,7183,376077345949963,35,22.1,292.3671875,0.6420000195503235,0,0.0,0.0,,,,,0,,6,,
Fix,gps,22.925170,120.294413,75.252014,0.000000,10.720000,1594283260000
NMEA,$GPGSV,4,1,13,02,56,015,17,06,40,075,16,12,19,250,35,13,40,182,24*7B,1594283259466
NMEA,$GPGSV,4,2,13,15,16,209,34,19,32,151,13,25,09,279,26,29,12,322,28*7B,1594283259467
NMEA,$GPGSV,4,3,13,05,55,314,,07,06,080,,09,09,037,,17,13,150,*72,1594283259467
NMEA,$GPGSV,4,4,13,30,11,111,*49,1594283259468
NMEA,$GLGSV,2,1,07,65,09,222,22,87,00,000,26,85,49,112,16,71,63,354,12*65,1594283259469
NMEA,$GLGSV,2,2,07,72,50,237,15,70,16,026,,84,00,000,*58,1594283259470
NMEA,$GAGSV,2,1,05,04,47,212,17,11,10,316,19,31,04,209,22,24,03,255,*69,1594283259471
NMEA,$GAGSV,2,2,05,33,50,091,*50,1594283259472
NMEA,$PQGSV,1,1,02,195,68,150,16,194,11,158,,0,5*68,1594283259472
NMEA,$PQGSV,4,1,16,05,17,258,26,06,52,175,13,07,17,194,24,09,28,192,21,0,4*60,1594283259473
NMEA,$PQGSV,4,2,16,10,23,219,24,13,42,333,15,16,48,181,13,19,11,234,27,0,4*6C,1594283259474
NMEA,$PQGSV,4,3,16,20,57,261,19,27,40,133,22,29,25,322,14,30,80,338,15,0,4*6B,1594283259475
NMEA,$PQGSV,4,4,16,01,50,130,,03,62,203,,04,37,113,,08,52,011,,0,4*60,1594283259475
NMEA,$GNGSA,A,3,02,06,12,13,15,19,25,29,,,,,1.1,0.7,0.8,1*3B,1594283259478
NMEA,$GNGSA,A,3,65,71,72,85,,,,,,,,,1.1,0.7,0.8,2*30,1594283259481
NMEA,$GNGSA,A,2,04,11,,,,,,,,,,,1.1,0.7,0.8,3*39,1594283259481
NMEA,$PQGSA,A,3,05,07,09,10,13,16,,,,,,,1.1,0.7,0.8,4*3C,1594283259482
NMEA,$GNVTG,,T,,M,0.0,N,0.0,K,A*3D,1594283259482
NMEA,$GNRMC,082740.00,A,2255.510173,N,12017.664797,E,0.0,,090720,2.8,W,A*11,1594283259482
NMEA,$GNGGA,082740.00,2255.510173,N,12017.664797,E,1,12,0.7,57.8,M,17.5,M,,*4F,1594283259483
Raw,4880231,4900015000000,,,-1278313578426110208,0.0,83.00661284010857,2.7290748707116284,12.870351129002938,14,1,0.0,207,41260362626090,31,23.0,-649.06982421875,0.8694999814033508,0,0.0,0.0,,,,,0,,3,,
Raw,4880231,4900015000000,,,-1278313578426110208,0.0,83.00661284010857,2.7290748707116284,12.870351129002938,14,23,0.0,207,41260359558830,24,25.8,-719.9410400390625,0.6103000044822693,0,0.0,0.0,,,,,0,,3,,
Raw,4880232,4900015000000,,,-1278313578426110208,0.0,83.00661284010857,2.7290748707116284,12.870351129002938,14,21,0.0,207,41260373370349,61,18.0,276.9657897949219,1.2160000801086426,0,0.0,0.0,,,,,0,,3,,
Raw,4880232,4900015000000,,,-1278313578426110208,0.0,83.00661284010857,2.7290748707116284,12.870351129002938,14,7,0.0,207,41260375338280,509,12.0,354.403564453125,13.819000244140625,0,0.0,0.0,,,,,0,,3,,
Raw,4880232,4900015000000,,,-1278313578426110208,0.0,83.00661284010857,2.7290748707116284,12.870351129002938,14,8,0.0,207,41260373587559,172,12.3,-303.30792236328125,4.816000461578369,0,0.0,0.0,,,,,0,,3,,
Raw,4880233,4900015000000,,,-1278313578426110208,0.0,83.00661284010857,2.7290748707116284,12.870351129002938,14,2,0.0,15,376078369316750,90,16.6,-191.99679565429688,2.680000066757202,0,0.0,0.0,,,,,0,,1,,
Raw,4880233,4900015000000,,,-1278313578426110208,0.0,83.00661284010857,2.7290748707116284,12.870351129002938,14,6,0.0,15,376078367243867,332,15.9,175.4507598876953,11.017000198364258,0,0.0,0.0,,,,,0,,1,,
Raw,4880233,4900015000000,,,-1278313578426110208,0.0,83.00661284010857,2.7290748707116284,12.870351129002938,14,12,0.0,15,376078361616869,11,33.9,342.5119323730469,0.024400001391768456,0,0.0,0.0,,,,,0,,1,,
Raw,4880233,4900015000000,,,-1278313578426110208,0.0,83.00661284010857,2.7290748707116284,12.870351129002938,14,13,0.0,15,376078368432612,31,23.3,-571.8324584960938,0.7384999990463257,0,0.0,0.0,,,,,0,,1,,
Raw,4880234,4900015000000,,,-1278313578426110208,0.0,83.00661284010857,2.7290748707116284,12.870351129002938,14,15,0.0,15,376078361244177,12,32.5,-708.9315185546875,0.02540000155568123,0,0.0,0.0,,,,,0,,1,,
Raw,4880234,4900015000000,,,-1278313578426110208,0.0,83.00661284010857,2.7290748707116284,12.870351129002938,14,19,0.0,15,376078365092593,547,12.5,648.5493774414062,14.35400104522705,0,0.0,0.0,,,,,0,,1,,
Raw,4880234,4900015000000,,,-1278313578426110208,0.0,83.00661284010857,2.7290748707116284,12.870351129002938,14,25,0.0,15,376078358480425,24,25.2,162.73651123046875,0.40880000591278076,0,0.0,0.0,,,,,0,,1,,
Raw,4880235,4900015000000,,,-1278313578426110208,0.0,83.00661284010857,2.7290748707116284,12.870351129002938,14,29,0.0,15,376078360107966,19,27.1,-640.5164184570312,0.04130000248551369,0,0.0,0.0,,,,,0,,1,,
Raw,4880235,4900015000000,,,-1278313578426110208,0.0,83.00661284010857,2.7290748707116284,12.870351129002938,14,5,0.0,783,376064307963655,23,26.7,-2.7461647987365723,1.2450000047683716,0,0.0,0.0,,,,,0,,5,,
Raw,4880235,4900015000000,,,-1278313578426110208,0.0,83.00661284010857,2.7290748707116284,12.870351129002938,14,6,0.0,15,376064318378297,1176,13.1,-195.688232421875,22.4585018157959,0,0.0,0.0,,,,,0,,5,,
Raw,4880235,4900015000000,,,-1278313578426110208,0.0,83.00661284010857,2.7290748707116284,12.870351129002938,14,7,0.0,15,376064309456042,27,24.5,263.6894226074219,0.5900000333786011,0,0.0,0.0,,,,,0,,5,,
Raw,4880236,4900015000000,,,-1278313578426110208,0.0,83.00661284010857,2.7290748707116284,12.870351129002938,14,9,0.0,15,376064312804360,40,21.0,-245.9641876220703,0.7444999814033508,0,0.0,0.0,,,,,0,,5,,
Raw,4880236,4900015000000,,,-1278313578426110208,0.0,83.00661284010857,2.7290748707116284,12.870351129002938,14,10,0.0,15,376064310966533,27,24.5,306.17816162109375,0.5914999842643738,0,0.0,0.0,,,,,0,,5,,
Raw,4880236,4900015000000,,,-1278313578426110208,0.0,83.00661284010857,2.7290748707116284,12.870351129002938,14,13,0.0,15,376064316031409,994,15.5,-95.95252990722656,8.39050006866455,0,0.0,0.0,,,,,0,,5,,
Raw,4880237,4900015000000,,,-1278313578426110208,0.0,83.00661284010857,2.7290748707116284,12.870351129002938,14,16,0.0,15,376064316439780,1506,12.4,-230.5146026611328,9.990500450134277,0,0.0,0.0,,,,,0,,5,,
Raw,4880238,4900015000000,,,-1278313578426110208,0.0,83.00661284010857,2.7290748707116284,12.870351129002938,14,19,0.0,15,376064355431024,21,26.6,-457.0393981933594,0.13369999825954437,0,0.0,0.0,,,,,0,,5,,
Raw,4880238,4900015000000,,,-1278313578426110208,0.0,83.00661284010857,2.7290748707116284,12.870351129002938,14,20,0.0,15,376064365988132,46,20.4,-126.9093017578125,0.793999969959259,0,0.0,0.0,,,,,0,,5,,
Raw,4880238,4900015000000,,,-1278313578426110208,0.0,83.00661284010857,2.7290748707116284,12.870351129002938,14,27,0.0,15,376064363575429,46,20.7,428.44970703125,0.7910000085830688,0,0.0,0.0,,,,,0,,5,,
Raw,4880238,4900015000000,,,-1278313578426110208,0.0,83.00661284010857,2.7290748707116284,12.870351129002938,14,29,0.0,15,376064359667756,254,14.1,-535.9150390625,8.785000801086426,0,0.0,0.0,,,,,0,,5,,
Raw,4880239,4900015000000,,,-1278313578426110208,0.0,83.00661284010857,2.7290748707116284,12.870351129002938,14,30,0.0,15,376064369449382,151,13.2,-92.48622131347656,4.37000036239624,0,0.0,0.0,,,,,0,,5,,
Raw,4880239,4900015000000,,,-1278313578426110208,0.0,83.00661284010857,2.7290748707116284,12.870351129002938,14,4,0.0,7183,376078358619303,108,16.7,-367.9898986816406,4.023499965667725,0,0.0,0.0,,,,,0,,6,,
Raw,4880239,4900015000000,,,-1278313578426110208,0.0,83.00661284010857,2.7290748707116284,12.870351129002938,14,11,0.0,7183,376078352598722,61,19.2,-434.6593017578125,2.310500144958496,0,0.0,0.0,,,,,0,,6,,
Raw,4880240,4900015000000,,,-1278313578426110208,0.0,83.00661284010857,2.7290748707116284,12.870351129002938,14,31,0.0,7183,376078345948940,46,20.8,293.15692138671875,0.7519999742507935,0,0.0,0.0,,,,,0,,6,,
Fix,gps,22.925169,120.294413,75.301636,0.000000,10.720000,1594283261000
NMEA,$GPGSV,4,1,13,02,56,015,17,06,40,075,16,12,19,250,34,13,40,182,23*7D,1594283260463
NMEA,$GPGSV,4,2,13,15,16,209,33,19,32,151,13,25,09,279,25,29,12,322,27*70,1594283260463
NMEA,$GPGSV,4,3,13,05,55,314,,07,06,080,,09,09,037,,17,13,150,*72,1594283260463
NMEA,$GPGSV,4,4,13,30,11,111,*49,1594283260464
NMEA,$GLGSV,2,1,07,65,09,222,23,87,00,000,26,85,49,112,18,71,63,354,12*6A,1594283260464
NMEA,$GLGSV,2,2,07,72,50,237,12,70,16,026,,84,00,000,*5F,1594283260465
NMEA,$GAGSV,2,1,05,04,47,212,17,11,10,316,19,31,04,209,21,24,03,255,*6A,1594283260465
NMEA,$GAGSV,2,2,05,33,50,091,*50,1594283260465
NMEA,$PQGSV,1,1,02,195,68,150,16,194,11,158,,0,5*68,1594283260465
NMEA,$PQGSV,4,1,16,05,17,258,27,06,52,175,13,07,17,194,25,09,28,192,21,0,4*60,1594283260465
NMEA,$PQGSV,4,2,16,10,23,219,25,13,42,333,16,16,48,181,12,19,11,234,27,0,4*6F,1594283260466
NMEA,$PQGSV,4,3,16,20,57,261,20,27,40,133,21,29,25,322,14,30,80,338,13,0,4*64,1594283260466
NMEA,$PQGSV,4,4,16,01,50,130,,03,62,203,,04,37,113,,08,52,011,,0,4*60,1594283260466
NMEA,$GNGSA,A,3,02,06,12,13,15,25,29,,,,,,1.2,0.8,0.8,1*3F,1594283260467
NMEA,$GNGSA,A,3,65,71,72,85,,,,,,,,,1.2,0.8,0.8,2*3C,1594283260467
NMEA,$GNGSA,A,2,04,11,,,,,,,,,,,1.2,0.8,0.8,3*35,1594283260467
NMEA,$PQGSA,A,3,05,07,09,10,13,16,,,,,,,1.2,0.8,0.8,4*30,1594283260467
NMEA,$GNVTG,,T,,M,0.0,N,0.0,K,A*3D,1594283260468
NMEA,$GNRMC,082741.00,A,2255.510145,N,12017.664757,E,0.0,,090720,2.8,W,A*19,1594283260468
NMEA,$GNGGA,082741.00,2255.510145,N,12017.664757,E,1,12,0.8,57.8,M,17.5,M,,*48,1594283260468
Fix,gps,22.925168,120.294412,75.484680,0.000000,10.720000,1594283262000
Raw,4881104,4901015000000,,,-1278313578426110208,0.0,83.43825174961239,4.767521301774926,12.867737047665685,14,1,0.0,207,41261362628236,35,22.0,-647.9380493164062,0.9294999837875366,0,0.0,0.0,,,,,0,,3,,
Raw,4881105,4901015000000,,,-1278313578426110208,0.0,83.43825174961239,4.767521301774926,12.867737047665685,14,23,0.0,207,41261359561199,27,24.7,-719.1280517578125,0.8450000286102295,0,0.0,0.0,,,,,0,,3,,
Raw,4881105,4901015000000,,,-1278313578426110208,0.0,83.43825174961239,4.767521301774926,12.867737047665685,14,21,0.0,207,41261373369269,53,19.8,277.8441162109375,1.1360000371932983,0,0.0,0.0,,,,,0,,3,,
Raw,4881105,4901015000000,,,-1278313578426110208,0.0,83.43825174961239,4.767521301774926,12.867737047665685,14,7,0.0,207,41261375337098,600,12.0,354.403564453125,15.319001197814941,0,0.0,0.0,,,,,0,,3,,
Raw,4881105,4901015000000,,,-1278313578426110208,0.0,83.43825174961239,4.767521301774926,12.867737047665685,14,8,0.0,207,41261373588570,203,12.3,-303.30792236328125,6.316000461578369,0,0.0,0.0,,,,,0,,3,,
Raw,4881106,4901015000000,,,-1278313578426110208,0.0,83.43825174961239,4.767521301774926,12.867737047665685,14,2,0.0,15,376079369317642,96,15.5,-193.4906005859375,2.0199999809265137,0,0.0,0.0,,,,,0,,1,,
Raw,4881106,4901015000000,,,-1278313578426110208,0.0,83.43825174961239,4.767521301774926,12.867737047665685,14,6,0.0,15,376079367243282,406,15.9,175.4507598876953,12.517000198364258,0,0.0,0.0,,,,,0,,1,,
Raw,4881106,4901015000000,,,-1278313578426110208,0.0,83.43825174961239,4.767521301774926,12.867737047665685,14,12,0.0,15,376079361615717,11,33.3,342.9029541015625,0.024400001391768456,0,0.0,0.0,,,,,0,,1,,
Raw,4881106,4901015000000,,,-1278313578426110208,0.0,83.43825174961239,4.767521301774926,12.867737047665685,14,13,0.0,15,376079368434418,35,22.8,-571.5756225585938,0.7384999990463257,0,0.0,0.0,,,,,0,,1,,
Raw,4881107,4901015000000,,,-1278313578426110208,0.0,83.43825174961239,4.767521301774926,12.867737047665685,14,15,0.0,15,376079361246554,13,31.6,-708.5471801757812,0.02670000120997429,0,0.0,0.0,,,,,0,,1,,
Raw,4881107,4901015000000,,,-1278313578426110208,0.0,83.43825174961239,4.767521301774926,12.867737047665685,14,19,0.0,15,376079365090429,642,12.5,648.5493774414062,15.85400104522705,0,0.0,0.0,,,,,0,,1,,
Raw,4881107,4901015000000,,,-1278313578426110208,0.0,83.43825174961239,4.767521301774926,12.867737047665685,14,25,0.0,15,376079358479923,27,24.1,163.35760498046875,0.6934999823570251,0,0.0,0.0,,,,,0,,1,,
Raw,4881107,4901015000000,,,-1278313578426110208,0.0,83.43825174961239,4.767521301774926,12.867737047665685,14,29,0.0,15,376079360110104,21,26.9,-640.1077270507812,0.1112000048160553,0,0.0,0.0,,,,,0,,1,,
Raw,4881108,4901015000000,,,-1278313578426110208,0.0,83.43825174961239,4.767521301774926,12.867737047665685,14,5,0.0,783,376065307963664,35,26.7,-2.7461647987365723,2.745000123977661,0,0.0,0.0,,,,,0,,5,,
Raw,4881108,4901015000000,,,-1278313578426110208,0.0,83.43825174961239,4.767521301774926,12.867737047665685,14,6,0.0,15,376065318378950,1327,13.1,-195.688232421875,23.9585018157959,0,0.0,0.0,,,,,0,,5,,
Raw,4881108,4901015000000,,,-1278313578426110208,0.0,83.43825174961239,4.767521301774926,12.867737047665685,14,7,0.0,15,376065309455152,27,24.2,263.9486999511719,0.5900000333786011,0,0.0,0.0,,,,,0,,5,,
Raw,4881109,4901015000000,,,-1278313578426110208,0.0,83.43825174961239,4.767521301774926,12.867737047665685,14,9,0.0,15,376065312805216,35,22.0,-245.76254272460938,0.684499979019165,0,0.0,0.0,,,,,0,,5,,
Raw,4881109,4901015000000,,,-1278313578426110208,0.0,83.43825174961239,4.767521301774926,12.867737047665685,14,10,0.0,15,376065310965517,31,23.8,305.7940673828125,0.5914999842643738,0,0.0,0.0,,,,,0,,5,,
Raw,4881109,4901015000000,,,-1278313578426110208,0.0,83.43825174961239,4.767521301774926,12.867737047665685,14,13,0.0,15,376065316031715,1022,15.7,-96.01014709472656,9.14050006866455,0,0.0,0.0,,,,,0,,5,,
Raw,4881109,4901015000000,,,-1278313578426110208,0.0,83.43825174961239,4.767521301774926,12.867737047665685,14,16,0.0,15,376065316440542,378,12.3,-230.3513641357422,11.115500450134277,0,0.0,0.0,,,,,0,,5,,
Raw,4881110,4901015000000,,,-1278313578426110208,0.0,83.43825174961239,4.767521301774926,12.867737047665685,14,19,0.0,15,376065355432561,19,27.0,-456.6011657714844,0.06379999965429306,0,0.0,0.0,,,,,0,,5,,
Raw,4881110,4901015000000,,,-1278313578426110208,0.0,83.43825174961239,4.767521301774926,12.867737047665685,14,20,0.0,15,376065365988604,70,17.5,-127.30298614501953,1.0040000677108765,0,0.0,0.0,,,,,0,,5,,
Raw,4881110,4901015000000,,,-1278313578426110208,0.0,83.43825174961239,4.767521301774926,12.867737047665685,14,27,0.0,15,376065363573951,35,22.6,428.8241882324219,0.6710000038146973,0,0.0,0.0,,,,,0,,5,,
Raw,4881110,4901015000000,,,-1278313578426110208,0.0,83.43825174961239,4.767521301774926,12.867737047665685,14,29,0.0,15,376065359669544,313,14.1,-535.9150390625,10.285000801086426,0,0.0,0.0,,,,,0,,5,,
Raw,4881111,4901015000000,,,-1278313578426110208,0.0,83.43825174961239,4.767521301774926,12.867737047665685,14,30,0.0,15,376065369449690,181,13.2,-92.48622131347656,5.87000036239624,0,0.0,0.0,,,,,0,,5,,
Raw,4881111,4901015000000,,,-1278313578426110208,0.0,83.43825174961239,4.767521301774926,12.867737047665685,14,4,0.0,7183,376079358620531,136,16.7,-367.9898986816406,5.523500442504883,0,0.0,0.0,,,,,0,,6,,
Raw,4881111,4901015000000,,,-1278313578426110208,0.0,83.43825174961239,4.767521301774926,12.867737047665685,14,11,0.0,7183,376079352600194,84,16.8,-432.2615966796875,1.7705000638961792,0,0.0,0.0,,,,,0,,6,,
Raw,4881111,4901015000000,,,-1278313578426110208,0.0,83.43825174961239,4.767521301774926,12.867737047665685,14,31,0.0,7183,376079345947965,53,19.8,294.0227355957031,0.8119999766349792,0,0.0,0.0,,,,,0,,6,,
NMEA,$GPGSV,4,1,13,02,56,015,16,06,40,075,16,12,19,250,33,13,40,182,23*7B,1594283261466
NMEA,$GPGSV,4,2,13,15,16,209,32,19,32,151,13,25,09,279,24,29,12,322,27*70,1594283261467
NMEA,$GPGSV,4,3,13,05,55,314,,07,06,080,,09,09,037,,17,13,150,*72,1594283261468
NMEA,$GPGSV,4,4,13,30,11,111,*49,1594283261468
NMEA,$GLGSV,2,1,07,65,09,222,22,87,00,000,25,85,49,112,20,71,63,354,12*63,1594283261475
NMEA,$GLGSV,2,2,07,72,50,237,12,70,16,026,,84,00,000,*5F,1594283261476
NMEA,$GAGSV,2,1,05,04,47,212,17,11,10,316,17,31,04,209,20,24,03,255,*65,1594283261477
NMEA,$GAGSV,2,2,05,33,50,091,*50,1594283261478
NMEA,$PQGSV,1,1,02,195,68,150,16,194,11,158,,0,5*68,1594283261478
NMEA,$PQGSV,4,1,16,05,17,258,27,06,52,175,13,07,17,194,24,09,28,192,22,0,4*62,1594283261480
NMEA,$PQGSV,4,2,16,10,23,219,24,13,42,333,16,16,48,181,12,19,11,234,27,0,4*6E,1594283261481
NMEA,$PQGSV,4,3,16,20,57,261,18,27,40,133,23,29,25,322,14,30,80,338,13,0,4*6D,1594283261481
NMEA,$PQGSV,4,4,16,01,50,130,,03,62,203,,04,37,113,,08,52,011,,0,4*60,1594283261481
NMEA,$GNGSA,A,3,02,12,13,15,25,29,,,,,,,1.2,0.8,0.8,1*39,1594283261482
NMEA,$GNGSA,A,3,65,71,72,85,,,,,,,,,1.2,0.8,0.8,2*3C,1594283261482
NMEA,$GNGSA,A,2,04,11,,,,,,,,,,,1.2,0.8,0.8,3*35,1594283261483
NMEA,$PQGSA,A,3,05,07,09,10,13,16,,,,,,,1.2,0.8,0.8,4*30,1594283261483
NMEA,$GNVTG,,T,,M,0.0,N,0.0,K,A*3D,1594283261483
NMEA,$GNRMC,082742.00,A,2255.510107,N,12017.664706,E,0.0,,090720,2.8,W,A*18,1594283261483
NMEA,$GNGGA,082742.00,2255.510107,N,12017.664706,E,1,12,0.8,58.0,M,17.5,M,,*4E,1594283261483
Raw,4882053,4902015000000,,,-1278313578426110208,0.0,85.9685824252665,5.952942372998651,14.521839760046385,14,1,0.0,207,41262362630327,31,23.4,-647.2926635742188,0.8694999814033508,0,0.0,0.0,,,,,0,,3,,
Raw,4882053,4902015000000,,,-1278313578426110208,0.0,85.9685824252665,5.952942372998651,14.521839760046385,14,23,0.0,207,41262359563538,24,25.4,-718.97216796875,0.6103000044822693,0,0.0,0.0,,,,,0,,3,,
Raw,4882053,4902015000000,,,-1278313578426110208,0.0,85.9685824252665,5.952942372998651,14.521839760046385,14,21,0.0,207,41262373368294,40,21.3,277.3489074707031,1.0059999227523804,0,0.0,0.0,,,,,0,,3,,
Raw,4882054,4902015000000,,,-1278313578426110208,0.0,85.9685824252665,5.952942372998651,14.521839760046385,14,7,0.0,207,41262375335916,702,12.0,354.403564453125,16.819000244140625,0,0.0,0.0,,,,,0,,3,,
Raw,4882054,4902015000000,,,-1278313578426110208,0.0,85.9685824252665,5.952942372998651,14.521839760046385,14,8,0.0,207,41262373589591,84,16.8,-301.7392578125,2.136000156402588,0,0.0,0.0,,,,,0,,3,,
Raw,4882054,4902015000000,,,-1278313578426110208,0.0,85.9685824252665,5.952942372998651,14.521839760046385,14,2,0.0,15,376080369318287,110,15.5,-193.4906005859375,3.5200002193450928,0,0.0,0.0,,,,,0,,1,,
Raw,4882055,4902015000000,,,-1278313578426110208,0.0,85.9685824252665,5.952942372998651,14.521839760046385,14,6,0.0,15,376080367242697,491,15.9,175.4507598876953,14.017000198364258,0,0.0,0.0,,,,,0,,1,,
Raw,4882055,4902015000000,,,-1278313578426110208,0.0,85.9685824252665,5.952942372998651,14.521839760046385,14,12,0.0,15,376080361614576,9,35.7,343.52081298828125,0.023100001737475395,0,0.0,0.0,,,,,0,,1,,
Raw,4882055,4902015000000,,,-1278313578426110208,0.0,85.9685824252665,5.952942372998651,14.521839760046385,14,13,0.0,15,376080368436397,24,25.6,-570.6425170898438,0.3937999904155731,0,0.0,0.0,,,,,0,,1,,
Raw,4882055,4902015000000,,,-1278313578426110208,0.0,85.9685824252665,5.952942372998651,14.521839760046385,14,15,0.0,15,376080361248900,11,33.7,-707.9498291015625,0.024400001391768456,0,0.0,0.0,,,,,0,,1,,
Raw,4882056,4902015000000,,,-1278313578426110208,0.0,85.9685824252665,5.952942372998651,14.521839760046385,14,19,0.0,15,376080365088266,748,12.5,648.5493774414062,17.354000091552734,0,0.0,0.0,,,,,0,,1,,
Raw,4882056,4902015000000,,,-1278313578426110208,0.0,85.9685824252665,5.952942372998651,14.521839760046385,14,25,0.0,15,376080358479304,24,25.8,163.8927764892578,0.40880000591278076,0,0.0,0.0,,,,,0,,1,,
Raw,4882056,4902015000000,,,-1278313578426110208,0.0,85.9685824252665,5.952942372998651,14.521839760046385,14,29,0.0,15,376080360112245,16,29.0,-639.4948120117188,0.02670000120997429,0,0.0,0.0,,,,,0,,1,,
Raw,4882056,4902015000000,,,-1278313578426110208,0.0,85.9685824252665,5.952942372998651,14.521839760046385,14,5,0.0,783,376066307963643,23,26.6,-2.333279848098755,1.2450000047683716,0,0.0,0.0,,,,,0,,5,,
Raw,4882057,4902015000000,,,-1278313578426110208,0.0,85.9685824252665,5.952942372998651,14.521839760046385,14,6,0.0,15,376066318379602,1487,13.1,-195.688232421875,25.4585018157959,0,0.0,0.0,,,,,0,,5,,
Raw,4882057,4902015000000,,,-1278313578426110208,0.0,85.9685824252665,5.952942372998651,14.521839760046385,14,7,0.0,15,376066309454261,31,23.0,263.7758483886719,0.6300000548362732,0,0.0,0.0,,,,,0,,5,,
Raw,4882057,4902015000000,,,-1278313578426110208,0.0,85.9685824252665,5.952942372998651,14.521839760046385,14,9,0.0,15,376066312806046,53,19.5,-244.9559783935547,0.8644999861717224,0,0.0,0.0,,,,,0,,5,,
Raw,4882058,4902015000000,,,-1278313578426110208,0.0,85.9685824252665,5.952942372998651,14.521839760046385,14,10,0.0,15,376066310964487,31,23.9,306.43743896484375,0.5914999842643738,0,0.0,0.0,,,,,0,,5,,
Raw,4882058,4902015000000,,,-1278313578426110208,0.0,85.9685824252665,5.952942372998651,14.521839760046385,14,13,0.0,15,376066316032038,301,15.7,-95.98133850097656,10.26550006866455,0,0.0,0.0,,,,,0,,5,,
Raw,4882058,4902015000000,,,-1278313578426110208,0.0,85.9685824252665,5.952942372998651,14.521839760046385,14,16,0.0,15,376066316441310,452,12.3,-230.3513641357422,12.615500450134277,0,0.0,0.0,,,,,0,,5,,
Raw,4882058,4902015000000,,,-1278313578426110208,0.0,85.9685824252665,5.952942372998651,14.521839760046385,14,19,0.0,15,376066355434111,19,27.0,-455.8278503417969,0.06379999965429306,0,0.0,0.0,,,,,0,,5,,
Raw,4882059,4902015000000,,,-1278313578426110208,0.0,85.9685824252665,5.952942372998651,14.521839760046385,14,20,0.0,15,376066365989029,78,17.5,-127.30298614501953,2.504000186920166,0,0.0,0.0,,,,,0,,5,,
Raw,4882059,4902015000000,,,-1278313578426110208,0.0,85.9685824252665,5.952942372998651,14.521839760046385,14,27,0.0,15,376066363572532,35,22.2,428.8818054199219,0.6710000038146973,0,0.0,0.0,,,,,0,,5,,
Raw,4882059,4902015000000,,,-1278313578426110208,0.0,85.9685824252665,5.952942372998651,14.521839760046385,14,29,0.0,15,376066359671331,383,14.1,-535.9150390625,11.785000801086426,0,0.0,0.0,,,,,0,,5,,
Raw,4882059,4902015000000,,,-1278313578426110208,0.0,85.9685824252665,5.952942372998651,14.521839760046385,14,30,0.0,15,376066369449999,221,13.2,-92.48622131347656,7.37000036239624,0,0.0,0.0,,,,,0,,5,,
Raw,4882060,4902015000000,,,-1278313578426110208,0.0,85.9685824252665,5.952942372998651,14.521839760046385,14,4,0.0,7183,376080358621672,78,17.1,-366.9718322753906,2.44350004196167,0,0.0,0.0,,,,,0,,6,,
Raw,4882060,4902015000000,,,-1278313578426110208,0.0,85.9685824252665,5.952942372998651,14.521839760046385,14,11,0.0,7183,376080352601663,61,18.9,-434.08843994140625,0.8704999685287476,0,0.0,0.0,,,,,0,,6,,
Raw,4882060,4902015000000,,,-1278313578426110208,0.0,85.9685824252665,5.952942372998651,14.521839760046385,14,31,0.0,7183,376080345947000,40,21.4,293.14739990234375,0.6919999718666077,0,0.0,0.0,,,,,0,,6,,
Fix,gps,22.925168,120.294411,75.546143,0.000000,10.720000,1594283263000
NMEA,$GPGSV,4,1,13,02,56,015,16,06,40,075,16,12,19,250,36,13,40,182,26*7B,1594283262452
NMEA,$GPGSV,4,2,13,15,16,209,34,19,32,151,13,25,09,279,26,29,12,322,29*7A,1594283262452
NMEA,$GPGSV,4,3,13,05,55,314,,07,06,080,,09,09,037,,17,13,150,*72,1594283262452
NMEA,$GPGSV,4,4,13,30,11,111,*49,1594283262456
NMEA,$GLGSV,2,1,07,65,09,222,23,87,00,000,25,85,49,112,21,71,63,354,12*63,1594283262457
NMEA,$GLGSV,2,2,07,72,50,237,17,70,16,026,,84,00,000,*5A,1594283262457
NMEA,$GAGSV,2,1,05,04,47,212,17,11,10,316,19,31,04,209,21,24,03,255,*6A,1594283262457
NMEA,$GAGSV,2,2,05,33,50,091,*50,1594283262457
NMEA,$PQGSV,1,1,02,195,68,150,16,194,11,158,,0,5*68,1594283262457
NMEA,$PQGSV,4,1,16,05,17,258,27,06,52,175,13,07,17,194,23,09,28,192,20,0,4*67,1594283262457
NMEA,$PQGSV,4,2,16,10,23,219,24,13,42,333,16,16,48,181,12,19,11,234,27,0,4*6E,1594283262457
NMEA,$PQGSV,4,3,16,20,57,261,18,27,40,133,22,29,25,322,14,30,80,338,13,0,4*6C,1594283262457
NMEA,$PQGSV,4,4,16,01,50,130,,03,62,203,,04,37,113,,08,52,011,,0,4*60,1594283262457
NMEA,$GNGSA,A,3,02,12,13,15,25,29,,,,,,,1.2,0.8,0.8,1*39,1594283262458
NMEA,$GNGSA,A,3,65,71,72,85,,,,,,,,,1.2,0.8,0.8,2*3C,1594283262458
NMEA,$GNGSA,A,2,04,11,,,,,,,,,,,1.2,0.8,0.8,3*35,1594283262458
NMEA,$PQGSA,A,3,05,07,09,10,13,16,,,,,,,1.2,0.8,0.8,4*30,1594283262458
NMEA,$GNVTG,,T,,M,0.0,N,0.0,K,A*3D,1594283262458
NMEA,$GNRMC,082743.00,A,2255.510079,N,12017.664668,E,0.0,,090720,2.8,W,A*18,1594283262458
NMEA,$GNGGA,082743.00,2255.510079,N,12017.664668,E,1,12,0.8,58.1,M,17.5,M,,*4F,1594283262458
Raw,4883178,4903015000000,,,-1278313578426110208,0.0,84.62402911391109,7.854019704595987,11.95042831025027,14,1,0.0,207,41263362632519,46,20.9,-651.5765380859375,1.0494999885559082,0,0.0,0.0,,,,,0,,3,,
Raw,4883179,4903015000000,,,-1278313578426110208,0.0,84.62402911391109,7.854019704595987,11.95042831025027,14,23,0.0,207,41263359566039,31,23.8,-722.6705322265625,0.8949999809265137,0,0.0,0.0,,,,,0,,3,,
Raw,4883180,4903015000000,,,-1278313578426110208,0.0,84.62402911391109,7.854019704595987,11.95042831025027,14,21,0.0,207,41263373367369,49,21.3,277.3489074707031,2.50600004196167,0,0.0,0.0,,,,,0,,3,,
Raw,4883181,4903015000000,,,-1278313578426110208,0.0,84.62402911391109,7.854019704595987,11.95042831025027,14,7,0.0,207,41263375334734,813,12.0,354.403564453125,18.319000244140625,0,0.0,0.0,,,,,0,,3,,
Raw,4883181,4903015000000,,,-1278313578426110208,0.0,84.62402911391109,7.854019704595987,11.95042831025027,14,8,0.0,207,41263373590623,61,18.2,-305.92230224609375,1.2160000801086426,0,0.0,0.0,,,,,0,,3,,
Raw,4883182,4903015000000,,,-1278313578426110208,0.0,84.62402911391109,7.854019704595987,11.95042831025027,14,2,0.0,15,376081369318932,135,15.5,-193.4906005859375,5.019999980926514,0,0.0,0.0,,,,,0,,1,,
Raw,4883183,4903015000000,,,-1278313578426110208,0.0,84.62402911391109,7.854019704595987,11.95042831025027,14,6,0.0,15,376081367242111,585,15.9,175.4507598876953,15.517001152038574,0,0.0,0.0,,,,,0,,1,,
Raw,4883184,4903015000000,,,-1278313578426110208,0.0,84.62402911391109,7.854019704595987,11.95042831025027,14,12,0.0,15,376081361613438,10,34.7,340.1455078125,0.023600000888109207,0,0.0,0.0,,,,,0,,1,,
Raw,4883185,4903015000000,,,-1278313578426110208,0.0,84.62402911391109,7.854019704595987,11.95042831025027,14,13,0.0,15,376081368438274,27,24.5,-574.3634033203125,0.6285000443458557,0,0.0,0.0,,,,,0,,1,,
Raw,4883185,4903015000000,,,-1278313578426110208,0.0,84.62402911391109,7.854019704595987,11.95042831025027,14,15,0.0,15,376081361251264,11,33.4,-711.345703125,0.024400001391768456,0,0.0,0.0,,,,,0,,1,,
Raw,4883186,4903015000000,,,-1278313578426110208,0.0,84.62402911391109,7.854019704595987,11.95042831025027,14,19,0.0,15,376081365086103,863,12.5,648.5493774414062,18.854000091552734,0,0.0,0.0,,,,,0,,1,,
Raw,4883187,4903015000000,,,-1278313578426110208,0.0,84.62402911391109,7.854019704595987,11.95042831025027,14,25,0.0,15,376081358478821,27,24.7,160.541259765625,0.643500030040741,0,0.0,0.0,,,,,0,,1,,
Raw,4883188,4903015000000,,,-1278313578426110208,0.0,84.62402911391109,7.854019704595987,11.95042831025027,14,29,0.0,15,376081360114374,19,27.6,-642.7359008789062,0.4964999854564667,0,0.0,0.0,,,,,0,,1,,
Raw,4883188,4903015000000,,,-1278313578426110208,0.0,84.62402911391109,7.854019704595987,11.95042831025027,14,5,0.0,783,376067307963651,35,26.6,-2.333279848098755,2.745000123977661,0,0.0,0.0,,,,,0,,5,,
Raw,4883189,4903015000000,,,-1278313578426110208,0.0,84.62402911391109,7.854019704595987,11.95042831025027,14,6,0.0,15,376067318380255,1657,13.1,-195.688232421875,26.9585018157959,0,0.0,0.0,,,,,0,,5,,
Raw,4883190,4903015000000,,,-1278313578426110208,0.0,84.62402911391109,7.854019704595987,11.95042831025027,14,7,0.0,15,376067309453408,31,23.5,259.93505859375,0.6300000548362732,0,0.0,0.0,,,,,0,,5,,
Raw,4883191,4903015000000,,,-1278313578426110208,0.0,84.62402911391109,7.854019704595987,11.95042831025027,14,9,0.0,15,376067312806846,53,19.9,-248.86398315429688,0.8044999837875366,0,0.0,0.0,,,,,0,,5,,
Raw,4883192,4903015000000,,,-1278313578426110208,0.0,84.62402911391109,7.854019704595987,11.95042831025027,14,10,0.0,15,376067310963469,31,23.4,302.99029541015625,0.6315000057220459,0,0.0,0.0,,,,,0,,5,,
Raw,4883192,4903015000000,,,-1278313578426110208,0.0,84.62402911391109,7.854019704595987,11.95042831025027,14,13,0.0,15,376067316032358,370,15.7,-95.98133850097656,11.76550006866455,0,0.0,0.0,,,,,0,,5,,
Raw,4883193,4903015000000,,,-1278313578426110208,0.0,84.62402911391109,7.854019704595987,11.95042831025027,14,16,0.0,15,376067316442078,536,12.3,-230.3513641357422,14.115500450134277,0,0.0,0.0,,,,,0,,5,,
Raw,4883195,4903015000000,,,-1278313578426110208,0.0,84.62402911391109,7.854019704595987,11.95042831025027,14,19,0.0,15,376067355435592,21,26.2,-459.176025390625,0.5189999938011169,0,0.0,0.0,,,,,0,,5,,
Raw,4883195,4903015000000,,,-1278313578426110208,0.0,84.62402911391109,7.854019704595987,11.95042831025027,14,20,0.0,15,376067365989507,84,16.5,-127.76387023925781,1.8339999914169312,0,0.0,0.0,,,,,0,,5,,
Raw,4883196,4903015000000,,,-1278313578426110208,0.0,84.62402911391109,7.854019704595987,11.95042831025027,14,27,0.0,15,376067363571139,35,22.2,425.4443054199219,0.6710000038146973,0,0.0,0.0,,,,,0,,5,,
Raw,4883197,4903015000000,,,-1278313578426110208,0.0,84.62402911391109,7.854019704595987,11.95042831025027,14,29,0.0,15,376067359673119,462,14.1,-535.9150390625,13.285000801086426,0,0.0,0.0,,,,,0,,5,,
Raw,4883198,4903015000000,,,-1278313578426110208,0.0,84.62402911391109,7.854019704595987,11.95042831025027,14,30,0.0,15,376067369450307,270,13.2,-92.48622131347656,8.870000839233398,0,0.0,0.0,,,,,0,,5,,
Raw,4883199,4903015000000,,,-1278313578426110208,0.0,84.62402911391109,7.854019704595987,11.95042831025027,14,4,0.0,7183,376081358622896,97,17.1,-366.9718322753906,3.94350004196167,0,0.0,0.0,,,,,0,,6,,
Raw,4883200,4903015000000,,,-1278313578426110208,0.0,84.62402911391109,7.854019704595987,11.95042831025027,14,11,0.0,7183,376081352603170,61,18.7,-437.28533935546875,0.8704999685287476,0,0.0,0.0,,,,,0,,6,,
Raw,4883200,4903015000000,,,-1278313578426110208,0.0,84.62402911391109,7.854019704595987,11.95042831025027,14,31,0.0,7183,376081345946017,46,20.5,289.2939453125,0.7519999742507935,0,0.0,0.0,,,,,0,,6,,
Fix,gps,22.925168,120.294411,75.649109,0.000000,10.720000,1594283264000
NMEA,$GPGSV,4,1,13,02,56,015,16,06,40,075,16,12,19,250,35,13,40,182,25*7B,1594283263453
NMEA,$GPGSV,4,2,13,15,16,209,33,19,32,151,13,25,09,279,25,29,12,322,28*7F,1594283263454
NMEA,$GPGSV,4,3,13,05,55,314,,07,06,080,,09,09,037,,17,13,150,*72,1594283263454
NMEA,$GPGSV,4,4,13,30,11,111,*49,1594283263454
NMEA,$GLGSV,2,1,07,65,09,222,21,87,00,000,24,85,49,112,21,71,63,354,12*60,1594283263454
NMEA,$GLGSV,2,2,07,72,50,237,18,70,16,026,,84,00,000,*55,1594283263455
NMEA,$GAGSV,2,1,05,04,47,212,17,11,10,316,19,31,04,209,21,24,03,255,*6A,1594283263455
NMEA,$GAGSV,2,2,05,33,50,091,*50,1594283263456
NMEA,$PQGSV,1,1,02,194,11,158,,195,68,150,,0,5*6F,1594283263456
NMEA,$PQGSV,4,1,16,05,17,258,27,06,52,175,13,07,17,194,24,09,28,192,20,0,4*60,1594283263456
NMEA,$PQGSV,4,2,16,10,23,219,23,13,42,333,16,16,48,181,12,19,11,234,26,0,4*68,1594283263456
NMEA,$PQGSV,4,3,16,20,57,261,17,27,40,133,22,29,25,322,14,30,80,338,13,0,4*63,1594283263456
NMEA,$PQGSV,4,4,16,01,50,130,,03,62,203,,04,37,113,,08,52,011,,0,4*60,1594283263457
NMEA,$GNGSA,A,3,02,12,13,15,25,29,,,,,,,1.2,0.8,0.8,1*39,1594283263457
NMEA,$GNGSA,A,2,65,72,85,,,,,,,,,,1.2,0.8,0.8,2*3B,1594283263458
NMEA,$GNGSA,A,2,04,11,,,,,,,,,,,1.2,0.8,0.8,3*35,1594283263458
NMEA,$PQGSA,A,3,05,07,09,10,13,16,,,,,,,1.2,0.8,0.8,4*30,1594283263458
NMEA,$GNVTG,,T,,M,0.0,N,0.0,K,A*3D,1594283263459
NMEA,$GNRMC,082744.00,A,2255.510052,N,12017.664632,E,0.0,,090720,2.8,W,A*19,1594283263459
NMEA,$GNGGA,082744.00,2255.510052,N,12017.664632,E,1,12,0.8,58.2,M,17.5,M,,*4D,1594283263459
Fix,gps,22.925167,120.294410,75.686646,0.000000,10.720000,1594283265000
NMEA,$GPGSV,4,1,13,02,56,015,16,06,40,075,16,12,19,250,34,13,40,182,24*7B,1594283264453
Raw,4884075,4904015000000,,,-1278313578426110208,0.0,90.0611121323891,-1.7748294105372577,18.039308479737482,14,1,0.0,207,41264362634793,35,22.8,-651.5391235351562,0.9294999837875366,0,0.0,0.0,,,,,0,,3,,
Raw,4884076,4904015000000,,,-1278313578426110208,0.0,90.0611121323891,-1.7748294105372577,18.039308479737482,14,23,0.0,207,41264359568412,35,22.9,-723.119140625,0.9549999833106995,0,0.0,0.0,,,,,0,,3,,
Raw,4884076,4904015000000,,,-1278313578426110208,0.0,90.0611121323891,-1.7748294105372577,18.039308479737482,14,21,0.0,207,41264373366476,73,17.4,274.4429931640625,2.0460000038146973,0,0.0,0.0,,,,,0,,3,,
Raw,4884077,4904015000000,,,-1278313578426110208,0.0,90.0611121323891,-1.7748294105372577,18.039308479737482,14,7,0.0,207,41264375333552,934,12.0,354.403564453125,19.819000244140625,0,0.0,0.0,,,,,0,,3,,
Raw,4884078,4904015000000,,,-1278313578426110208,0.0,90.0611121323891,-1.7748294105372577,18.039308479737482,14,8,0.0,207,41264373591884,53,19.6,-306.4078369140625,1.1360000371932983,0,0.0,0.0,,,,,0,,3,,
Raw,4884078,4904015000000,,,-1278313578426110208,0.0,90.0611121323891,-1.7748294105372577,18.039308479737482,14,2,0.0,15,376082369319578,169,15.5,-193.4906005859375,6.520000457763672,0,0.0,0.0,,,,,0,,1,,
Raw,4884079,4904015000000,,,-1278313578426110208,0.0,90.0611121323891,-1.7748294105372577,18.039308479737482,14,6,0.0,15,376082367241526,689,15.9,175.4507598876953,17.017000198364258,0,0.0,0.0,,,,,0,,1,,
Raw,4884079,4904015000000,,,-1278313578426110208,0.0,90.0611121323891,-1.7748294105372577,18.039308479737482,14,12,0.0,15,376082361612301,10,34.1,339.8495788574219,0.023600000888109207,0,0.0,0.0,,,,,0,,1,,
Raw,4884080,4904015000000,,,-1278313578426110208,0.0,90.0611121323891,-1.7748294105372577,18.039308479737482,14,13,0.0,15,376082368440165,27,24.3,-573.7164306640625,0.6784999966621399,0,0.0,0.0,,,,,0,,1,,
Raw,4884080,4904015000000,,,-1278313578426110208,0.0,90.0611121323891,-1.7748294105372577,18.039308479737482,14,15,0.0,15,376082361253639,12,32.7,-711.64599609375,0.02540000155568123,0,0.0,0.0,,,,,0,,1,,
Raw,4884081,4904015000000,,,-1278313578426110208,0.0,90.0611121323891,-1.7748294105372577,18.039308479737482,14,19,0.0,15,376082365083939,989,12.5,648.5493774414062,20.354000091552734,0,0.0,0.0,,,,,0,,1,,
Raw,4884082,4904015000000,,,-1278313578426110208,0.0,90.0611121323891,-1.7748294105372577,18.039308479737482,14,25,0.0,15,376082358478244,35,22.7,160.7600860595703,0.7534999847412109,0,0.0,0.0,,,,,0,,1,,
Raw,4884082,4904015000000,,,-1278313578426110208,0.0,90.0611121323891,-1.7748294105372577,18.039308479737482,14,29,0.0,15,376082360116538,24,25.8,-644.7421875,0.38179999589920044,0,0.0,0.0,,,,,0,,1,,
Raw,4884083,4904015000000,,,-1278313578426110208,0.0,90.0611121323891,-1.7748294105372577,18.039308479737482,14,5,0.0,783,376068307963657,26,25.7,-2.9478063583374023,1.274999976158142,0,0.0,0.0,,,,,0,,5,,
Raw,4884083,4904015000000,,,-1278313578426110208,0.0,90.0611121323891,-1.7748294105372577,18.039308479737482,14,6,0.0,15,376068318380908,1838,13.1,-195.688232421875,28.4585018157959,0,0.0,0.0,,,,,0,,5,,
Raw,4884084,4904015000000,,,-1278313578426110208,0.0,90.0611121323891,-1.7748294105372577,18.039308479737482,14,7,0.0,15,376068309452518,27,24.2,260.3863525390625,0.5900000333786011,0,0.0,0.0,,,,,0,,5,,
Raw,4884085,4904015000000,,,-1278313578426110208,0.0,90.0611121323891,-1.7748294105372577,18.039308479737482,14,9,0.0,15,376068312807692,40,21.3,-248.59512329101562,0.7444999814033508,0,0.0,0.0,,,,,0,,5,,
Raw,4884085,4904015000000,,,-1278313578426110208,0.0,90.0611121323891,-1.7748294105372577,18.039308479737482,14,10,0.0,15,376068310962448,27,24.5,303.44158935546875,0.5914999842643738,0,0.0,0.0,,,,,0,,5,,
Raw,4884086,4904015000000,,,-1278313578426110208,0.0,90.0611121323891,-1.7748294105372577,18.039308479737482,14,13,0.0,15,376068316032678,450,15.7,-95.98133850097656,13.265501022338867,0,0.0,0.0,,,,,0,,5,,
Raw,4884086,4904015000000,,,-1278313578426110208,0.0,90.0611121323891,-1.7748294105372577,18.039308479737482,14,16,0.0,15,376068316442847,631,12.3,-230.3513641357422,15.615500450134277,0,0.0,0.0,,,,,0,,5,,
Raw,4884087,4904015000000,,,-1278313578426110208,0.0,90.0611121323891,-1.7748294105372577,18.039308479737482,14,19,0.0,15,376068355437132,21,26.2,-459.35845947265625,0.5189999938011169,0,0.0,0.0,,,,,0,,5,,
Raw,4884088,4904015000000,,,-1278313578426110208,0.0,90.0611121323891,-1.7748294105372577,18.039308479737482,14,20,0.0,15,376068365989933,97,16.5,-127.76387023925781,3.3340001106262207,0,0.0,0.0,,,,,0,,5,,
Raw,4884088,4904015000000,,,-1278313578426110208,0.0,90.0611121323891,-1.7748294105372577,18.039308479737482,14,27,0.0,15,376068363569679,40,21.6,425.2138366699219,0.7310000061988831,0,0.0,0.0,,,,,0,,5,,
Raw,4884089,4904015000000,,,-1278313578426110208,0.0,90.0611121323891,-1.7748294105372577,18.039308479737482,14,29,0.0,15,376068359674907,551,14.1,-535.9150390625,14.785000801086426,0,0.0,0.0,,,,,0,,5,,
Raw,4884089,4904015000000,,,-1278313578426110208,0.0,90.0611121323891,-1.7748294105372577,18.039308479737482,14,30,0.0,15,376068369450616,330,13.2,-92.48622131347656,10.370000839233398,0,0.0,0.0,,,,,0,,5,,
Raw,4884090,4904015000000,,,-1278313578426110208,0.0,90.0611121323891,-1.7748294105372577,18.039308479737482,14,4,0.0,7183,376082358624166,73,17.7,-370.01654052734375,1.69350004196167,0,0.0,0.0,,,,,0,,6,,
Raw,4884091,4904015000000,,,-1278313578426110208,0.0,90.0611121323891,-1.7748294105372577,18.039308479737482,14,11,0.0,7183,376082352604628,69,18.7,-437.28533935546875,2.370500087738037,0,0.0,0.0,,,,,0,,6,,
Raw,4884091,4904015000000,,,-1278313578426110208,0.0,90.0611121323891,-1.7748294105372577,18.039308479737482,14,31,0.0,7183,376082345945107,61,18.0,290.2739562988281,0.871999979019165,0,0.0,0.0,,,,,0,,6,,
NMEA,$GPGSV,4,2,13,15,16,209,33,19,32,151,13,25,09,279,23,29,12,322,26*77,1594283264453
NMEA,$GPGSV,4,3,13,05,55,314,,07,06,080,,09,09,037,,17,13,150,*72,1594283264453
NMEA,$GPGSV,4,4,13,30,11,111,*49,1594283264453
NMEA,$GLGSV,2,1,07,65,09,222,23,87,00,000,23,85,49,112,17,71,63,354,12*60,1594283264454
NMEA,$GLGSV,2,2,07,72,50,237,20,70,16,026,,84,00,000,*5E,1594283264454
NMEA,$GAGSV,2,1,05,04,47,212,18,11,10,316,19,31,04,209,18,24,03,255,*6F,1594283264455
NMEA,$GAGSV,2,2,05,33,50,091,*50,1594283264455
NMEA,$PQGSV,1,1,02,194,11,158,,195,68,150,,0,5*6F,1594283264455
NMEA,$PQGSV,4,1,16,05,17,258,26,06,52,175,13,07,17,194,24,09,28,192,21,0,4*60,1594283264455
NMEA,$PQGSV,4,2,16,10,23,219,25,13,42,333,16,16,48,181,12,19,11,234,26,0,4*6E,1594283264455
NMEA,$PQGSV,4,3,16,20,57,261,17,27,40,133,22,29,25,322,14,30,80,338,13,0,4*63,1594283264456
NMEA,$PQGSV,4,4,16,01,50,130,,03,62,203,,04,37,113,,08,52,011,,0,4*60,1594283264456
NMEA,$GNGSA,A,3,02,12,13,15,25,29,,,,,,,1.2,0.8,0.8,1*39,1594283264457
NMEA,$GNGSA,A,2,65,72,85,,,,,,,,,,1.2,0.8,0.8,2*3B,1594283264457
NMEA,$GNGSA,A,2,04,11,,,,,,,,,,,1.2,0.8,0.8,3*35,1594283264457
NMEA,$PQGSA,A,3,05,07,09,10,13,16,,,,,,,1.2,0.8,0.8,4*30,1594283264457
NMEA,$GNVTG,,T,,M,0.0,N,0.0,K,A*3D,1594283264457
NMEA,$GNRMC,082745.00,A,2255.510033,N,12017.664607,E,0.0,,090720,2.8,W,A*19,1594283264458
NMEA,$GNGGA,082745.00,2255.510033,N,12017.664607,E,1,12,0.8,58.2,M,17.5,M,,*4D,1594283264458
Fix,gps,22.925167,120.294410,75.713074,0.000000,10.720000,1594283266000
NMEA,$GPGSV,4,1,13,02,56,015,16,06,40,075,16,12,19,250,34,13,40,182,23*7C,1594283265451
NMEA,$GPGSV,4,2,13,15,16,209,34,19,32,151,13,25,09,279,26,29,12,322,26*75,1594283265451
Raw,4885078,4905015000000,,,-1278313578426110208,0.0,88.88389857020229,-3.9385223078617497,16.977487250068904,14,1,0.0,207,41265362636919,21,26.6,-653.1572875976562,0.7294999957084656,0,0.0,0.0,,,,,0,,3,,
Raw,4885079,4905015000000,,,-1278313578426110208,0.0,88.88389857020229,-3.9385223078617497,16.977487250068904,14,23,0.0,207,41265359570826,46,20.3,-723.9043579101562,1.0749999284744263,0,0.0,0.0,,,,,0,,3,,
