# 
# Header Description:
# 
# Version: v2.0.0.1 Platform: 8.0.0 Manufacturer: Sony Model: G8142
# 
# Raw,ElapsedRealtimeMillis,TimeNanos,LeapSecond,TimeUncertaintyNanos,FullBiasNanos,BiasNanos,BiasUncertaintyNanos,DriftNanosPerSecond,DriftUncertaintyNanosPerSecond,HardwareClockDiscontinuityCount,Svid,TimeOffsetNanos,State,ReceivedSvTimeNanos,ReceivedSvTimeUncertaintyNanos,Cn0DbHz,PseudorangeRateMetersPerSecond,PseudorangeRateUncertaintyMetersPerSecond,AccumulatedDeltaRangeState,AccumulatedDeltaRangeMeters,AccumulatedDeltaRangeUncertaintyMeters,CarrierFrequencyHz,CarrierCycles,CarrierPhase,CarrierPhaseUncertainty,MultipathIndicator,SnrInDb,ConstellationType,AgcDb,CarrierFrequencyHz
# 
# Fix,Provider,Latitude,Longitude,Altitude,Speed,Accuracy,(UTC)TimeInMs
# 
# Nav,Svid,Type,Status,MessageId,Sub-messageId,Data(Bytes)
# 
Raw,5168259,5188015000000,,,-1278313578426108416,0.0,91.58380271401256,8.417774537607091,13.343145951990236,14,6,0.0,207,41548364027559,920,16.3,719.9329223632812,20.122501373291016,0,0.0,0.0,,,,,0,,3,,
Raw,5168260,5188015000000,,,-1278313578426108416,0.0,91.58380271401256,8.417774537607091,13.343145951990236,14,1,0.0,207,41548363240078,17,28.7,-630.7669677734375,0.2378000020980835,0,0.0,0.0,,,,,0,,3,,
Raw,5168260,5188015000000,,,-1278313578426108416,0.0,91.58380271401256,8.417774537607091,13.343145951990236,14,23,0.0,207,41548360254573,61,18.4,-729.0638427734375,1.1965000629425049,0,0.0,0.0,,,,,0,,3,,
Raw,5168261,5188015000000,,,-1278313578426108416,0.0,91.58380271401256,8.417774537607091,13.343145951990236,14,21,0.0,207,41548373086791,31,23.4,312.3036804199219,0.8859999775886536,0,0.0,0.0,,,,,0,,3,,
Raw,5168261,5188015000000,,,-1278313578426108416,0.0,91.58380271401256,8.417774537607091,13.343145951990236,14,7,0.0,207,41548374984877,1366,13.1,381.8270568847656,5.657500267028809,0,0.0,0.0,,,,,0,,3,,
Raw,5168261,5188015000000,,,-1278313578426108416,0.0,91.58380271401256,8.417774537607091,13.343145951990236,14,8,0.0,207,41548373861032,289,16.7,-266.7342834472656,10.386000633239746,0,0.0,0.0,,,,,0,,3,,
Raw,5168261,5188015000000,,,-1278313578426108416,0.0,91.58380271401256,8.417774537607091,13.343145951990236,14,12,0.0,15,376366361281604,16,29.1,353.638671875,0.028200000524520874,0,0.0,0.0,,,,,0,,1,,
Raw,5168262,5188015000000,,,-1278313578426108416,0.0,91.58380271401256,8.417774537607091,13.343145951990236,14,13,0.0,15,376366368971820,102,15.5,-550.0819091796875,2.7685000896453857,0,0.0,0.0,,,,,0,,1,,
Raw,5168262,5188015000000,,,-1278313578426108416,0.0,91.58380271401256,8.417774537607091,13.343145951990236,14,15,0.0,15,376366361921031,14,30.3,-701.5614013671875,0.027300000190734863,0,0.0,0.0,,,,,0,,1,,
Raw,5168262,5188015000000,,,-1278313578426108416,0.0,91.58380271401256,8.417774537607091,13.343145951990236,14,17,0.0,15,376366360164482,344,14.4,687.9972534179688,11.091500282287598,0,0.0,0.0,,,,,0,,1,,
Raw,5168262,5188015000000,,,-1278313578426108416,0.0,91.58380271401256,8.417774537607091,13.343145951990236,14,25,0.0,15,376366358313919,10,34.0,182.1088409423828,0.04910000041127205,0,0.0,0.0,,,,,0,,1,,
Raw,5168263,5188015000000,,,-1278313578426108416,0.0,91.58380271401256,8.417774537607091,13.343145951990236,14,29,0.0,15,376366360717199,73,17.1,-628.2069702148438,1.9164999723434448,0,0.0,0.0,,,,,0,,1,,
Raw,5168263,5188015000000,,,-1278313578426108416,0.0,91.58380271401256,8.417774537607091,13.343145951990236,14,1,0.0,783,376352317410187,631,18.0,-0.8641777038574219,6.090000152587891,0,0.0,0.0,,,,,0,,5,,
Raw,5168263,5188015000000,,,-1278313578426108416,0.0,91.58380271401256,8.417774537607091,13.343145951990236,14,5,0.0,783,376352307964211,461,22.3,-6.049243927001953,14.165000915527344,0,0.0,0.0,,,,,0,,5,,
Raw,5168263,5188015000000,,,-1278313578426108416,0.0,91.58380271401256,8.417774537607091,13.343145951990236,14,6,0.0,15,376352318563691,1498,12.2,-188.3331298828125,9.81350040435791,0,0.0,0.0,,,,,0,,5,,
Raw,5168264,5188015000000,,,-1278313578426108416,0.0,91.58380271401256,8.417774537607091,13.343145951990236,14,7,0.0,15,376352309205134,27,24.0,257.2080993652344,0.5900000333786011,0,0.0,0.0,,,,,0,,5,,
Raw,5168264,5188015000000,,,-1278313578426108416,0.0,91.58380271401256,8.417774537607091,13.343145951990236,14,8,0.0,15,376352317578548,400,11.3,-118.90125274658203,11.237000465393066,0,0.0,0.0,,,,,0,,5,,
Raw,5168264,5188015000000,,,-1278313578426108416,0.0,91.58380271401256,8.417774537607091,13.343145951990236,14,9,0.0,15,376352313038718,140,13.6,-241.3648223876953,3.626000165939331,0,0.0,0.0,,,,,0,,5,,
Raw,5168264,5188015000000,,,-1278313578426108416,0.0,91.58380271401256,8.417774537607091,13.343145951990236,14,10,0.0,15,376352310672933,78,17.3,304.6130676269531,2.511500120162964,0,0.0,0.0,,,,,0,,5,,
Raw,5168265,5188015000000,,,-1278313578426108416,0.0,91.58380271401256,8.417774537607091,13.343145951990236,14,16,0.0,15,376352316657067,204,14.4,-222.6602020263672,7.280500411987305,0,0.0,0.0,,,,,0,,5,,
Raw,5168265,5188015000000,,,-1278313578426108416,0.0,91.58380271401256,8.417774537607091,13.343145951990236,14,19,0.0,15,376352355863419,24,25.8,-444.6102294921875,0.4043000042438507,0,0.0,0.0,,,,,0,,5,,
Raw,5168265,5188015000000,,,-1278313578426108416,0.0,91.58380271401256,8.417774537607091,13.343145951990236,14,20,0.0,15,376352366100172,197,16.9,-106.4666976928711,7.755500316619873,0,0.0,0.0,,,,,0,,5,,
Raw,5168266,5188015000000,,,-1278313578426108416,0.0,91.58380271401256,8.417774537607091,13.343145951990236,14,27,0.0,15,376352363154357,53,19.6,447.1543273925781,0.8510000109672546,0,0.0,0.0,,,,,0,,5,,
Raw,5168266,5188015000000,,,-1278313578426108416,0.0,91.58380271401256,8.417774537607091,13.343145951990236,14,29,0.0,15,376352360179897,46,20.1,-529.8177490234375,0.7864999771118164,0,0.0,0.0,,,,,0,,5,,
Raw,5168266,5188015000000,,,-1278313578426108416,0.0,91.58380271401256,8.417774537607091,13.343145951990236,14,4,0.0,7183,376366358962933,69,18.2,-348.4657897949219,2.373500108718872,0,0.0,0.0,,,,,0,,6,,
Raw,5168266,5188015000000,,,-1278313578426108416,0.0,91.58380271401256,8.417774537607091,13.343145951990236,14,11,0.0,7183,376366353017961,61,18.8,-440.301513671875,0.9919999837875366,0,0.0,0.0,,,,,0,,6,,
Raw,5168267,5188015000000,,,-1278313578426108416,0.0,91.58380271401256,8.417774537607091,13.343145951990236,14,31,0.0,7183,376366345673783,24,25.5,278.5328674316406,0.5220000147819519,0,0.0,0.0,,,,,0,,6,,
Fix,gps,22.925148,120.294457,47.884766,0.000000,11.792000,1594283549000
NMEA,$GPGSV,4,1,13,12,18,247,29,13,43,181,16,15,18,209,30,17,10,151,14*76,1594283548450
NMEA,$GPGSV,4,2,13,25,09,277,34,29,14,322,17,02,58,019,,05,55,320,*7E,1594283548451
NMEA,$GPGSV,4,3,13,06,39,080,,07,07,077,,09,07,037,,19,29,153,*76,1594283548451
NMEA,$GPGSV,4,4,13,30,12,108,*42,1594283548451
NMEA,$GLGSV,2,1,06,70,14,028,16,65,11,223,29,87,02,329,18,85,48,116,23*6E,1594283548451
NMEA,$GLGSV,2,2,06,71,60,357,13,72,52,243,17*61,1594283548451
NMEA,$GAGSV,2,1,05,04,48,213,18,11,11,316,19,31,03,208,26,24,02,254,*6B,1594283548452
NMEA,$GAGSV,2,2,05,33,49,094,*5D,1594283548452
NMEA,$PQGSV,1,1,02,194,11,157,14,195,67,151,16,0,5*6C,1594283548452
NMEA,$PQGSV,4,1,16,01,50,130,18,05,17,258,22,06,54,177,12,07,16,194,24,0,4*65,1594283548452
NMEA,$PQGSV,4,2,16,08,52,012,11,09,30,194,14,10,21,217,17,16,49,182,14,0,4*61,1594283548452
NMEA,$PQGSV,4,3,16,19,12,236,26,20,58,267,17,27,38,136,20,29,27,322,20,0,4*6E,1594283548453
NMEA,$PQGSV,4,4,16,03,62,203,,04,37,113,,13,42,334,,30,83,334,,0,4*65,1594283548454
NMEA,$GNGSA,A,3,06,12,13,15,25,29,,,,,,,1.1,0.7,0.9,1*30,1594283548455
NMEA,$GNGSA,A,2,65,85,,,,,,,,,,,1.1,0.7,0.9,2*33,1594283548456
NMEA,$PQGSA,A,2,07,10,,,,,,,,,,,1.1,0.7,0.9,4*35,1594283548456
NMEA,$GNVTG,,T,,M,0.0,N,0.0,K,A*3D,1594283548456
NMEA,$GNRMC,083229.00,A,2255.508900,N,12017.667433,E,0.0,,090720,2.8,W,A*11,1594283548457
NMEA,$GNGGA,083229.00,2255.508900,N,12017.667433,E,1,10,0.7,30.4,M,17.5,M,,*40,1594283548457
Fix,gps,22.925148,120.294457,47.890503,0.000000,11.792000,1594283550000
Raw,5169072,5189015000000,,,-1278313578426108416,0.0,90.77520371647552,4.175831506472272,11.342856002508835,14,6,0.0,207,41549364025157,1055,16.3,719.9329223632812,21.622501373291016,0,0.0,0.0,,,,,0,,3,,
Raw,5169073,5189015000000,,,-1278313578426108416,0.0,90.77520371647552,4.175831506472272,11.342856002508835,14,1,0.0,207,41549363242146,17,28.3,-630.8120727539062,0.2378000020980835,0,0.0,0.0,,,,,0,,3,,
Raw,5169073,5189015000000,,,-1278313578426108416,0.0,90.77520371647552,4.175831506472272,11.342856002508835,14,23,0.0,207,41549360256803,70,17.1,-729.8864135742188,1.2764999866485596,0,0.0,0.0,,,,,0,,3,,
Raw,5169073,5189015000000,,,-1278313578426108416,0.0,90.77520371647552,4.175831506472272,11.342856002508835,14,21,0.0,207,41549373085876,31,23.7,312.3223571777344,0.8859999775886536,0,0.0,0.0,,,,,0,,3,,
Raw,5169074,5189015000000,,,-1278313578426108416,0.0,90.77520371647552,4.175831506472272,11.342856002508835,14,7,0.0,207,41549374983616,1393,13.1,381.6495666503906,6.782500267028809,0,0.0,0.0,,,,,0,,3,,
Raw,5169074,5189015000000,,,-1278313578426108416,0.0,90.77520371647552,4.175831506472272,11.342856002508835,14,8,0.0,207,41549373862383,247,10.7,-268.9005126953125,6.585999965667725,0,0.0,0.0,,,,,0,,3,,
Raw,5169074,5189015000000,,,-1278313578426108416,0.0,90.77520371647552,4.175831506472272,11.342856002508835,14,12,0.0,15,376367361280428,16,29.5,353.5634460449219,0.028200000524520874,0,0.0,0.0,,,,,0,,1,,
Raw,5169074,5189015000000,,,-1278313578426108416,0.0,90.77520371647552,4.175831506472272,11.342856002508835,14,13,0.0,15,376367368973655,121,15.5,-550.0819091796875,4.268500328063965,0,0.0,0.0,,,,,0,,1,,
Raw,5169075,5189015000000,,,-1278313578426108416,0.0,90.77520371647552,4.175831506472272,11.342856002508835,14,15,0.0,15,376367361923359,14,30.2,-701.6550903320312,0.027300000190734863,0,0.0,0.0,,,,,0,,1,,
Raw,5169075,5189015000000,,,-1278313578426108416,0.0,90.77520371647552,4.175831506472272,11.342856002508835,14,17,0.0,15,376367360162187,418,14.4,687.9972534179688,12.591500282287598,0,0.0,0.0,,,,,0,,1,,
Raw,5169075,5189015000000,,,-1278313578426108416,0.0,90.77520371647552,4.175831506472272,11.342856002508835,14,19,0.0,15,376367364461892,1637,12.9,662.0126953125,8.172500610351562,0,0.0,0.0,,,,,0,,1,,
Raw,5169075,5189015000000,,,-1278313578426108416,0.0,90.77520371647552,4.175831506472272,11.342856002508835,14,25,0.0,15,376367358313342,11,33.6,182.01307678222656,0.04990000277757645,0,0.0,0.0,,,,,0,,1,,
Raw,5169076,5189015000000,,,-1278313578426108416,0.0,90.77520371647552,4.175831506472272,11.342856002508835,14,29,0.0,15,376367360719271,53,19.6,-627.9406127929688,0.9164999723434448,0,0.0,0.0,,,,,0,,1,,
Raw,5169076,5189015000000,,,-1278313578426108416,0.0,90.77520371647552,4.175831506472272,11.342856002508835,14,1,0.0,783,376353317410235,738,17.7,-4.541733741760254,6.920000076293945,0,0.0,0.0,,,,,0,,5,,
Raw,5169076,5189015000000,,,-1278313578426108416,0.0,90.77520371647552,4.175831506472272,11.342856002508835,14,5,0.0,783,376353307964231,558,22.3,-6.049243927001953,15.665000915527344,0,0.0,0.0,,,,,0,,5,,
Raw,5169076,5189015000000,,,-1278313578426108416,0.0,90.77520371647552,4.175831506472272,11.342856002508835,14,6,0.0,15,376353318564320,370,12.2,-188.21791076660156,10.93850040435791,0,0.0,0.0,,,,,0,,5,,
Raw,5169077,5189015000000,,,-1278313578426108416,0.0,90.77520371647552,4.175831506472272,11.342856002508835,14,7,0.0,15,376353309204294,31,23.3,257.1792907714844,0.6300000548362732,0,0.0,0.0,,,,,0,,5,,
Raw,5169077,5189015000000,,,-1278313578426108416,0.0,90.77520371647552,4.175831506472272,11.342856002508835,14,8,0.0,15,376353317578944,475,11.3,-118.90125274658203,12.737000465393066,0,0.0,0.0,,,,,0,,5,,
Raw,5169077,5189015000000,,,-1278313578426108416,0.0,90.77520371647552,4.175831506472272,11.342856002508835,14,9,0.0,15,376353313039523,165,13.6,-241.3648223876953,5.12600040435791,0,0.0,0.0,,,,,0,,5,,
Raw,5169078,5189015000000,,,-1278313578426108416,0.0,90.77520371647552,4.175831506472272,11.342856002508835,14,10,0.0,15,376353310671940,84,16.1,303.6528625488281,1.841499924659729,0,0.0,0.0,,,,,0,,5,,
Raw,5169078,5189015000000,,,-1278313578426108416,0.0,90.77520371647552,4.175831506472272,11.342856002508835,14,16,0.0,15,376353316657810,253,14.4,-222.6602020263672,8.780500411987305,0,0.0,0.0,,,,,0,,5,,
Raw,5169078,5189015000000,,,-1278313578426108416,0.0,90.77520371647552,4.175831506472272,11.342856002508835,14,19,0.0,15,376353355864872,27,24.9,-444.86907958984375,0.5489999651908875,0,0.0,0.0,,,,,0,,5,,
Raw,5169078,5189015000000,,,-1278313578426108416,0.0,90.77520371647552,4.175831506472272,11.342856002508835,14,20,0.0,15,376353366100527,251,16.9,-106.4666976928711,9.255500793457031,0,0.0,0.0,,,,,0,,5,,
Raw,5169079,5189015000000,,,-1278313578426108416,0.0,90.77520371647552,4.175831506472272,11.342856002508835,14,27,0.0,15,376353363152882,35,22.1,446.770263671875,0.6710000038146973,0,0.0,0.0,,,,,0,,5,,
Raw,5169079,5189015000000,,,-1278313578426108416,0.0,90.77520371647552,4.175831506472272,11.342856002508835,14,29,0.0,15,376353360181610,46,20.0,-530.0578002929688,0.7864999771118164,0,0.0,0.0,,,,,0,,5,,
Raw,5169079,5189015000000,,,-1278313578426108416,0.0,90.77520371647552,4.175831506472272,11.342856002508835,14,4,0.0,7183,376367358964095,87,18.2,-348.4657897949219,3.873500108718872,0,0.0,0.0,,,,,0,,6,,
Raw,5169079,5189015000000,,,-1278313578426108416,0.0,90.77520371647552,4.175831506472272,11.342856002508835,14,11,0.0,7183,376367353019429,70,18.8,-440.301513671875,2.492000102996826,0,0.0,0.0,,,,,0,,6,,
Raw,5169080,5189015000000,,,-1278313578426108416,0.0,90.77520371647552,4.175831506472272,11.342856002508835,14,31,0.0,7183,376367345672873,31,23.1,278.14276123046875,0.6019999980926514,0,0.0,0.0,,,,,0,,6,,
NMEA,$GPGSV,4,1,13,12,18,247,30,13,43,181,16,15,18,209,30,17,10,151,14*7E,1594283549452
NMEA,$GPGSV,4,2,13,19,29,153,13,25,09,277,34,29,14,322,20,02,58,019,*78,1594283549452
NMEA,$GPGSV,4,3,13,05,55,320,,06,39,080,,07,07,077,,09,07,037,*76,1594283549452
NMEA,$GPGSV,4,4,13,30,12,108,*42,1594283549452
NMEA,$GLGSV,2,1,06,70,14,028,16,65,11,223,28,87,02,329,17,85,48,116,24*67,1594283549453
NMEA,$GLGSV,2,2,06,71,60,357,13,72,52,243,11*67,1594283549454
NMEA,$GAGSV,2,1,05,04,48,213,18,11,11,316,19,31,03,208,23,24,02,254,*6E,1594283549454
NMEA,$GAGSV,2,2,05,33,49,094,*5D,1594283549454
NMEA,$PQGSV,1,1,02,194,11,157,14,195,67,151,14,0,5*6E,1594283549455
NMEA,$PQGSV,4,1,16,01,50,130,18,05,17,258,22,06,54,177,12,07,16,194,23,0,4*62,1594283549455
NMEA,$PQGSV,4,2,16,08,52,012,11,09,30,194,14,10,21,217,16,16,49,182,14,0,4*60,1594283549455
NMEA,$PQGSV,4,3,16,19,12,236,25,20,58,267,17,27,38,136,22,29,27,322,20,0,4*6F,1594283549455
NMEA,$PQGSV,4,4,16,03,62,203,,04,37,113,,13,42,334,,30,83,334,,0,4*65,1594283549455
NMEA,$GNGSA,A,3,06,12,15,17,25,29,,,,,,,1.1,0.7,0.8,1*35,1594283549456
NMEA,$GNGSA,A,2,65,71,85,,,,,,,,,,1.1,0.7,0.8,2*34,1594283549457
NMEA,$GNGSA,A,2,11,,,,,,,,,,,,1.1,0.7,0.8,3*3D,1594283549457
NMEA,$PQGSA,A,3,06,07,08,09,10,,,,,,,,1.1,0.7,0.8,4*32,1594283549457
NMEA,$GNVTG,,T,,M,0.0,N,0.0,K,A*3D,1594283549458
NMEA,$GNRMC,083230.00,A,2255.508891,N,12017.667433,E,0.0,,090720,2.8,W,A*10,1594283549458
NMEA,$GNGGA,083230.00,2255.508891,N,12017.667433,E,1,12,0.7,30.4,M,17.5,M,,*43,1594283549458
Fix,gps,22.925148,120.294457,47.965088,0.000000,10.720000,1594283551000
Raw,5170072,5190015000000,,,-1278313578426108416,0.0,88.2430758792907,3.545217984388413,11.344217519773629,14,6,0.0,207,41550364022756,1200,16.3,719.9329223632812,23.122501373291016,0,0.0,0.0,,,,,0,,3,,
Raw,5170073,5190015000000,,,-1278313578426108416,0.0,88.2430758792907,3.545217984388413,11.344217519773629,14,1,0.0,207,41550363244242,16,29.0,-631.1957397460938,0.23119999468326569,0,0.0,0.0,,,,,0,,3,,
Raw,5170073,5190015000000,,,-1278313578426108416,0.0,88.2430758792907,3.545217984388413,11.344217519773629,14,23,0.0,207,41550360259238,79,17.1,-729.8864135742188,2.7764999866485596,0,0.0,0.0,,,,,0,,3,,
Raw,5170073,5190015000000,,,-1278313578426108416,0.0,88.2430758792907,3.545217984388413,11.344217519773629,14,21,0.0,207,41550373084744,24,25.6,312.0533752441406,0.6013000011444092,0,0.0,0.0,,,,,0,,3,,
Raw,5170073,5190015000000,,,-1278313578426108416,0.0,88.2430758792907,3.545217984388413,11.344217519773629,14,7,0.0,207,41550374982309,1606,12.0,381.8550720214844,7.277500152587891,0,0.0,0.0,,,,,0,,3,,
Raw,5170074,5190015000000,,,-1278313578426108416,0.0,88.2430758792907,3.545217984388413,11.344217519773629,14,8,0.0,207,41550373863065,81,16.5,-267.6306457519531,1.3860000371932983,0,0.0,0.0,,,,,0,,3,,
Raw,5170074,5190015000000,,,-1278313578426108416,0.0,88.2430758792907,3.545217984388413,11.344217519773629,14,12,0.0,15,376368361279244,17,28.4,353.1478271484375,0.03480000048875809,0,0.0,0.0,,,,,0,,1,,
Raw,5170075,5190015000000,,,-1278313578426108416,0.0,88.2430758792907,3.545217984388413,11.344217519773629,14,13,0.0,15,376368368975490,151,15.5,-550.0819091796875,5.768500328063965,0,0.0,0.0,,,,,0,,1,,
Raw,5170075,5190015000000,,,-1278313578426108416,0.0,88.2430758792907,3.545217984388413,11.344217519773629,14,15,0.0,15,376368361925705,17,28.9,-702.0612182617188,0.03480000048875809,0,0.0,0.0,,,,,0,,1,,
Raw,5170075,5190015000000,,,-1278313578426108416,0.0,88.2430758792907,3.545217984388413,11.344217519773629,14,17,0.0,15,376368360159892,502,14.4,687.9972534179688,14.091500282287598,0,0.0,0.0,,,,,0,,1,,
Raw,5170075,5190015000000,,,-1278313578426108416,0.0,88.2430758792907,3.545217984388413,11.344217519773629,14,19,0.0,15,376368364459695,1676,12.6,662.2124633789062,9.297500610351562,0,0.0,0.0,,,,,0,,1,,
Raw,5170076,5190015000000,,,-1278313578426108416,0.0,88.2430758792907,3.545217984388413,11.344217519773629,14,25,0.0,15,376368358312732,11,33.0,181.63214111328125,0.04990000277757645,0,0.0,0.0,,,,,0,,1,,
Raw,5170076,5190015000000,,,-1278313578426108416,0.0,88.2430758792907,3.545217984388413,11.344217519773629,14,29,0.0,15,376368360721374,61,18.2,-629.8054809570312,1.0764999389648438,0,0.0,0.0,,,,,0,,1,,
Raw,5170076,5190015000000,,,-1278313578426108416,0.0,88.2430758792907,3.545217984388413,11.344217519773629,14,1,0.0,783,376354317410197,761,17.3,-0.8833816051483154,7.6700005531311035,0,0.0,0.0,,,,,0,,5,,
Raw,5170076,5190015000000,,,-1278313578426108416,0.0,88.2430758792907,3.545217984388413,11.344217519773629,14,4,0.0,783,376354314592103,137,20.9,9.640382766723633,6.768500328063965,0,0.0,0.0,,,,,0,,5,,
Raw,5170077,5190015000000,,,-1278313578426108416,0.0,88.2430758792907,3.545217984388413,11.344217519773629,14,5,0.0,783,376354307964251,665,22.3,-6.049243927001953,17.165000915527344,0,0.0,0.0,,,,,0,,5,,
Raw,5170077,5190015000000,,,-1278313578426108416,0.0,88.2430758792907,3.545217984388413,11.344217519773629,14,6,0.0,15,376354318564948,443,12.2,-188.21791076660156,12.43850040435791,0,0.0,0.0,,,,,0,,5,,
Raw,5170077,5190015000000,,,-1278313578426108416,0.0,88.2430758792907,3.545217984388413,11.344217519773629,14,7,0.0,15,376354309203454,35,22.5,256.7856140136719,0.6800000071525574,0,0.0,0.0,,,,,0,,5,,
Raw,5170077,5190015000000,,,-1278313578426108416,0.0,88.2430758792907,3.545217984388413,11.344217519773629,14,8,0.0,15,376354317579341,560,11.3,-118.90125274658203,14.237000465393066,0,0.0,0.0,,,,,0,,5,,
Raw,5170078,5190015000000,,,-1278313578426108416,0.0,88.2430758792907,3.545217984388413,11.344217519773629,14,9,0.0,15,376354313040328,200,13.6,-241.3648223876953,6.62600040435791,0,0.0,0.0,,,,,0,,5,,
Raw,5170078,5190015000000,,,-1278313578426108416,0.0,88.2430758792907,3.545217984388413,11.344217519773629,14,10,0.0,15,376354310670927,97,16.1,303.6528625488281,3.3415000438690186,0,0.0,0.0,,,,,0,,5,,
Raw,5170078,5190015000000,,,-1278313578426108416,0.0,88.2430758792907,3.545217984388413,11.344217519773629,14,16,0.0,15,376354316658553,313,14.4,-222.6602020263672,10.280500411987305,0,0.0,0.0,,,,,0,,5,,
Raw,5170078,5190015000000,,,-1278313578426108416,0.0,88.2430758792907,3.545217984388413,11.344217519773629,14,19,0.0,15,376354355866383,27,24.8,-445.7812805175781,0.5489999651908875,0,0.0,0.0,,,,,0,,5,,
Raw,5170079,5190015000000,,,-1278313578426108416,0.0,88.2430758792907,3.545217984388413,11.344217519773629,14,20,0.0,15,376354366100882,314,16.9,-106.4666976928711,10.755500793457031,0,0.0,0.0,,,,,0,,5,,
Raw,5170079,5190015000000,,,-1278313578426108416,0.0,88.2430758792907,3.545217984388413,11.344217519773629,14,27,0.0,15,376354363151404,46,20.2,446.51104736328125,0.7910000085830688,0,0.0,0.0,,,,,0,,5,,
Raw,5170079,5190015000000,,,-1278313578426108416,0.0,88.2430758792907,3.545217984388413,11.344217519773629,14,29,0.0,15,376354360183418,46,20.6,-530.4226684570312,0.7864999771118164,0,0.0,0.0,,,,,0,,5,,
Raw,5170079,5190015000000,,,-1278313578426108416,0.0,88.2430758792907,3.545217984388413,11.344217519773629,14,4,0.0,7183,376368358965258,115,18.2,-348.4657897949219,5.373500347137451,0,0.0,0.0,,,,,0,,6,,
Raw,5170080,5190015000000,,,-1278313578426108416,0.0,88.2430758792907,3.545217984388413,11.344217519773629,14,11,0.0,7183,376368353020871,84,16.8,-440.2729797363281,1.7720000743865967,0,0.0,0.0,,,,,0,,6,,
Raw,5170080,5190015000000,,,-1278313578426108416,0.0,88.2430758792907,3.545217984388413,11.344217519773629,14,31,0.0,7183,376368345671870,40,21.1,278.5138244628906,0.6919999718666077,0,0.0,0.0,,,,,0,,6,,
NMEA,$GPGSV,4,1,13,12,18,247,28,13,43,181,16,15,18,209,29,17,10,151,14*7F,1594283550451
NMEA,$GPGSV,4,2,13,19,29,153,13,25,09,277,33,29,14,322,18,02,58,019,*74,1594283550451
NMEA,$GPGSV,4,3,13,05,55,320,,06,39,080,,07,07,077,,09,07,037,*76,1594283550453
NMEA,$GPGSV,4,4,13,30,12,108,*42,1594283550453
NMEA,$GLGSV,2,1,06,70,14,028,16,65,11,223,29,87,02,329,17,85,48,116,26*64,1594283550453
NMEA,$GLGSV,2,2,06,71,60,357,12,72,52,243,17*60,1594283550453
NMEA,$GAGSV,2,1,05,04,48,213,18,11,11,316,17,31,03,208,21,24,02,254,*62,1594283550454
NMEA,$GAGSV,2,2,05,33,49,094,*5D,1594283550454
NMEA,$PQGSV,1,1,02,194,11,157,14,195,67,151,14,0,5*6E,1594283550455
NMEA,$PQGSV,4,1,16,01,50,130,17,04,37,113,21,05,17,258,22,06,54,177,12,0,4*60,1594283550455
NMEA,$PQGSV,4,2,16,07,16,194,23,08,52,012,11,09,30,194,14,10,21,217,16,0,4*69,1594283550455
NMEA,$PQGSV,4,3,16,16,49,182,14,19,12,236,25,20,58,267,17,27,38,136,20,0,4*66,1594283550456
NMEA,$PQGSV,4,4,16,29,27,322,21,03,62,203,,13,42,334,,30,83,334,,0,4*68,1594283550456
NMEA,$GNGSA,A,3,06,12,15,17,19,25,29,,,,,,1.1,0.8,0.8,1*32,1594283550458
NMEA,$GNGSA,A,3,65,71,72,85,,,,,,,,,1.1,0.8,0.8,2*3F,1594283550458
NMEA,$GNGSA,A,2,11,,,,,,,,,,,,1.1,0.8,0.8,3*32,1594283550459
NMEA,$PQGSA,A,3,06,07,08,09,10,,,,,,,,1.1,0.8,0.8,4*3D,1594283550459
NMEA,$GNVTG,,T,,M,0.0,N,0.0,K,A*3D,1594283550459
NMEA,$GNRMC,083231.00,A,2255.508864,N,12017.667424,E,0.0,,090720,2.8,W,A*1D,1594283550459
NMEA,$GNGGA,083231.00,2255.508864,N,12017.667424,E,1,12,0.8,30.5,M,17.5,M,,*40,1594283550460
Raw,5171254,5191015000000,,,-1278313578426108416,0.0,82.214261055924,1.9447077169955747,11.237346367275103,14,6,0.0,207,41551364020355,1355,16.3,719.9329223632812,24.622501373291016,0,0.0,0.0,,,,,0,,3,,
Raw,5171256,5191015000000,,,-1278313578426108416,0.0,82.214261055924,1.9447077169955747,11.237346367275103,14,1,0.0,207,41551363246386,17,28.2,-631.0521850585938,0.2378000020980835,0,0.0,0.0,,,,,0,,3,,
Raw,5171260,5191015000000,,,-1278313578426108416,0.0,82.214261055924,1.9447077169955747,11.237346367275103,14,23,0.0,207,41551360261444,96,15.9,-730.2509155273438,2.2065000534057617,0,0.0,0.0,,,,,0,,3,,
Raw,5171263,5191015000000,,,-1278313578426108416,0.0,82.214261055924,1.9447077169955747,11.237346367275103,14,21,0.0,207,41551373083737,24,25.0,312.2710876464844,0.6013000011444092,0,0.0,0.0,,,,,0,,3,,
Raw,5171266,5191015000000,,,-1278313578426108416,0.0,82.214261055924,1.9447077169955747,11.237346367275103,14,7,0.0,207,41551374981035,1654,12.0,381.8550720214844,8.77750015258789,0,0.0,0.0,,,,,0,,3,,
Raw,5171272,5191015000000,,,-1278313578426108416,0.0,82.214261055924,1.9447077169955747,11.237346367275103,14,8,0.0,207,41551373863918,81,16.5,-269.73150634765625,1.3860000371932983,0,0.0,0.0,,,,,0,,3,,
Raw,5171275,5191015000000,,,-1278313578426108416,0.0,82.214261055924,1.9447077169955747,11.237346367275103,14,12,0.0,15,376369361278077,14,30.8,353.2826232910156,0.027300000190734863,0,0.0,0.0,,,,,0,,1,,
Raw,5171276,5191015000000,,,-1278313578426108416,0.0,82.214261055924,1.9447077169955747,11.237346367275103,14,13,0.0,15,376369368977325,190,15.5,-550.0819091796875,7.268500328063965,0,0.0,0.0,,,,,0,,1,,
Raw,5171277,5191015000000,,,-1278313578426108416,0.0,82.214261055924,1.9447077169955747,11.237346367275103,14,15,0.0,15,376369361928034,13,31.6,-701.9589233398438,0.02670000120997429,0,0.0,0.0,,,,,0,,1,,
Raw,5171278,5191015000000,,,-1278313578426108416,0.0,82.214261055924,1.9447077169955747,11.237346367275103,14,17,0.0,15,376369360157621,123,14.8,685.6566772460938,3.516500234603882,0,0.0,0.0,,,,,0,,1,,
Raw,5171279,5191015000000,,,-1278313578426108416,0.0,82.214261055924,1.9447077169955747,11.237346367275103,14,19,0.0,15,376369364457437,1691,12.7,662.2315063476562,9.672500610351562,0,0.0,0.0,,,,,0,,1,,
Raw,5171280,5191015000000,,,-1278313578426108416,0.0,82.214261055924,1.9447077169955747,11.237346367275103,14,25,0.0,15,376369358312127,9,35.7,181.77267456054688,0.048600003123283386,0,0.0,0.0,,,,,0,,1,,
Raw,5171280,5191015000000,,,-1278313578426108416,0.0,82.214261055924,1.9447077169955747,11.237346367275103,14,29,0.0,15,376369360723498,40,21.1,-629.3963012695312,0.8464999794960022,0,0.0,0.0,,,,,0,,1,,
Raw,5171281,5191015000000,,,-1278313578426108416,0.0,82.214261055924,1.9447077169955747,11.237346367275103,14,1,0.0,783,376355317410221,786,17.3,-2.4292995929718018,8.420000076293945,0,0.0,0.0,,,,,0,,5,,
Raw,5171282,5191015000000,,,-1278313578426108416,0.0,82.214261055924,1.9447077169955747,11.237346367275103,14,4,0.0,783,376355314592071,185,20.9,9.640382766723633,8.268500328063965,0,0.0,0.0,,,,,0,,5,,
Raw,5171282,5191015000000,,,-1278313578426108416,0.0,82.214261055924,1.9447077169955747,11.237346367275103,14,5,0.0,783,376355307963945,212,17.7,5.828398704528809,8.495000839233398,0,0.0,0.0,,,,,0,,5,,
Raw,5171283,5191015000000,,,-1278313578426108416,0.0,82.214261055924,1.9447077169955747,11.237346367275103,14,6,0.0,15,376355318565576,526,12.2,-188.21791076660156,13.93850040435791,0,0.0,0.0,,,,,0,,5,,
Raw,5171284,5191015000000,,,-1278313578426108416,0.0,82.214261055924,1.9447077169955747,11.237346367275103,14,7,0.0,15,376355309202577,31,23.4,257.01605224609375,0.6300000548362732,0,0.0,0.0,,,,,0,,5,,
Raw,5171285,5191015000000,,,-1278313578426108416,0.0,82.214261055924,1.9447077169955747,11.237346367275103,14,8,0.0,15,376355317579738,654,11.3,-118.90125274658203,15.737000465393066,0,0.0,0.0,,,,,0,,5,,
Raw,5171287,5191015000000,,,-1278313578426108416,0.0,82.214261055924,1.9447077169955747,11.237346367275103,14,9,0.0,15,376355313041133,244,13.6,-241.3648223876953,8.12600040435791,0,0.0,0.0,,,,,0,,5,,
Raw,5171288,5191015000000,,,-1278313578426108416,0.0,82.214261055924,1.9447077169955747,11.237346367275103,14,10,0.0,15,376355310669894,96,15.5,302.951904296875,1.93149995803833,0,0.0,0.0,,,,,0,,5,,
Raw,5171289,5191015000000,,,-1278313578426108416,0.0,82.214261055924,1.9447077169955747,11.237346367275103,14,16,0.0,15,376355316659295,382,14.4,-222.6602020263672,11.780500411987305,0,0.0,0.0,,,,,0,,5,,
Raw,5171289,5191015000000,,,-1278313578426108416,0.0,82.214261055924,1.9447077169955747,11.237346367275103,14,19,0.0,15,376355355867875,24,25.6,-444.9945983886719,0.4043000042438507,0,0.0,0.0,,,,,0,,5,,
Raw,5171290,5191015000000,,,-1278313578426108416,0.0,82.214261055924,1.9447077169955747,11.237346367275103,14,20,0.0,15,376355366101157,181,13.1,-106.9563980102539,5.865500450134277,0,0.0,0.0,,,,,0,,5,,
Raw,5171291,5191015000000,,,-1278313578426108416,0.0,82.214261055924,1.9447077169955747,11.237346367275103,14,27,0.0,15,376355363149919,53,19.1,445.4836120605469,0.8510000109672546,0,0.0,0.0,,,,,0,,5,,
Raw,5171292,5191015000000,,,-1278313578426108416,0.0,82.214261055924,1.9447077169955747,11.237346367275103,14,29,0.0,15,376355360185219,40,21.6,-529.712158203125,0.7264999747276306,0,0.0,0.0,,,,,0,,5,,
Raw,5171293,5191015000000,,,-1278313578426108416,0.0,82.214261055924,1.9447077169955747,11.237346367275103,14,4,0.0,7183,376369358966492,110,15.0,-348.6275329589844,3.3535001277923584,0,0.0,0.0,,,,,0,,6,,
Raw,5171293,5191015000000,,,-1278313578426108416,0.0,82.214261055924,1.9447077169955747,11.237346367275103,14,11,0.0,7183,376369353022367,46,20.8,-440.97705078125,0.7519999742507935,0,0.0,0.0,,,,,0,,6,,
Raw,5171294,5191015000000,,,-1278313578426108416,0.0,82.214261055924,1.9447077169955747,11.237346367275103,14,31,0.0,7183,376369345670997,24,25.6,279.5327453613281,0.4072999954223633,0,0.0,0.0,,,,,0,,6,,
Fix,gps,22.925148,120.294457,47.964478,0.000000,10.720000,1594283552000
NMEA,$GPGSV,4,1,13,12,18,247,31,13,43,181,16,15,18,209,32,17,10,151,15*7C,1594283551466
NMEA,$GPGSV,4,2,13,19,29,153,13,25,09,277,36,29,14,322,21,02,58,019,*7B,1594283551466
NMEA,$GPGSV,4,3,13,05,55,320,,06,39,080,,07,07,077,,09,07,037,*76,1594283551467
NMEA,$GPGSV,4,4,13,30,12,108,*42,1594283551468
NMEA,$GLGSV,2,1,06,70,14,028,16,65,11,223,28,87,02,329,16,85,48,116,25*67,1594283551468
NMEA,$GLGSV,2,2,06,71,60,357,12,72,52,243,17*60,1594283551477
NMEA,$GAGSV,2,1,05,04,48,213,15,11,11,316,21,31,03,208,26,24,02,254,*6D,1594283551478
NMEA,$GAGSV,2,2,05,33,49,094,*5D,1594283551480
NMEA,$PQGSV,1,1,02,194,11,157,14,195,67,151,14,0,5*6E,1594283551481
NMEA,$PQGSV,4,1,16,01,50,130,17,04,37,113,21,05,17,258,18,06,54,177,12,0,4*69,1594283551482
NMEA,$PQGSV,4,2,16,07,16,194,23,08,52,012,11,09,30,194,14,10,21,217,16,0,4*69,1594283551482
NMEA,$PQGSV,4,3,16,16,49,182,14,19,12,236,26,20,58,267,13,27,38,136,19,0,4*6B,1594283551482
NMEA,$PQGSV,4,4,16,29,27,322,22,03,62,203,,13,42,334,,30,83,334,,0,4*6B,1594283551483
NMEA,$GNGSA,A,3,12,15,17,19,25,29,,,,,,,1.1,0.8,0.8,1*34,1594283551484
NMEA,$GNGSA,A,3,65,71,72,85,,,,,,,,,1.1,0.8,0.8,2*3F,1594283551484
NMEA,$GNGSA,A,2,11,,,,,,,,,,,,1.1,0.8,0.8,3*32,1594283551484
NMEA,$PQGSA,A,3,06,07,08,09,10,,,,,,,,1.1,0.8,0.8,4*3D,1594283551484
NMEA,$GNVTG,,T,,M,0.0,N,0.0,K,A*3D,1594283551484
NMEA,$GNRMC,083232.00,A,2255.508857,N,12017.667427,E,0.0,,090720,2.8,W,A*1D,1594283551484
NMEA,$GNGGA,083232.00,2255.508857,N,12017.667427,E,1,12,0.8,30.5,M,17.5,M,,*40,1594283551484
Fix,gps,22.925147,120.294457,48.029663,0.000000,10.720000,1594283553000
Raw,5172056,5192015000000,,,-1278313578426108416,0.0,80.14970080694184,1.9133526583271283,12.254931010298312,14,6,0.0,207,41552364017953,1519,16.3,719.9329223632812,26.122501373291016,0,0.0,0.0,,,,,0,,3,,
Raw,5172057,5192015000000,,,-1278313578426108416,0.0,80.14970080694184,1.9133526583271283,12.254931010298312,14,1,0.0,207,41552363248498,17,28.0,-630.604248046875,0.2378000020980835,0,0.0,0.0,,,,,0,,3,,
Raw,5172057,5192015000000,,,-1278313578426108416,0.0,80.14970080694184,1.9133526583271283,12.254931010298312,14,23,0.0,207,41552360263880,111,15.9,-730.2509155273438,3.7065000534057617,0,0.0,0.0,,,,,0,,3,,
Raw,5172057,5192015000000,,,-1278313578426108416,0.0,80.14970080694184,1.9133526583271283,12.254931010298312,14,21,0.0,207,41552373082818,27,24.0,313.1165771484375,0.8360000252723694,0,0.0,0.0,,,,,0,,3,,
Raw,5172058,5192015000000,,,-1278313578426108416,0.0,80.14970080694184,1.9133526583271283,12.254931010298312,14,7,0.0,207,41552374979762,1711,12.0,381.8550720214844,10.27750015258789,0,0.0,0.0,,,,,0,,3,,
Raw,5172058,5192015000000,,,-1278313578426108416,0.0,80.14970080694184,1.9133526583271283,12.254931010298312,14,8,0.0,207,41552373864817,90,16.5,-269.73150634765625,2.886000156402588,0,0.0,0.0,,,,,0,,3,,
Raw,5172058,5192015000000,,,-1278313578426108416,0.0,80.14970080694184,1.9133526583271283,12.254931010298312,14,12,0.0,15,376370361276882,14,30.6,353.69915771484375,0.027300000190734863,0,0.0,0.0,,,,,0,,1,,
Raw,5172059,5192015000000,,,-1278313578426108416,0.0,80.14970080694184,1.9133526583271283,12.254931010298312,14,13,0.0,15,376370368979160,239,15.5,-550.0819091796875,8.768500328063965,0,0.0,0.0,,,,,0,,1,,
Raw,5172059,5192015000000,,,-1278313578426108416,0.0,80.14970080694184,1.9133526583271283,12.254931010298312,14,15,0.0,15,376370361930403,14,30.8,-701.5269165039062,0.027300000190734863,0,0.0,0.0,,,,,0,,1,,
Raw,5172059,5192015000000,,,-1278313578426108416,0.0,80.14970080694184,1.9133526583271283,12.254931010298312,14,17,0.0,15,376370360155334,147,14.8,685.6566772460938,5.016499996185303,0,0.0,0.0,,,,,0,,1,,
Raw,5172059,5192015000000,,,-1278313578426108416,0.0,80.14970080694184,1.9133526583271283,12.254931010298312,14,19,0.0,15,376370364455225,361,12.7,662.1553955078125,10.797500610351562,0,0.0,0.0,,,,,0,,1,,
Raw,5172060,5192015000000,,,-1278313578426108416,0.0,80.14970080694184,1.9133526583271283,12.254931010298312,14,25,0.0,15,376370358311510,9,35.0,182.23439025878906,0.048600003123283386,0,0.0,0.0,,,,,0,,1,,
Raw,5172060,5192015000000,,,-1278313578426108416,0.0,80.14970080694184,1.9133526583271283,12.254931010298312,14,29,0.0,15,376370360725534,61,18.7,-627.9976806640625,0.9965000152587891,0,0.0,0.0,,,,,0,,1,,
Raw,5172061,5192015000000,,,-1278313578426108416,0.0,80.14970080694184,1.9133526583271283,12.254931010298312,14,1,0.0,783,376356317410252,814,17.3,-3.2646713256835938,9.170000076293945,0,0.0,0.0,,,,,0,,5,,
Raw,5172061,5192015000000,,,-1278313578426108416,0.0,80.14970080694184,1.9133526583271283,12.254931010298312,14,4,0.0,783,376356314592080,40,22.0,17.571613311767578,1.8035000562667847,0,0.0,0.0,,,,,0,,5,,
Raw,5172062,5192015000000,,,-1278313578426108416,0.0,80.14970080694184,1.9133526583271283,12.254931010298312,14,5,0.0,783,376356307963926,270,17.7,5.828398704528809,9.995000839233398,0,0.0,0.0,,,,,0,,5,,
Raw,5172062,5192015000000,,,-1278313578426108416,0.0,80.14970080694184,1.9133526583271283,12.254931010298312,14,6,0.0,15,376356318566204,619,12.2,-188.21791076660156,15.43850040435791,0,0.0,0.0,,,,,0,,5,,
Raw,5172062,5192015000000,,,-1278313578426108416,0.0,80.14970080694184,1.9133526583271283,12.254931010298312,14,7,0.0,15,376356309201727,31,23.4,257.6017761230469,0.6300000548362732,0,0.0,0.0,,,,,0,,5,,
Raw,5172062,5192015000000,,,-1278313578426108416,0.0,80.14970080694184,1.9133526583271283,12.254931010298312,14,8,0.0,15,376356317580134,759,11.3,-118.90125274658203,17.237001419067383,0,0.0,0.0,,,,,0,,5,,
Raw,5172063,5192015000000,,,-1278313578426108416,0.0,80.14970080694184,1.9133526583271283,12.254931010298312,14,9,0.0,15,376356313041938,299,13.6,-241.3648223876953,9.62600040435791,0,0.0,0.0,,,,,0,,5,,
Raw,5172063,5192015000000,,,-1278313578426108416,0.0,80.14970080694184,1.9133526583271283,12.254931010298312,14,10,0.0,15,376356310668883,110,15.5,302.951904296875,3.431500196456909,0,0.0,0.0,,,,,0,,5,,
Raw,5172063,5192015000000,,,-1278313578426108416,0.0,80.14970080694184,1.9133526583271283,12.254931010298312,14,16,0.0,15,376356316660038,462,14.4,-222.6602020263672,13.280500411987305,0,0.0,0.0,,,,,0,,5,,
Raw,5172063,5192015000000,,,-1278313578426108416,0.0,80.14970080694184,1.9133526583271283,12.254931010298312,14,19,0.0,15,376356355869330,24,25.5,-444.5635986328125,0.4043000042438507,0,0.0,0.0,,,,,0,,5,,
Raw,5172064,5192015000000,,,-1278313578426108416,0.0,80.14970080694184,1.9133526583271283,12.254931010298312,14,20,0.0,15,376356366101514,220,13.1,-106.9563980102539,7.365500450134277,0,0.0,0.0,,,,,0,,5,,
Raw,5172064,5192015000000,,,-1278313578426108416,0.0,80.14970080694184,1.9133526583271283,12.254931010298312,14,27,0.0,15,376356363148448,46,20.0,447.18316650390625,0.7910000085830688,0,0.0,0.0,,,,,0,,5,,
Raw,5172064,5192015000000,,,-1278313578426108416,0.0,80.14970080694184,1.9133526583271283,12.254931010298312,14,29,0.0,15,376356360186951,40,21.8,-529.539306640625,0.6664999723434448,0,0.0,0.0,,,,,0,,5,,
Raw,5172064,5192015000000,,,-1278313578426108416,0.0,80.14970080694184,1.9133526583271283,12.254931010298312,14,4,0.0,7183,376370358967655,133,15.0,-348.6275329589844,4.853499889373779,0,0.0,0.0,,,,,0,,6,,
Raw,5172065,5192015000000,,,-1278313578426108416,0.0,80.14970080694184,1.9133526583271283,12.254931010298312,14,11,0.0,7183,376370353023793,40,21.2,-439.6545104980469,0.6919999718666077,0,0.0,0.0,,,,,0,,6,,
Raw,5172065,5192015000000,,,-1278313578426108416,0.0,80.14970080694184,1.9133526583271283,12.254931010298312,14,31,0.0,7183,376370345670079,27,24.9,278.11419677734375,0.5519999861717224,0,0.0,0.0,,,,,0,,6,,
NMEA,$GPGSV,4,1,13,12,18,247,31,13,43,181,16,15,18,209,31,17,10,151,15*7F,1594283552452
NMEA,$GPGSV,4,2,13,19,29,153,13,25,09,277,35,29,14,322,19,02,58,019,*73,1594283552452
NMEA,$GPGSV,4,3,13,05,55,320,,06,39,080,,07,07,077,,09,07,037,*76,1594283552452
NMEA,$GPGSV,4,4,13,30,12,108,*42,1594283552452
NMEA,$GLGSV,2,1,06,70,14,028,16,65,11,223,28,87,02,329,16,85,48,116,24*66,1594283552453
NMEA,$GLGSV,2,2,06,71,60,357,12,72,52,243,17*60,1594283552453
NMEA,$GAGSV,2,1,05,04,48,213,15,11,11,316,21,31,03,208,25,24,02,254,*6E,1594283552453
NMEA,$GAGSV,2,2,05,33,49,094,*5D,1594283552453
NMEA,$PQGSV,1,1,02,194,11,157,14,195,67,151,14,0,5*6E,1594283552454
NMEA,$PQGSV,4,1,16,01,50,130,17,04,37,113,22,05,17,258,18,06,54,177,12,0,4*6A,1594283552454
NMEA,$PQGSV,4,2,16,07,16,194,23,08,52,012,11,09,30,194,14,10,21,217,16,0,4*69,1594283552454
NMEA,$PQGSV,4,3,16,16,49,182,14,19,12,236,26,20,58,267,13,27,38,136,20,0,4*61,1594283552454
NMEA,$PQGSV,4,4,16,29,27,322,22,03,62,203,,13,42,334,,30,83,334,,0,4*6B,1594283552454
NMEA,$GNGSA,A,3,12,15,17,19,25,29,,,,,,,1.1,0.8,0.8,1*34,1594283552455
NMEA,$GNGSA,A,3,65,71,72,85,,,,,,,,,1.1,0.8,0.8,2*3F,1594283552455
NMEA,$GNGSA,A,2,11,,,,,,,,,,,,1.1,0.8,0.8,3*32,1594283552455
NMEA,$PQGSA,A,3,06,07,08,09,10,,,,,,,,1.1,0.8,0.8,4*3D,1594283552455
NMEA,$GNVTG,,T,,M,0.0,N,0.0,K,A*3D,1594283552455
NMEA,$GNRMC,083233.00,A,2255.508834,N,12017.667426,E,0.0,,090720,2.8,W,A*18,1594283552456
NMEA,$GNGGA,083233.00,2255.508834,N,12017.667426,E,1,12,0.8,30.6,M,17.5,M,,*46,1594283552456
Raw,5173083,5193015000000,,,-1278313578426108416,0.0,81.62712038028985,3.8943843357846246,11.27741569313337,14,6,0.0,207,41553364015552,1694,16.3,719.9329223632812,27.622501373291016,0,0.0,0.0,,,,,0,,3,,
Raw,5173084,5193015000000,,,-1278313578426108416,0.0,81.62712038028985,3.8943843357846246,11.27741569313337,14,1,0.0,207,41553363250583,19,27.6,-630.2861328125,0.24580000340938568,0,0.0,0.0,,,,,0,,3,,
Raw,5173084,5193015000000,,,-1278313578426108416,0.0,81.62712038028985,3.8943843357846246,11.27741569313337,14,23,0.0,207,41553360266315,136,15.9,-730.2509155273438,5.206500053405762,0,0.0,0.0,,,,,0,,3,,
Raw,5173085,5193015000000,,,-1278313578426108416,0.0,81.62712038028985,3.8943843357846246,11.27741569313337,14,21,0.0,207,41553373081583,31,23.4,312.42510986328125,0.8859999775886536,0,0.0,0.0,,,,,0,,3,,
Raw,5173085,5193015000000,,,-1278313578426108416,0.0,81.62712038028985,3.8943843357846246,11.27741569313337,14,7,0.0,207,41553374978488,1779,12.0,381.8550720214844,11.77750015258789,0,0.0,0.0,,,,,0,,3,,
Raw,5173086,5193015000000,,,-1278313578426108416,0.0,81.62712038028985,3.8943843357846246,11.27741569313337,14,8,0.0,207,41553373865592,84,16.6,-267.2011413574219,2.136000156402588,0,0.0,0.0,,,,,0,,3,,
Raw,5173086,5193015000000,,,-1278313578426108416,0.0,81.62712038028985,3.8943843357846246,11.27741569313337,14,12,0.0,15,376371361275750,14,30.1,352.91900634765625,0.027300000190734863,0,0.0,0.0,,,,,0,,1,,
Raw,5173087,5193015000000,,,-1278313578426108416,0.0,81.62712038028985,3.8943843357846246,11.27741569313337,14,13,0.0,15,376371368980995,299,15.5,-550.0819091796875,10.268500328063965,0,0.0,0.0,,,,,0,,1,,
Raw,5173087,5193015000000,,,-1278313578426108416,0.0,81.62712038028985,3.8943843357846246,11.27741569313337,14,15,0.0,15,376371361932707,14,30.7,-702.3309936523438,0.027300000190734863,0,0.0,0.0,,,,,0,,1,,
Raw,5173088,5193015000000,,,-1278313578426108416,0.0,81.62712038028985,3.8943843357846246,11.27741569313337,14,17,0.0,15,376371360153091,96,15.8,685.180908203125,2.006500005722046,0,0.0,0.0,,,,,0,,1,,
Raw,5173088,5193015000000,,,-1278313578426108416,0.0,81.62712038028985,3.8943843357846246,11.27741569313337,14,19,0.0,15,376371364453016,432,12.7,662.1553955078125,12.297500610351562,0,0.0,0.0,,,,,0,,1,,
Raw,5173089,5193015000000,,,-1278313578426108416,0.0,81.62712038028985,3.8943843357846246,11.27741569313337,14,25,0.0,15,376371358310911,11,33.8,181.568115234375,0.04990000277757645,0,0.0,0.0,,,,,0,,1,,
Raw,5173089,5193015000000,,,-1278313578426108416,0.0,81.62712038028985,3.8943843357846246,11.27741569313337,14,29,0.0,15,376371360727707,46,20.4,-629.5866088867188,0.9164999723434448,0,0.0,0.0,,,,,0,,1,,
Raw,5173089,5193015000000,,,-1278313578426108416,0.0,81.62712038028985,3.8943843357846246,11.27741569313337,14,1,0.0,783,376357317410263,877,17.3,-3.2646713256835938,10.670000076293945,0,0.0,0.0,,,,,0,,5,,
Raw,5173090,5193015000000,,,-1278313578426108416,0.0,81.62712038028985,3.8943843357846246,11.27741569313337,14,5,0.0,783,376357307963907,339,17.7,5.828398704528809,11.495000839233398,0,0.0,0.0,,,,,0,,5,,
Raw,5173090,5193015000000,,,-1278313578426108416,0.0,81.62712038028985,3.8943843357846246,11.27741569313337,14,6,0.0,15,376357318566832,722,12.2,-188.21791076660156,16.938501358032227,0,0.0,0.0,,,,,0,,5,,
Raw,5173091,5193015000000,,,-1278313578426108416,0.0,81.62712038028985,3.8943843357846246,11.27741569313337,14,7,0.0,15,376357309200857,31,23.2,256.53594970703125,0.6300000548362732,0,0.0,0.0,,,,,0,,5,,
Raw,5173092,5193015000000,,,-1278313578426108416,0.0,81.62712038028985,3.8943843357846246,11.27741569313337,14,8,0.0,15,376357317580531,874,11.3,-118.90125274658203,18.737001419067383,0,0.0,0.0,,,,,0,,5,,
Raw,5173092,5193015000000,,,-1278313578426108416,0.0,81.62712038028985,3.8943843357846246,11.27741569313337,14,9,0.0,15,376357313042743,364,13.6,-241.3648223876953,11.12600040435791,0,0.0,0.0,,,,,0,,5,,
Raw,5173092,5193015000000,,,-1278313578426108416,0.0,81.62712038028985,3.8943843357846246,11.27741569313337,14,10,0.0,15,376357310667873,134,15.5,302.951904296875,4.93149995803833,0,0.0,0.0,,,,,0,,5,,
Raw,5173093,5193015000000,,,-1278313578426108416,0.0,81.62712038028985,3.8943843357846246,11.27741569313337,14,16,0.0,15,376357316660781,551,14.4,-222.6602020263672,14.780500411987305,0,0.0,0.0,,,,,0,,5,,
Raw,5173093,5193015000000,,,-1278313578426108416,0.0,81.62712038028985,3.8943843357846246,11.27741569313337,14,19,0.0,15,376357355870836,27,24.5,-445.051513671875,0.5989999771118164,0,0.0,0.0,,,,,0,,5,,
Raw,5173094,5193015000000,,,-1278313578426108416,0.0,81.62712038028985,3.8943843357846246,11.27741569313337,14,20,0.0,15,376357366101870,270,13.1,-106.9563980102539,8.865500450134277,0,0.0,0.0,,,,,0,,5,,
Raw,5173094,5193015000000,,,-1278313578426108416,0.0,81.62712038028985,3.8943843357846246,11.27741569313337,14,27,0.0,15,376357363146940,61,18.9,446.5974426269531,0.8510000109672546,0,0.0,0.0,,,,,0,,5,,
Raw,5173095,5193015000000,,,-1278313578426108416,0.0,81.62712038028985,3.8943843357846246,11.27741569313337,14,29,0.0,15,376357360188752,53,19.4,-530.8067626953125,0.8464999794960022,0,0.0,0.0,,,,,0,,5,,
Raw,5173095,5193015000000,,,-1278313578426108416,0.0,81.62712038028985,3.8943843357846246,11.27741569313337,14,4,0.0,7183,376371358968818,167,15.0,-348.6275329589844,6.3535003662109375,0,0.0,0.0,,,,,0,,6,,
Raw,5173096,5193015000000,,,-1278313578426108416,0.0,81.62712038028985,3.8943843357846246,11.27741569313337,14,11,0.0,7183,376371353025277,61,18.8,-441.8238525390625,0.871999979019165,0,0.0,0.0,,,,,0,,6,,
Raw,5173096,5193015000000,,,-1278313578426108416,0.0,81.62712038028985,3.8943843357846246,11.27741569313337,14,31,0.0,7183,376371345669148,27,24.9,277.1532287597656,0.5519999861717224,0,0.0,0.0,,,,,0,,6,,
Fix,gps,22.925147,120.294457,48.046631,0.000000,10.720000,1594283554000
NMEA,$GPGSV,4,1,13,12,18,247,30,13,43,181,16,15,18,209,31,17,10,151,16*7D,1594283553449
NMEA,$GPGSV,4,2,13,19,29,153,13,25,09,277,34,29,14,322,20,02,58,019,*78,1594283553449
NMEA,$GPGSV,4,3,13,05,55,320,,06,39,080,,07,07,077,,09,07,037,*76,1594283553449
NMEA,$GPGSV,4,4,13,30,12,108,*42,1594283553449
NMEA,$GLGSV,2,1,06,70,14,028,16,65,11,223,28,87,02,329,16,85,48,116,23*61,1594283553449
NMEA,$GLGSV,2,2,06,71,60,357,12,72,52,243,17*60,1594283553452
NMEA,$GAGSV,2,1,05,04,48,213,15,11,11,316,19,31,03,208,25,24,02,254,*65,1594283553452
NMEA,$GAGSV,2,2,05,33,49,094,*5D,1594283553452
NMEA,$PQGSV,1,1,02,194,11,157,14,195,67,151,14,0,5*6E,1594283553452
NMEA,$PQGSV,4,1,16,01,50,130,17,05,17,258,18,06,54,177,12,07,16,194,23,0,4*64,1594283553453
NMEA,$PQGSV,4,2,16,08,52,012,11,09,30,194,14,10,21,217,16,16,49,182,14,0,4*60,1594283553453
NMEA,$PQGSV,4,3,16,19,12,236,25,20,58,267,13,27,38,136,19,29,27,322,19,0,4*69,1594283553454
NMEA,$PQGSV,4,4,16,03,62,203,,04,37,113,,13,42,334,,30,83,334,,0,4*65,1594283553454
NMEA,$GNGSA,A,3,12,15,17,19,25,29,,,,,,,1.1,0.8,0.8,1*34,1594283553456
NMEA,$GNGSA,A,3,65,71,72,85,,,,,,,,,1.1,0.8,0.8,2*3F,1594283553456
NMEA,$GNGSA,A,2,11,,,,,,,,,,,,1.1,0.8,0.8,3*32,1594283553456
NMEA,$PQGSA,A,3,06,07,08,09,10,,,,,,,,1.1,0.8,0.8,4*3D,1594283553456
NMEA,$GNVTG,,T,,M,0.0,N,0.0,K,A*3D,1594283553457
NMEA,$GNRMC,083234.00,A,2255.508819,N,12017.667421,E,0.0,,090720,2.8,W,A*17,1594283553457
NMEA,$GNGGA,083234.00,2255.508819,N,12017.667421,E,1,12,0.8,30.6,M,17.5,M,,*49,1594283553457
Raw,5174209,5194015000000,,,-1278313578426108416,0.0,87.83159137237817,1.6968513324358663,16.043182609928078,14,6,0.0,207,41554364013150,1879,16.3,719.9329223632812,29.122501373291016,0,0.0,0.0,,,,,0,,3,,
Raw,5174210,5194015000000,,,-1278313578426108416,0.0,87.83159137237817,1.6968513324358663,16.043182609928078,14,1,0.0,207,41554363252714,19,27.2,-633.1033325195312,0.7010000348091125,0,0.0,0.0,,,,,0,,3,,
Raw,5174211,5194015000000,,,-1278313578426108416,0.0,87.83159137237817,1.6968513324358663,16.043182609928078,14,23,0.0,207,41554360268853,116,14.9,-730.0733642578125,3.056500196456909,0,0.0,0.0,,,,,0,,3,,
Raw,5174211,5194015000000,,,-1278313578426108416,0.0,87.83159137237817,1.6968513324358663,16.043182609928078,14,21,0.0,207,41554373080594,24,25.2,310.0985412597656,0.7960000038146973,0,0.0,0.0,,,,,0,,3,,
Raw,5174212,5194015000000,,,-1278313578426108416,0.0,87.83159137237817,1.6968513324358663,16.043182609928078,14,7,0.0,207,41554374977355,1945,11.9,381.6962890625,10.407500267028809,0,0.0,0.0,,,,,0,,3,,
Raw,5174213,5194015000000,,,-1278313578426108416,0.0,87.83159137237817,1.6968513324358663,16.043182609928078,14,8,0.0,207,41554373866710,81,16.9,-270.39447021484375,1.3860000371932983,0,0.0,0.0,,,,,0,,3,,
Raw,5174214,5194015000000,,,-1278313578426108416,0.0,87.83159137237817,1.6968513324358663,16.043182609928078,14,12,0.0,15,376372361274563,17,28.7,350.87884521484375,0.03480000048875809,0,0.0,0.0,,,,,0,,1,,
Raw,5174215,5194015000000,,,-1278313578426108416,0.0,87.83159137237817,1.6968513324358663,16.043182609928078,14,13,0.0,15,376372368982829,368,15.5,-550.0819091796875,11.768500328063965,0,0.0,0.0,,,,,0,,1,,
Raw,5174215,5194015000000,,,-1278313578426108416,0.0,87.83159137237817,1.6968513324358663,16.043182609928078,14,15,0.0,15,376372361935094,12,32.7,-704.3480834960938,0.02540000155568123,0,0.0,0.0,,,,,0,,1,,
Raw,5174216,5194015000000,,,-1278313578426108416,0.0,87.83159137237817,1.6968513324358663,16.043182609928078,14,17,0.0,15,376372360150806,110,15.8,685.180908203125,3.506500005722046,0,0.0,0.0,,,,,0,,1,,
Raw,5174217,5194015000000,,,-1278313578426108416,0.0,87.83159137237817,1.6968513324358663,16.043182609928078,14,19,0.0,15,376372364450807,514,12.7,662.1553955078125,13.797500610351562,0,0.0,0.0,,,,,0,,1,,
Raw,5174218,5194015000000,,,-1278313578426108416,0.0,87.83159137237817,1.6968513324358663,16.043182609928078,14,25,0.0,15,376372358310326,11,33.8,179.48342895507812,0.04990000277757645,0,0.0,0.0,,,,,0,,1,,
Raw,5174218,5194015000000,,,-1278313578426108416,0.0,87.83159137237817,1.6968513324358663,16.043182609928078,14,29,0.0,15,376372360729649,40,21.0,-632.59326171875,0.8464999794960022,0,0.0,0.0,,,,,0,,1,,
Raw,5174219,5194015000000,,,-1278313578426108416,0.0,87.83159137237817,1.6968513324358663,16.043182609928078,14,1,0.0,783,376358317410274,950,17.3,-3.2646713256835938,12.170000076293945,0,0.0,0.0,,,,,0,,5,,
Raw,5174220,5194015000000,,,-1278313578426108416,0.0,87.83159137237817,1.6968513324358663,16.043182609928078,14,5,0.0,783,376358307964106,54,20.0,-2.7269606590270996,2.2850000858306885,0,0.0,0.0,,,,,0,,5,,
Raw,5174221,5194015000000,,,-1278313578426108416,0.0,87.83159137237817,1.6968513324358663,16.043182609928078,14,6,0.0,15,376358318567459,835,12.2,-188.21791076660156,18.438501358032227,0,0.0,0.0,,,,,0,,5,,
Raw,5174221,5194015000000,,,-1278313578426108416,0.0,87.83159137237817,1.6968513324358663,16.043182609928078,14,7,0.0,15,376358309200001,31,23.2,254.6731719970703,0.6300000548362732,0,0.0,0.0,,,,,0,,5,,
Raw,5174222,5194015000000,,,-1278313578426108416,0.0,87.83159137237817,1.6968513324358663,16.043182609928078,14,8,0.0,15,376358317580927,998,11.3,-118.90125274658203,20.237001419067383,0,0.0,0.0,,,,,0,,5,,
Raw,5174223,5194015000000,,,-1278313578426108416,0.0,87.83159137237817,1.6968513324358663,16.043182609928078,14,9,0.0,15,376358313043548,439,13.6,-241.3648223876953,12.62600040435791,0,0.0,0.0,,,,,0,,5,,
Raw,5174224,5194015000000,,,-1278313578426108416,0.0,87.83159137237817,1.6968513324358663,16.043182609928078,14,10,0.0,15,376358310666855,116,14.5,301.78045654296875,2.7715001106262207,0,0.0,0.0,,,,,0,,5,,
Raw,5174224,5194015000000,,,-1278313578426108416,0.0,87.83159137237817,1.6968513324358663,16.043182609928078,14,16,0.0,15,376358316661524,651,14.4,-222.6602020263672,16.280500411987305,0,0.0,0.0,,,,,0,,5,,
Raw,5174226,5194015000000,,,-1278313578426108416,0.0,87.83159137237817,1.6968513324358663,16.043182609928078,14,19,0.0,15,376358355872341,21,26.1,-447.40399169921875,0.5189999938011169,0,0.0,0.0,,,,,0,,5,,
Raw,5174226,5194015000000,,,-1278313578426108416,0.0,87.83159137237817,1.6968513324358663,16.043182609928078,14,20,0.0,15,376358366102227,330,13.1,-106.9563980102539,10.365500450134277,0,0.0,0.0,,,,,0,,5,,
Raw,5174227,5194015000000,,,-1278313578426108416,0.0,87.83159137237817,1.6968513324358663,16.043182609928078,14,27,0.0,15,376358363145449,35,22.4,444.59063720703125,0.6710000038146973,0,0.0,0.0,,,,,0,,5,,
Raw,5174228,5194015000000,,,-1278313578426108416,0.0,87.83159137237817,1.6968513324358663,16.043182609928078,14,29,0.0,15,376358360190512,35,22.0,-532.1414184570312,0.6664999723434448,0,0.0,0.0,,,,,0,,5,,
Raw,5174228,5194015000000,,,-1278313578426108416,0.0,87.83159137237817,1.6968513324358663,16.043182609928078,14,4,0.0,7183,376372358969981,211,15.0,-348.6275329589844,7.8535003662109375,0,0.0,0.0,,,,,0,,6,,
Raw,5174229,5194015000000,,,-1278313578426108416,0.0,87.83159137237817,1.6968513324358663,16.043182609928078,14,11,0.0,7183,376372353026811,53,19.0,-443.6792297363281,0.8119999766349792,0,0.0,0.0,,,,,0,,6,,
Raw,5174230,5194015000000,,,-1278313578426108416,0.0,87.83159137237817,1.6968513324358663,16.043182609928078,14,31,0.0,7183,376372345668210,27,24.1,275.1075744628906,0.5519999861717224,0,0.0,0.0,,,,,0,,6,,
Fix,gps,22.925147,120.294457,48.060120,0.000000,10.720000,1594283555000
NMEA,$GPGSV,4,1,13,12,18,247,29,13,43,181,16,15,18,209,33,17,10,151,16*77,1594283554452
NMEA,$GPGSV,4,2,13,19,29,153,13,25,09,277,34,29,14,322,21,02,58,019,*79,1594283554452
NMEA,$GPGSV,4,3,13,05,55,320,,06,39,080,,07,07,077,,09,07,037,*76,1594283554452
NMEA,$GPGSV,4,4,13,30,12,108,*42,1594283554452
NMEA,$GLGSV,2,1,06,70,14,028,16,65,11,223,27,87,02,329,15,85,48,116,25*6B,1594283554453
NMEA,$GLGSV,2,2,06,71,60,357,12,72,52,243,17*60,1594283554453
NMEA,$GAGSV,2,1,05,04,48,213,15,11,11,316,19,31,03,208,24,24,02,254,*64,1594283554453
NMEA,$GAGSV,2,2,05,33,49,094,*5D,1594283554454
NMEA,$PQGSV,1,1,02,194,11,157,14,195,67,151,14,0,5*6E,1594283554454
NMEA,$PQGSV,4,1,16,01,50,130,17,05,17,258,20,06,54,177,12,07,16,194,23,0,4*6F,1594283554454
NMEA,$PQGSV,4,2,16,08,52,012,11,09,30,194,14,10,21,217,15,16,49,182,14,0,4*63,1594283554454
NMEA,$PQGSV,4,3,16,19,12,236,26,20,58,267,13,27,38,136,22,29,27,322,22,0,4*6A,1594283554454
NMEA,$PQGSV,4,4,16,03,62,203,,04,37,113,,13,42,334,,30,83,334,,0,4*65,1594283554455
NMEA,$GNGSA,A,3,12,15,17,19,25,29,,,,,,,1.2,0.8,0.8,1*37,1594283554455
NMEA,$GNGSA,A,3,65,71,72,85,,,,,,,,,1.2,0.8,0.8,2*3C,1594283554456
NMEA,$GNGSA,A,2,11,,,,,,,,,,,,1.2,0.8,0.8,3*31,1594283554456
NMEA,$PQGSA,A,3,06,07,08,09,10,,,,,,,,1.2,0.8,0.8,4*3E,1594283554456
NMEA,$GNVTG,,T,,M,0.0,N,0.0,K,A*3D,1594283554456
NMEA,$GNRMC,083235.00,A,2255.508809,N,12017.667419,E,0.0,,090720,2.8,W,A*1C,1594283554457
NMEA,$GNGGA,083235.00,2255.508809,N,12017.667419,E,1,12,0.8,30.6,M,17.5,M,,*42,1594283554457
Fix,gps,22.925147,120.294457,48.096191,0.000000,10.720000,1594283556000
Raw,5175059,5195015000000,,,-1278313578426108416,0.0,87.65808161115274,-6.0836504162551535,15.238357307334583,14,6,0.0,207,41555364010749,2074,16.3,719.9329223632812,30.622501373291016,0,0.0,0.0,,,,,0,,3,,
Raw,5175060,5195015000000,,,-1278313578426108416,0.0,87.65808161115274,-6.0836504162551535,15.238357307334583,14,1,0.0,207,41555363254824,19,27.0,-632.6372680664062,0.24580000340938568,0,0.0,0.0,,,,,0,,3,,
Raw,5175060,5195015000000,,,-1278313578426108416,0.0,87.65808161115274,-6.0836504162551535,15.238357307334583,14,23,0.0,207,41555360271288,137,14.9,-730.0733642578125,4.556500434875488,0,0.0,0.0,,,,,0,,3,,
Raw,5175060,5195015000000,,,-1278313578426108416,0.0,87.65808161115274,-6.0836504162551535,15.238357307334583,14,21,0.0,207,41555373079563,24,25.5,310.8783874511719,0.6013000011444092,0,0.0,0.0,,,,,0,,3,,
Raw,5175061,5195015000000,,,-1278313578426108416,0.0,87.65808161115274,-6.0836504162551535,15.238357307334583,14,7,0.0,207,41555374976048,406,11.9,381.808349609375,11.532500267028809,0,0.0,0.0,,,,,0,,3,,
Raw,5175061,5195015000000,,,-1278313578426108416,0.0,87.65808161115274,-6.0836504162551535,15.238357307334583,14,8,0.0,207,41555373867824,53,19.2,-269.40472412109375,1.1360000371932983,0,0.0,0.0,,,,,0,,3,,
Raw,5175061,5195015000000,,,-1278313578426108416,0.0,87.65808161115274,-6.0836504162551535,15.238357307334583,14,12,0.0,15,376373361273381,14,30.0,351.5477600097656,0.027300000190734863,0,0.0,0.0,,,,,0,,1,,
Raw,5175061,5195015000000,,,-1278313578426108416,0.0,87.65808161115274,-6.0836504162551535,15.238357307334583,14,13,0.0,15,376373368984800,201,13.6,-553.2693481445312,6.738500118255615,0,0.0,0.0,,,,,0,,1,,
Raw,5175062,5195015000000,,,-1278313578426108416,0.0,87.65808161115274,-6.0836504162551535,15.238357307334583,14,15,0.0,15,376373361937428,10,34.0,-703.7197265625,0.023600000888109207,0,0.0,0.0,,,,,0,,1,,
Raw,5175062,5195015000000,,,-1278313578426108416,0.0,87.65808161115274,-6.0836504162551535,15.238357307334583,14,17,0.0,15,376373360148337,84,16.8,684.1343383789062,1.9164999723434448,0,0.0,0.0,,,,,0,,1,,
Raw,5175062,5195015000000,,,-1278313578426108416,0.0,87.65808161115274,-6.0836504162551535,15.238357307334583,14,19,0.0,15,376373364448599,606,12.7,662.1553955078125,15.297500610351562,0,0.0,0.0,,,,,0,,1,,
Raw,5175063,5195015000000,,,-1278313578426108416,0.0,87.65808161115274,-6.0836504162551535,15.238357307334583,14,25,0.0,15,376373358309725,10,34.3,180.1776580810547,0.04910000041127205,0,0.0,0.0,,,,,0,,1,,
Raw,5175063,5195015000000,,,-1278313578426108416,0.0,87.65808161115274,-6.0836504162551535,15.238357307334583,14,29,0.0,15,376373360731738,31,23.0,-630.509521484375,0.7264999747276306,0,0.0,0.0,,,,,0,,1,,
Raw,5175064,5195015000000,,,-1278313578426108416,0.0,87.65808161115274,-6.0836504162551535,15.238357307334583,14,1,0.0,783,376359317410285,1032,17.3,-3.2646713256835938,13.670001029968262,0,0.0,0.0,,,,,0,,5,,
Raw,5175064,5195015000000,,,-1278313578426108416,0.0,87.65808161115274,-6.0836504162551535,15.238357307334583,14,5,0.0,783,376359307964116,71,20.0,-2.7269606590270996,3.7850000858306885,0,0.0,0.0,,,,,0,,5,,
Raw,5175064,5195015000000,,,-1278313578426108416,0.0,87.65808161115274,-6.0836504162551535,15.238357307334583,14,6,0.0,15,376359318568087,958,12.2,-188.21791076660156,19.938501358032227,0,0.0,0.0,,,,,0,,5,,
Raw,5175065,5195015000000,,,-1278313578426108416,0.0,87.65808161115274,-6.0836504162551535,15.238357307334583,14,7,0.0,15,376359309199195,40,21.9,255.1820831298828,0.6800000071525574,0,0.0,0.0,,,,,0,,5,,
Raw,5175065,5195015000000,,,-1278313578426108416,0.0,87.65808161115274,-6.0836504162551535,15.238357307334583,14,8,0.0,15,376359317581324,1133,11.3,-118.90125274658203,21.737001419067383,0,0.0,0.0,,,,,0,,5,,
Raw,5175065,5195015000000,,,-1278313578426108416,0.0,87.65808161115274,-6.0836504162551535,15.238357307334583,14,9,0.0,15,376359313044353,523,13.6,-241.3648223876953,14.12600040435791,0,0.0,0.0,,,,,0,,5,,
Raw,5175065,5195015000000,,,-1278313578426108416,0.0,87.65808161115274,-6.0836504162551535,15.238357307334583,14,10,0.0,15,376359310665848,135,14.5,301.78045654296875,4.271500110626221,0,0.0,0.0,,,,,0,,5,,
Raw,5175066,5195015000000,,,-1278313578426108416,0.0,87.65808161115274,-6.0836504162551535,15.238357307334583,14,16,0.0,15,376359316662266,760,14.4,-222.6602020263672,17.780500411987305,0,0.0,0.0,,,,,0,,5,,
Raw,5175066,5195015000000,,,-1278313578426108416,0.0,87.65808161115274,-6.0836504162551535,15.238357307334583,14,19,0.0,15,376359355873807,24,25.0,-446.76019287109375,0.4043000042438507,0,0.0,0.0,,,,,0,,5,,
Raw,5175066,5195015000000,,,-1278313578426108416,0.0,87.65808161115274,-6.0836504162551535,15.238357307334583,14,20,0.0,15,376359366102584,399,13.1,-106.9563980102539,11.865500450134277,0,0.0,0.0,,,,,0,,5,,
Raw,5175067,5195015000000,,,-1278313578426108416,0.0,87.65808161115274,-6.0836504162551535,15.238357307334583,14,27,0.0,15,376359363143918,53,19.7,445.0995178222656,0.8510000109672546,0,0.0,0.0,,,,,0,,5,,
Raw,5175067,5195015000000,,,-1278313578426108416,0.0,87.65808161115274,-6.0836504162551535,15.238357307334583,14,29,0.0,15,376359360192298,40,21.3,-531.488525390625,0.7264999747276306,0,0.0,0.0,,,,,0,,5,,
Raw,5175067,5195015000000,,,-1278313578426108416,0.0,87.65808161115274,-6.0836504162551535,15.238357307334583,14,4,0.0,7183,376373358971196,97,16.2,-352.2050476074219,3.2735002040863037,0,0.0,0.0,,,,,0,,6,,
Raw,5175068,5195015000000,,,-1278313578426108416,0.0,87.65808161115274,-6.0836504162551535,15.238357307334583,14,11,0.0,7183,376373353028264,35,22.1,-442.8229064941406,0.6420000195503235,0,0.0,0.0,,,,,0,,6,,
Raw,5175068,5195015000000,,,-1278313578426108416,0.0,87.65808161115274,-6.0836504162551535,15.238357307334583,14,31,0.0,7183,376373345667305,27,24.6,275.8116455078125,0.5519999861717224,0,0.0,0.0,,,,,0,,6,,
NMEA,$GPGSV,4,1,13,12,18,247,30,13,43,181,14,15,18,209,34,17,10,151,17*7B,1594283555452
NMEA,$GPGSV,4,2,13,19,29,153,13,25,09,277,34,29,14,322,23,02,58,019,*7B,1594283555453
NMEA,$GPGSV,4,3,13,05,55,320,,06,39,080,,07,07,077,,09,07,037,*76,1594283555453
NMEA,$GPGSV,4,4,13,30,12,108,*42,1594283555453
NMEA,$GLGSV,2,1,06,70,14,028,16,65,11,223,27,87,02,329,15,85,48,116,26*68,1594283555455
NMEA,$GLGSV,2,2,06,71,60,357,12,72,52,243,19*6E,1594283555455
NMEA,$GAGSV,2,1,05,04,48,213,16,11,11,316,22,31,03,208,25,24,02,254,*6E,1594283555455
NMEA,$GAGSV,2,2,05,33,49,094,*5D,1594283555456
NMEA,$PQGSV,1,1,02,194,11,157,14,195,67,151,,0,5*6B,1594283555457
NMEA,$PQGSV,4,1,16,01,50,130,17,05,17,258,20,06,54,177,12,07,16,194,22,0,4*6E,1594283555457
NMEA,$PQGSV,4,2,16,08,52,012,11,09,30,194,14,10,21,217,15,16,49,182,14,0,4*63,1594283555458
NMEA,$PQGSV,4,3,16,19,12,236,25,20,58,267,13,27,38,136,20,29,27,322,21,0,4*68,1594283555458
NMEA,$PQGSV,4,4,16,03,62,203,,04,37,113,,13,42,334,,30,83,334,,0,4*65,1594283555459
NMEA,$GNGSA,A,3,12,15,17,19,25,29,,,,,,,1.1,0.8,0.8,1*34,1594283555460
NMEA,$GNGSA,A,3,65,71,72,85,,,,,,,,,1.1,0.8,0.8,2*3F,1594283555461
NMEA,$GNGSA,A,2,11,,,,,,,,,,,,1.1,0.8,0.8,3*32,1594283555461
NMEA,$PQGSA,A,3,05,06,07,10,,,,,,,,,1.1,0.8,0.8,4*39,1594283555461
NMEA,$GNVTG,,T,,M,0.0,N,0.0,K,A*3D,1594283555461
NMEA,$GNRMC,083236.00,A,2255.508799,N,12017.667415,E,0.0,,090720,2.8,W,A*15,1594283555463
NMEA,$GNGGA,083236.00,2255.508799,N,12017.667415,E,1,12,0.8,30.6,M,17.5,M,,*4B,1594283555463
Fix,gps,22.925147,120.294457,48.100952,0.000000,10.720000,1594283557000
Raw,5176073,5196015000000,,,-1278313578426108416,0.0,87.33345021028072,-4.005155535401461,12.141494036223772,14,6,0.0,207,41556364008347,2279,16.3,719.9329223632812,32.122501373291016,0,0.0,0.0,,,,,0,,3,,
