# 
# Header Description:
# 
# Version: v2.0.0.1 Platform: 8.0.0 Manufacturer: Sony Model: G8142
# 
# Raw,ElapsedRealtimeMillis,TimeNanos,LeapSecond,TimeUncertaintyNanos,FullBiasNanos,BiasNanos,BiasUncertaintyNanos,DriftNanosPerSecond,DriftUncertaintyNanosPerSecond,HardwareClockDiscontinuityCount,Svid,TimeOffsetNanos,State,ReceivedSvTimeNanos,ReceivedSvTimeUncertaintyNanos,Cn0DbHz,PseudorangeRateMetersPerSecond,PseudorangeRateUncertaintyMetersPerSecond,AccumulatedDeltaRangeState,AccumulatedDeltaRangeMeters,AccumulatedDeltaRangeUncertaintyMeters,CarrierFrequencyHz,CarrierCycles,CarrierPhase,CarrierPhaseUncertainty,MultipathIndicator,SnrInDb,ConstellationType,AgcDb,CarrierFrequencyHz
# 
# Fix,Provider,Latitude,Longitude,Altitude,Speed,Accuracy,(UTC)TimeInMs
# 
# Nav,Svid,Type,Status,MessageId,Sub-messageId,Data(Bytes)
# 
Raw,5438311,5458015000000,,,-1278313578426106624,0.0,80.39054227992892,13.202021347323532,14.564902515218137,14,1,0.0,207,41818363799360,39,23.9,-609.513671875,2.371000051498413,0,0.0,0.0,,,,,0,,3,,
Raw,5438311,5458015000000,,,-1278313578426106624,0.0,80.39054227992892,13.202021347323532,14.564902515218137,14,23,0.0,207,41818360913766,53,19.9,-733.1578369140625,1.1165000200271606,0,0.0,0.0,,,,,0,,3,,
Raw,5438311,5458015000000,,,-1278313578426106624,0.0,80.39054227992892,13.202021347323532,14.564902515218137,14,21,0.0,207,41818372789662,35,22.4,349.33270263671875,0.9444999694824219,0,0.0,0.0,,,,,0,,3,,
Raw,5438312,5458015000000,,,-1278313578426106624,0.0,80.39054227992892,13.202021347323532,14.564902515218137,14,7,0.0,207,41818374630029,128,17.9,406.83135986328125,5.797500133514404,0,0.0,0.0,,,,,0,,3,,
Raw,5438312,5458015000000,,,-1278313578426106624,0.0,80.39054227992892,13.202021347323532,14.564902515218137,14,8,0.0,207,41818374086419,81,16.8,-229.89923095703125,1.3875000476837158,0,0.0,0.0,,,,,0,,3,,
Raw,5438312,5458015000000,,,-1278313578426106624,0.0,80.39054227992892,13.202021347323532,14.564902515218137,14,12,0.0,15,376636360958194,14,30.9,365.9894714355469,0.028800001367926598,0,0.0,0.0,,,,,0,,1,,
Raw,5438312,5458015000000,,,-1278313578426106624,0.0,80.39054227992892,13.202021347323532,14.564902515218137,14,13,0.0,15,376636369459579,90,16.4,-528.6072998046875,2.7699999809265137,0,0.0,0.0,,,,,0,,1,,
Raw,5438313,5458015000000,,,-1278313578426106624,0.0,80.39054227992892,13.202021347323532,14.564902515218137,14,15,0.0,15,376636362548467,13,31.2,-689.8545532226562,0.028200000524520874,0,0.0,0.0,,,,,0,,1,,
Raw,5438313,5458015000000,,,-1278313578426106624,0.0,80.39054227992892,13.202021347323532,14.564902515218137,14,17,0.0,15,376636359543253,183,13.3,694.0010375976562,6.095000267028809,0,0.0,0.0,,,,,0,,1,,
Raw,5438313,5458015000000,,,-1278313578426106624,0.0,80.39054227992892,13.202021347323532,14.564902515218137,14,19,0.0,15,376636363862783,977,12.3,670.851806640625,20.286001205444336,0,0.0,0.0,,,,,0,,1,,
Raw,5438313,5458015000000,,,-1278313578426106624,0.0,80.39054227992892,13.202021347323532,14.564902515218137,14,25,0.0,15,376636358141521,9,35.6,202.40904235839844,0.02160000056028366,0,0.0,0.0,,,,,0,,1,,
Raw,5438314,5458015000000,,,-1278313578426106624,0.0,80.39054227992892,13.202021347323532,14.564902515218137,14,29,0.0,15,376636361277361,27,24.0,-612.755126953125,0.6679999828338623,0,0.0,0.0,,,,,0,,1,,
Raw,5438314,5458015000000,,,-1278313578426106624,0.0,80.39054227992892,13.202021347323532,14.564902515218137,14,30,0.0,15,376636359476927,508,12.1,-257.1533508300781,13.755001068115234,0,0.0,0.0,,,,,0,,1,,
Raw,5438314,5458015000000,,,-1278313578426106624,0.0,80.39054227992892,13.202021347323532,14.564902515218137,14,4,0.0,783,376622314586604,77,18.3,16.97629165649414,3.19350004196167,0,0.0,0.0,,,,,0,,5,,
Raw,5438315,5458015000000,,,-1278313578426106624,0.0,80.39054227992892,13.202021347323532,14.564902515218137,14,5,0.0,783,376622307964620,166,19.8,-3.811984062194824,7.535000324249268,0,0.0,0.0,,,,,0,,5,,
Raw,5438315,5458015000000,,,-1278313578426106624,0.0,80.39054227992892,13.202021347323532,14.564902515218137,14,7,0.0,15,376622308974989,21,26.3,255.45269775390625,0.12319999933242798,0,0.0,0.0,,,,,0,,5,,
Raw,5438315,5458015000000,,,-1278313578426106624,0.0,80.39054227992892,13.202021347323532,14.564902515218137,14,9,0.0,15,376622313255457,27,24.0,-236.60226440429688,0.5960000157356262,0,0.0,0.0,,,,,0,,5,,
Raw,5438315,5458015000000,,,-1278313578426106624,0.0,80.39054227992892,13.202021347323532,14.564902515218137,14,10,0.0,15,376622310399788,84,16.7,305.2947692871094,1.841499924659729,0,0.0,0.0,,,,,0,,5,,
Raw,5438316,5458015000000,,,-1278313578426106624,0.0,80.39054227992892,13.202021347323532,14.564902515218137,14,13,0.0,15,376622316220705,97,17.7,-106.76435852050781,4.020500183105469,0,0.0,0.0,,,,,0,,5,,
Raw,5438316,5458015000000,,,-1278313578426106624,0.0,80.39054227992892,13.202021347323532,14.564902515218137,14,16,0.0,15,376622316855019,102,15.0,-214.7289581298828,2.690500020980835,0,0.0,0.0,,,,,0,,5,,
Raw,5438316,5458015000000,,,-1278313578426106624,0.0,80.39054227992892,13.202021347323532,14.564902515218137,14,19,0.0,15,376622356257834,40,21.1,-428.9585876464844,0.750499963760376,0,0.0,0.0,,,,,0,,5,,
Raw,5438316,5458015000000,,,-1278313578426106624,0.0,80.39054227992892,13.202021347323532,14.564902515218137,14,20,0.0,15,376622366188188,2010,13.9,-91.61244201660156,29.765501022338867,0,0.0,0.0,,,,,0,,5,,
Raw,5438320,5458015000000,,,-1278313578426106624,0.0,80.39054227992892,13.202021347323532,14.564902515218137,14,27,0.0,15,376622362743388,84,16.6,467.0304260253906,1.8294999599456787,0,0.0,0.0,,,,,0,,5,,
Raw,5438320,5458015000000,,,-1278313578426106624,0.0,80.39054227992892,13.202021347323532,14.564902515218137,14,29,0.0,15,376622360652115,24,25.2,-517.2627563476562,0.38179999589920044,0,0.0,0.0,,,,,0,,5,,
Raw,5438320,5458015000000,,,-1278313578426106624,0.0,80.39054227992892,13.202021347323532,14.564902515218137,14,30,0.0,15,376622369573254,950,13.3,-43.487342834472656,19.985000610351562,0,0.0,0.0,,,,,0,,5,,
Raw,5438321,5458015000000,,,-1278313578426106624,0.0,80.39054227992892,13.202021347323532,14.564902515218137,14,4,0.0,7183,376636359269773,31,23.8,-329.5600891113281,0.6050000190734863,0,0.0,0.0,,,,,0,,6,,
Raw,5438321,5458015000000,,,-1278313578426106624,0.0,80.39054227992892,13.202021347323532,14.564902515218137,14,11,0.0,7183,376636353416148,27,24.3,-442.3091125488281,0.5519999861717224,0,0.0,0.0,,,,,0,,6,,
Raw,5438321,5458015000000,,,-1278313578426106624,0.0,80.39054227992892,13.202021347323532,14.564902515218137,14,31,0.0,7183,376636345428662,21,26.3,266.45428466796875,0.13670000433921814,0,0.0,0.0,,,,,0,,6,,
Raw,5438321,5458015000000,,,-1278313578426106624,0.0,80.39054227992892,13.202021347323532,14.564902515218137,14,33,0.0,7183,376636359052959,46,20.9,143.6431884765625,0.7549999952316284,0,0.0,0.0,,,,,0,,6,,
Fix,gps,22.925255,120.294449,50.924866,0.000000,10.720000,1594283819000
NMEA,$GPGSV,4,1,13,12,17,246,31,13,45,181,16,15,20,209,31,17,09,151,13*72,1594283818450
NMEA,$GPGSV,4,2,13,19,28,153,12,25,09,275,36,29,16,320,24,30,13,106,12*7E,1594283818450
NMEA,$GPGSV,4,3,13,02,59,022,,05,55,323,,06,38,081,,07,07,075,*73,1594283818450
NMEA,$GPGSV,4,4,13,09,06,037,*40,1594283818450
NMEA,$GLGSV,2,1,06,65,13,224,24,87,04,329,20,85,47,119,22,71,58,358,18*69,1594283818451
NMEA,$GLGSV,2,2,06,72,53,246,17,70,12,028,*68,1594283818453
NMEA,$GAGSV,2,1,06,04,50,215,24,11,12,317,24,31,02,206,26,33,49,097,21*6C,1594283818460
NMEA,$GAGSV,2,2,06,19,66,040,,24,02,251,*60,1594283818460
NMEA,$PQGSV,1,1,01,195,66,153,20,0,5*63,1594283818460
NMEA,$PQGSV,4,1,16,04,37,113,18,05,17,258,20,07,16,194,26,09,30,194,24,0,4*65,1594283818462
NMEA,$PQGSV,4,2,16,10,21,217,17,13,42,334,18,16,50,182,15,19,14,237,21,0,4*66,1594283818462
NMEA,$PQGSV,4,3,16,20,59,271,14,27,37,137,17,29,28,320,25,30,85,329,13,0,4*65,1594283818464
NMEA,$PQGSV,4,4,16,01,50,130,,03,62,203,,06,55,177,,08,52,012,,0,4*67,1594283818464
NMEA,$GNGSA,A,3,12,13,15,19,25,29,30,,,,,,1.0,0.6,0.7,1*33,1594283818465
NMEA,$GNGSA,A,3,65,71,72,85,87,,,,,,,,1.0,0.6,0.7,2*30,1594283818466
NMEA,$GNGSA,A,2,01,04,11,,,,,,,,,,1.0,0.6,0.7,3*37,1594283818466
NMEA,$PQGSA,A,3,05,07,09,10,13,16,,,,,,,1.0,0.6,0.7,4*33,1594283818466
NMEA,$GNVTG,,T,,M,0.0,N,0.0,K,A*3D,1594283818466
NMEA,$GNRMC,083659.00,A,2255.515302,N,12017.666910,E,0.0,,090720,2.8,W,A*1B,1594283818466
NMEA,$GNGGA,083659.00,2255.515302,N,12017.666910,E,1,12,0.6,33.5,M,17.5,M,,*4B,1594283818466
Raw,5439044,5459015000000,,,-1278313578426106624,0.0,79.1747443145141,14.144039396314374,14.14550589037762,14,1,0.0,207,41819363801393,57,23.9,-609.513671875,3.871000051498413,0,0.0,0.0,,,,,0,,3,,
Raw,5439044,5459015000000,,,-1278313578426106624,0.0,79.1747443145141,14.144039396314374,14.14550589037762,14,23,0.0,207,41819360916216,46,20.3,-733.2138671875,1.0464999675750732,0,0.0,0.0,,,,,0,,3,,
Raw,5439044,5459015000000,,,-1278313578426106624,0.0,79.1747443145141,14.144039396314374,14.14550589037762,14,21,0.0,207,41819372788550,53,19.0,348.1647644042969,1.1345000267028809,0,0.0,0.0,,,,,0,,3,,
Raw,5439045,5459015000000,,,-1278313578426106624,0.0,79.1747443145141,14.144039396314374,14.14550589037762,14,7,0.0,207,41819374628426,142,13.5,408.3258361816406,3.947500228881836,0,0.0,0.0,,,,,0,,3,,
Raw,5439045,5459015000000,,,-1278313578426106624,0.0,79.1747443145141,14.144039396314374,14.14550589037762,14,8,0.0,207,41819374087541,81,16.4,-230.8703155517578,1.3875000476837158,0,0.0,0.0,,,,,0,,3,,
Raw,5439045,5459015000000,,,-1278313578426106624,0.0,79.1747443145141,14.144039396314374,14.14550589037762,14,12,0.0,15,376637360956939,14,30.8,365.2841796875,0.028800001367926598,0,0.0,0.0,,,,,0,,1,,
Raw,5439045,5459015000000,,,-1278313578426106624,0.0,79.1747443145141,14.144039396314374,14.14550589037762,14,13,0.0,15,376637369461342,109,16.4,-528.6072998046875,4.269999980926514,0,0.0,0.0,,,,,0,,1,,
Raw,5439046,5459015000000,,,-1278313578426106624,0.0,79.1747443145141,14.144039396314374,14.14550589037762,14,15,0.0,15,376637362550754,14,30.8,-690.564697265625,0.028800001367926598,0,0.0,0.0,,,,,0,,1,,
Raw,5439046,5459015000000,,,-1278313578426106624,0.0,79.1747443145141,14.144039396314374,14.14550589037762,14,17,0.0,15,376637359540939,223,13.3,694.0010375976562,7.595000267028809,0,0.0,0.0,,,,,0,,1,,
Raw,5439046,5459015000000,,,-1278313578426106624,0.0,79.1747443145141,14.144039396314374,14.14550589037762,14,19,0.0,15,376637363860545,1112,12.3,670.851806640625,21.786001205444336,0,0.0,0.0,,,,,0,,1,,
Raw,5439046,5459015000000,,,-1278313578426106624,0.0,79.1747443145141,14.144039396314374,14.14550589037762,14,25,0.0,15,376637358140827,10,34.6,201.73094177246094,0.022099999710917473,0,0.0,0.0,,,,,0,,1,,
Raw,5439047,5459015000000,,,-1278313578426106624,0.0,79.1747443145141,14.144039396314374,14.14550589037762,14,29,0.0,15,376637361279505,31,23.9,-613.8969116210938,0.6679999828338623,0,0.0,0.0,,,,,0,,1,,
Raw,5439047,5459015000000,,,-1278313578426106624,0.0,79.1747443145141,14.144039396314374,14.14550589037762,14,30,0.0,15,376637359477785,599,12.1,-257.1533508300781,15.255001068115234,0,0.0,0.0,,,,,0,,1,,
Raw,5439047,5459015000000,,,-1278313578426106624,0.0,79.1747443145141,14.144039396314374,14.14550589037762,14,4,0.0,783,376623314586547,100,18.3,16.97629165649414,4.69350004196167,0,0.0,0.0,,,,,0,,5,,
Raw,5439047,5459015000000,,,-1278313578426106624,0.0,79.1747443145141,14.144039396314374,14.14550589037762,14,5,0.0,783,376623307964633,219,19.8,-3.811984062194824,9.035000801086426,0,0.0,0.0,,,,,0,,5,,
Raw,5439048,5459015000000,,,-1278313578426106624,0.0,79.1747443145141,14.144039396314374,14.14550589037762,14,7,0.0,15,376623308974123,24,25.9,254.6619415283203,0.3937999904155731,0,0.0,0.0,,,,,0,,5,,
Raw,5439048,5459015000000,,,-1278313578426106624,0.0,79.1747443145141,14.144039396314374,14.14550589037762,14,9,0.0,15,376623313256293,35,22.4,-237.27439880371094,0.6859999895095825,0,0.0,0.0,,,,,0,,5,,
Raw,5439048,5459015000000,,,-1278313578426106624,0.0,79.1747443145141,14.144039396314374,14.14550589037762,14,10,0.0,15,376623310398769,97,16.7,305.2947692871094,3.3415000438690186,0,0.0,0.0,,,,,0,,5,,
Raw,5439048,5459015000000,,,-1278313578426106624,0.0,79.1747443145141,14.144039396314374,14.14550589037762,14,13,0.0,15,376623316221061,126,17.7,-106.76435852050781,5.520500183105469,0,0.0,0.0,,,,,0,,5,,
Raw,5439049,5459015000000,,,-1278313578426106624,0.0,79.1747443145141,14.144039396314374,14.14550589037762,14,16,0.0,15,376623316855735,121,15.0,-214.7289581298828,4.190500259399414,0,0.0,0.0,,,,,0,,5,,
Raw,5439049,5459015000000,,,-1278313578426106624,0.0,79.1747443145141,14.144039396314374,14.14550589037762,14,19,0.0,15,376623356259265,40,21.2,-428.9874267578125,0.750499963760376,0,0.0,0.0,,,,,0,,5,,
Raw,5439049,5459015000000,,,-1278313578426106624,0.0,79.1747443145141,14.144039396314374,14.14550589037762,14,20,0.0,15,376623366188494,2209,13.9,-91.61244201660156,31.265501022338867,0,0.0,0.0,,,,,0,,5,,
Raw,5439049,5459015000000,,,-1278313578426106624,0.0,79.1747443145141,14.144039396314374,14.14550589037762,14,27,0.0,15,376623362741807,70,17.7,466.7615966796875,0.999500036239624,0,0.0,0.0,,,,,0,,5,,
Raw,5439050,5459015000000,,,-1278313578426106624,0.0,79.1747443145141,14.144039396314374,14.14550589037762,14,29,0.0,15,376623360653868,27,24.7,-517.4888305664062,0.5764999985694885,0,0.0,0.0,,,,,0,,5,,
Raw,5439050,5459015000000,,,-1278313578426106624,0.0,79.1747443145141,14.144039396314374,14.14550589037762,14,30,0.0,15,376623369573399,1084,13.3,-43.487342834472656,21.485000610351562,0,0.0,0.0,,,,,0,,5,,
Raw,5439050,5459015000000,,,-1278313578426106624,0.0,79.1747443145141,14.144039396314374,14.14550589037762,14,4,0.0,7183,376637359270891,27,24.4,-329.84552001953125,0.5550000071525574,0,0.0,0.0,,,,,0,,6,,
Raw,5439051,5459015000000,,,-1278313578426106624,0.0,79.1747443145141,14.144039396314374,14.14550589037762,14,11,0.0,7183,376637353417577,31,23.4,-443.1844177246094,0.6019999980926514,0,0.0,0.0,,,,,0,,6,,
Raw,5439051,5459015000000,,,-1278313578426106624,0.0,79.1747443145141,14.144039396314374,14.14550589037762,14,31,0.0,7183,376637345427781,27,24.2,266.6490173339844,0.5519999861717224,0,0.0,0.0,,,,,0,,6,,
Raw,5439051,5459015000000,,,-1278313578426106624,0.0,79.1747443145141,14.144039396314374,14.14550589037762,14,33,0.0,7183,376637359052449,53,19.4,142.57752990722656,0.8149999976158142,0,0.0,0.0,,,,,0,,6,,
Fix,gps,22.925260,120.294461,52.416565,0.000000,10.720000,1594283820000
NMEA,$GPGSV,4,1,13,12,17,246,31,13,45,181,16,15,20,209,31,17,09,151,13*72,1594283819450
NMEA,$GPGSV,4,2,13,19,28,153,12,25,09,275,35,29,16,320,24,30,13,106,12*7D,1594283819450
NMEA,$GPGSV,4,3,13,02,59,022,,05,55,323,,06,38,081,,07,07,075,*73,1594283819450
NMEA,$GPGSV,4,4,13,09,06,037,*40,1594283819450
NMEA,$GLGSV,2,1,06,65,13,224,24,87,04,329,20,85,47,119,19,71,58,358,14*6D,1594283819451
NMEA,$GLGSV,2,2,06,72,53,246,16,70,12,028,*69,1594283819451
NMEA,$GAGSV,2,1,06,04,50,215,24,11,12,317,23,31,02,206,24,33,49,097,19*62,1594283819451
NMEA,$GAGSV,2,2,06,19,66,040,,24,02,251,*60,1594283819451
NMEA,$PQGSV,1,1,01,195,66,153,18,0,5*68,1594283819452
NMEA,$PQGSV,4,1,16,04,37,113,18,05,17,258,20,07,16,194,26,09,30,194,22,0,4*63,1594283819452
NMEA,$PQGSV,4,2,16,10,21,217,17,13,42,334,18,16,50,182,15,19,14,237,21,0,4*66,1594283819452
NMEA,$PQGSV,4,3,16,20,59,271,14,27,37,137,18,29,28,320,25,30,85,329,13,0,4*6A,1594283819452
NMEA,$PQGSV,4,4,16,01,50,130,,03,62,203,,06,55,177,,08,52,012,,0,4*67,1594283819452
NMEA,$GNGSA,A,3,12,13,15,25,29,30,,,,,,,1.0,0.6,0.7,1*3B,1594283819453
NMEA,$GNGSA,A,3,65,71,72,85,87,,,,,,,,1.0,0.6,0.7,2*30,1594283819453
NMEA,$GNGSA,A,2,01,04,11,,,,,,,,,,1.0,0.6,0.7,3*37,1594283819453
NMEA,$PQGSA,A,3,05,07,09,10,13,16,,,,,,,1.0,0.6,0.7,4*33,1594283819454
NMEA,$GNVTG,,T,,M,0.0,N,0.0,K,A*3D,1594283819454
NMEA,$GNRMC,083700.00,A,2255.515604,N,12017.667661,E,0.0,,090720,2.8,W,A*1D,1594283819454
NMEA,$GNGGA,083700.00,2255.515604,N,12017.667661,E,1,12,0.6,34.9,M,17.5,M,,*46,1594283819454
Raw,5440060,5460015000000,,,-1278313578426106624,0.0,83.06722884299234,11.710070410451323,13.270257856875991,14,1,0.0,207,41820363803427,85,23.9,-609.513671875,5.371000289916992,0,0.0,0.0,,,,,0,,3,,
Raw,5440060,5460015000000,,,-1278313578426106624,0.0,83.06722884299234,11.710070410451323,13.270257856875991,14,23,0.0,207,41820360918574,40,21.2,-733.66259765625,0.9864999651908875,0,0.0,0.0,,,,,0,,3,,
Raw,5440061,5460015000000,,,-1278313578426106624,0.0,83.06722884299234,11.710070410451323,13.270257856875991,14,21,0.0,207,41820372787111,61,18.9,348.86553955078125,1.214500069618225,0,0.0,0.0,,,,,0,,3,,
Raw,5440061,5460015000000,,,-1278313578426106624,0.0,83.06722884299234,11.710070410451323,13.270257856875991,14,7,0.0,207,41820374627064,168,13.5,408.3258361816406,5.447500228881836,0,0.0,0.0,,,,,0,,3,,
Raw,5440061,5460015000000,,,-1278313578426106624,0.0,83.06722884299234,11.710070410451323,13.270257856875991,14,8,0.0,207,41820374088078,81,16.7,-231.7293243408203,1.3875000476837158,0,0.0,0.0,,,,,0,,3,,
Raw,5440062,5460015000000,,,-1278313578426106624,0.0,83.06722884299234,11.710070410451323,13.270257856875991,14,12,0.0,15,376638360955724,13,31.4,365.0750732421875,0.028200000524520874,0,0.0,0.0,,,,,0,,1,,
Raw,5440062,5460015000000,,,-1278313578426106624,0.0,83.06722884299234,11.710070410451323,13.270257856875991,14,13,0.0,15,376638369463105,139,16.4,-528.6072998046875,5.770000457763672,0,0.0,0.0,,,,,0,,1,,
Raw,5440062,5460015000000,,,-1278313578426106624,0.0,83.06722884299234,11.710070410451323,13.270257856875991,14,15,0.0,15,376638362553072,13,31.1,-690.7730712890625,0.028200000524520874,0,0.0,0.0,,,,,0,,1,,
Raw,5440062,5460015000000,,,-1278313578426106624,0.0,83.06722884299234,11.710070410451323,13.270257856875991,14,17,0.0,15,376638359538624,274,13.3,694.0010375976562,9.095000267028809,0,0.0,0.0,,,,,0,,1,,
Raw,5440063,5460015000000,,,-1278313578426106624,0.0,83.06722884299234,11.710070410451323,13.270257856875991,14,19,0.0,15,376638363858307,1256,12.3,670.851806640625,23.286001205444336,0,0.0,0.0,,,,,0,,1,,
Raw,5440063,5460015000000,,,-1278313578426106624,0.0,83.06722884299234,11.710070410451323,13.270257856875991,14,25,0.0,15,376638358140171,9,35.3,201.53604125976562,0.02160000056028366,0,0.0,0.0,,,,,0,,1,,
Raw,5440063,5460015000000,,,-1278313578426106624,0.0,83.06722884299234,11.710070410451323,13.270257856875991,14,29,0.0,15,376638361281497,27,24.3,-614.2584228515625,0.6679999828338623,0,0.0,0.0,,,,,0,,1,,
Raw,5440064,5460015000000,,,-1278313578426106624,0.0,83.06722884299234,11.710070410451323,13.270257856875991,14,30,0.0,15,376638359478643,700,12.1,-257.1533508300781,16.755001068115234,0,0.0,0.0,,,,,0,,1,,
Raw,5440064,5460015000000,,,-1278313578426106624,0.0,83.06722884299234,11.710070410451323,13.270257856875991,14,4,0.0,783,376624314586490,134,18.3,16.97629165649414,6.19350004196167,0,0.0,0.0,,,,,0,,5,,
Raw,5440064,5460015000000,,,-1278313578426106624,0.0,83.06722884299234,11.710070410451323,13.270257856875991,14,5,0.0,783,376624307964646,281,19.8,-3.811984062194824,10.535000801086426,0,0.0,0.0,,,,,0,,5,,
Raw,5440064,5460015000000,,,-1278313578426106624,0.0,83.06722884299234,11.710070410451323,13.270257856875991,14,7,0.0,15,376624308973256,24,25.0,254.43113708496094,0.3937999904155731,0,0.0,0.0,,,,,0,,5,,
Raw,5440065,5460015000000,,,-1278313578426106624,0.0,83.06722884299234,11.710070410451323,13.270257856875991,14,9,0.0,15,376624313257045,31,23.0,-237.4760284423828,0.6360000371932983,0,0.0,0.0,,,,,0,,5,,
Raw,5440065,5460015000000,,,-1278313578426106624,0.0,83.06722884299234,11.710070410451323,13.270257856875991,14,10,0.0,15,376624310397716,73,17.0,302.865478515625,1.7615000009536743,0,0.0,0.0,,,,,0,,5,,
Raw,5440065,5460015000000,,,-1278313578426106624,0.0,83.06722884299234,11.710070410451323,13.270257856875991,14,13,0.0,15,376624316221417,164,17.7,-106.76435852050781,7.020500183105469,0,0.0,0.0,,,,,0,,5,,
Raw,5440065,5460015000000,,,-1278313578426106624,0.0,83.06722884299234,11.710070410451323,13.270257856875991,14,16,0.0,15,376624316856486,96,15.8,-215.113037109375,1.8504999876022339,0,0.0,0.0,,,,,0,,5,,
Raw,5440066,5460015000000,,,-1278313578426106624,0.0,83.06722884299234,11.710070410451323,13.270257856875991,14,19,0.0,15,376624356260666,40,21.3,-429.64996337890625,0.750499963760376,0,0.0,0.0,,,,,0,,5,,
Raw,5440066,5460015000000,,,-1278313578426106624,0.0,83.06722884299234,11.710070410451323,13.270257856875991,14,20,0.0,15,376624366188800,2419,13.9,-91.61244201660156,32.7655029296875,0,0.0,0.0,,,,,0,,5,,
Raw,5440066,5460015000000,,,-1278313578426106624,0.0,83.06722884299234,11.710070410451323,13.270257856875991,14,27,0.0,15,376624362740250,78,17.7,466.7615966796875,2.499500036239624,0,0.0,0.0,,,,,0,,5,,
Raw,5440067,5460015000000,,,-1278313578426106624,0.0,83.06722884299234,11.710070410451323,13.270257856875991,14,29,0.0,15,376624360655593,24,25.3,-518.193603515625,0.38179999589920044,0,0.0,0.0,,,,,0,,5,,
Raw,5440067,5460015000000,,,-1278313578426106624,0.0,83.06722884299234,11.710070410451323,13.270257856875991,14,30,0.0,15,376624369573544,1228,13.3,-43.487342834472656,22.985000610351562,0,0.0,0.0,,,,,0,,5,,
Raw,5440067,5460015000000,,,-1278313578426106624,0.0,83.06722884299234,11.710070410451323,13.270257856875991,14,4,0.0,7183,376638359272003,27,24.8,-330.30224609375,0.5550000071525574,0,0.0,0.0,,,,,0,,6,,
Raw,5440067,5460015000000,,,-1278313578426106624,0.0,83.06722884299234,11.710070410451323,13.270257856875991,14,11,0.0,7183,376638353419072,31,23.7,-442.90850830078125,0.6019999980926514,0,0.0,0.0,,,,,0,,6,,
Raw,5440068,5460015000000,,,-1278313578426106624,0.0,83.06722884299234,11.710070410451323,13.270257856875991,14,31,0.0,7183,376638345426866,27,24.3,266.6965637207031,0.5519999861717224,0,0.0,0.0,,,,,0,,6,,
Raw,5440068,5460015000000,,,-1278313578426106624,0.0,83.06722884299234,11.710070410451323,13.270257856875991,14,33,0.0,7183,376638359051961,53,19.8,143.0437469482422,0.8149999976158142,0,0.0,0.0,,,,,0,,6,,
Fix,gps,22.925264,120.294469,52.953247,0.000000,10.720000,1594283821000
NMEA,$GPGSV,4,1,13,12,17,246,31,13,45,181,16,15,20,209,31,17,09,151,13*72,1594283820451
NMEA,$GPGSV,4,2,13,19,28,153,12,25,09,275,35,29,16,320,24,30,13,106,12*7D,1594283820451
NMEA,$GPGSV,4,3,13,02,59,022,,05,55,323,,06,38,081,,07,07,075,*73,1594283820452
NMEA,$GPGSV,4,4,13,09,06,037,*40,1594283820452
NMEA,$GLGSV,2,1,06,65,13,224,24,87,04,329,21,85,47,119,19,71,58,358,14*6C,1594283820452
NMEA,$GLGSV,2,2,06,72,53,246,17,70,12,028,*68,1594283820452
NMEA,$GAGSV,2,1,06,04,50,215,25,11,12,317,24,31,02,206,24,33,49,097,20*6E,1594283820452
NMEA,$GAGSV,2,2,06,19,66,040,,24,02,251,*60,1594283820452
NMEA,$PQGSV,1,1,01,195,66,153,19,0,5*69,1594283820453
NMEA,$PQGSV,4,1,16,04,37,113,18,05,17,258,20,07,16,194,25,09,30,194,23,0,4*61,1594283820453
NMEA,$PQGSV,4,2,16,10,21,217,17,13,42,334,18,16,50,182,16,19,14,237,21,0,4*65,1594283820453
NMEA,$PQGSV,4,3,16,20,59,271,14,27,37,137,18,29,28,320,25,30,85,329,13,0,4*6A,1594283820453
NMEA,$PQGSV,4,4,16,01,50,130,,03,62,203,,06,55,177,,08,52,012,,0,4*67,1594283820453
NMEA,$GNGSA,A,3,12,13,15,25,29,30,,,,,,,1.1,0.8,0.8,1*3B,1594283820454
NMEA,$GNGSA,A,3,65,71,72,85,87,,,,,,,,1.1,0.8,0.8,2*30,1594283820454
NMEA,$GNGSA,A,2,01,04,11,,,,,,,,,,1.1,0.8,0.8,3*37,1594283820454
NMEA,$PQGSA,A,3,05,07,09,10,13,16,,,,,,,1.1,0.8,0.8,4*33,1594283820454
NMEA,$GNVTG,,T,,M,0.0,N,0.0,K,A*3D,1594283820455
NMEA,$GNRMC,083701.00,A,2255.515853,N,12017.668126,E,0.0,,090720,2.8,W,A*1B,1594283820455
NMEA,$GNGGA,083701.00,2255.515853,N,12017.668126,E,1,12,0.8,35.5,M,17.5,M,,*43,1594283820455
Raw,5441344,5461015000000,,,-1278313578426106624,0.0,83.79291102755815,10.86224597498817,15.577968384235179,14,1,0.0,207,41821363805460,123,23.9,-609.513671875,6.871000289916992,0,0.0,0.0,,,,,0,,3,,
Raw,5441344,5461015000000,,,-1278313578426106624,0.0,83.79291102755815,10.86224597498817,15.577968384235179,14,23,0.0,207,41821360921139,53,19.7,-733.896240234375,1.1165000200271606,0,0.0,0.0,,,,,0,,3,,
Raw,5441345,5461015000000,,,-1278313578426106624,0.0,83.79291102755815,10.86224597498817,15.577968384235179,14,21,0.0,207,41821372785947,70,18.9,348.86553955078125,2.7145001888275146,0,0.0,0.0,,,,,0,,3,,
Raw,5441345,5461015000000,,,-1278313578426106624,0.0,83.79291102755815,10.86224597498817,15.577968384235179,14,7,0.0,207,41821374625642,96,15.0,407.75604248046875,2.2275002002716064,0,0.0,0.0,,,,,0,,3,,
Raw,5441345,5461015000000,,,-1278313578426106624,0.0,83.79291102755815,10.86224597498817,15.577968384235179,14,8,0.0,207,41821374088926,61,18.3,-230.34742736816406,1.21750009059906,0,0.0,0.0,,,,,0,,3,,
Raw,5441345,5461015000000,,,-1278313578426106624,0.0,83.79291102755815,10.86224597498817,15.577968384235179,14,12,0.0,15,376639360954513,14,30.9,365.2944641113281,0.028800001367926598,0,0.0,0.0,,,,,0,,1,,
Raw,5441346,5461015000000,,,-1278313578426106624,0.0,83.79291102755815,10.86224597498817,15.577968384235179,14,13,0.0,15,376639369464868,178,16.4,-528.6072998046875,7.270000457763672,0,0.0,0.0,,,,,0,,1,,
Raw,5441347,5461015000000,,,-1278313578426106624,0.0,83.79291102755815,10.86224597498817,15.577968384235179,14,15,0.0,15,376639362555363,14,30.8,-690.546875,0.028800001367926598,0,0.0,0.0,,,,,0,,1,,
Raw,5441347,5461015000000,,,-1278313578426106624,0.0,83.79291102755815,10.86224597498817,15.577968384235179,14,17,0.0,15,376639359536313,116,14.1,694.067626953125,2.9750001430511475,0,0.0,0.0,,,,,0,,1,,
Raw,5441348,5461015000000,,,-1278313578426106624,0.0,83.79291102755815,10.86224597498817,15.577968384235179,14,19,0.0,15,376639363856070,1411,12.3,670.851806640625,24.786001205444336,0,0.0,0.0,,,,,0,,1,,
Raw,5441348,5461015000000,,,-1278313578426106624,0.0,83.79291102755815,10.86224597498817,15.577968384235179,14,25,0.0,15,376639358139505,9,35.2,201.79034423828125,0.02160000056028366,0,0.0,0.0,,,,,0,,1,,
Raw,5441348,5461015000000,,,-1278313578426106624,0.0,83.79291102755815,10.86224597498817,15.577968384235179,14,29,0.0,15,376639361283565,27,24.4,-614.2299194335938,0.6679999828338623,0,0.0,0.0,,,,,0,,1,,
Raw,5441349,5461015000000,,,-1278313578426106624,0.0,83.79291102755815,10.86224597498817,15.577968384235179,14,30,0.0,15,376639359479500,811,12.1,-257.1533508300781,18.255001068115234,0,0.0,0.0,,,,,0,,1,,
Raw,5441349,5461015000000,,,-1278313578426106624,0.0,83.79291102755815,10.86224597498817,15.577968384235179,14,4,0.0,783,376625314586526,61,19.1,12.85704517364502,2.373500108718872,0,0.0,0.0,,,,,0,,5,,
Raw,5441349,5461015000000,,,-1278313578426106624,0.0,83.79291102755815,10.86224597498817,15.577968384235179,14,5,0.0,783,376625307964450,100,18.7,3.0630297660827637,4.664999961853027,0,0.0,0.0,,,,,0,,5,,
Raw,5441349,5461015000000,,,-1278313578426106624,0.0,83.79291102755815,10.86224597498817,15.577968384235179,14,7,0.0,15,376625308972415,24,25.6,254.60157775878906,0.3937999904155731,0,0.0,0.0,,,,,0,,5,,
Raw,5441350,5461015000000,,,-1278313578426106624,0.0,83.79291102755815,10.86224597498817,15.577968384235179,14,9,0.0,15,376625313257841,35,22.5,-237.29359436035156,0.6859999895095825,0,0.0,0.0,,,,,0,,5,,
Raw,5441350,5461015000000,,,-1278313578426106624,0.0,83.79291102755815,10.86224597498817,15.577968384235179,14,10,0.0,15,376625310396706,86,17.0,302.865478515625,3.261500120162964,0,0.0,0.0,,,,,0,,5,,
Raw,5441350,5461015000000,,,-1278313578426106624,0.0,83.79291102755815,10.86224597498817,15.577968384235179,14,13,0.0,15,376625316221773,213,17.7,-106.76435852050781,8.520500183105469,0,0.0,0.0,,,,,0,,5,,
Raw,5441350,5461015000000,,,-1278313578426106624,0.0,83.79291102755815,10.86224597498817,15.577968384235179,14,16,0.0,15,376625316857204,110,15.8,-215.113037109375,3.3505001068115234,0,0.0,0.0,,,,,0,,5,,
Raw,5441351,5461015000000,,,-1278313578426106624,0.0,83.79291102755815,10.86224597498817,15.577968384235179,14,19,0.0,15,376625356262124,35,22.3,-430.68695068359375,0.6904999613761902,0,0.0,0.0,,,,,0,,5,,
Raw,5441351,5461015000000,,,-1278313578426106624,0.0,83.79291102755815,10.86224597498817,15.577968384235179,14,20,0.0,15,376625366189105,2638,13.9,-91.61244201660156,34.2655029296875,0,0.0,0.0,,,,,0,,5,,
Raw,5441351,5461015000000,,,-1278313578426106624,0.0,83.79291102755815,10.86224597498817,15.577968384235179,14,27,0.0,15,376625362738693,97,17.7,466.7615966796875,3.999500274658203,0,0.0,0.0,,,,,0,,5,,
Raw,5441351,5461015000000,,,-1278313578426106624,0.0,83.79291102755815,10.86224597498817,15.577968384235179,14,29,0.0,15,376625360657323,24,25.8,-517.9733276367188,0.38179999589920044,0,0.0,0.0,,,,,0,,5,,
Raw,5441352,5461015000000,,,-1278313578426106624,0.0,83.79291102755815,10.86224597498817,15.577968384235179,14,30,0.0,15,376625369573689,1382,13.3,-43.487342834472656,24.485000610351562,0,0.0,0.0,,,,,0,,5,,
Raw,5441352,5461015000000,,,-1278313578426106624,0.0,83.79291102755815,10.86224597498817,15.577968384235179,14,4,0.0,7183,376639359273115,24,25.2,-330.18475341796875,0.41030001640319824,0,0.0,0.0,,,,,0,,6,,
Raw,5441352,5461015000000,,,-1278313578426106624,0.0,83.79291102755815,10.86224597498817,15.577968384235179,14,11,0.0,7183,376639353420557,31,23.7,-442.9656066894531,0.6019999980926514,0,0.0,0.0,,,,,0,,6,,
Raw,5441352,5461015000000,,,-1278313578426106624,0.0,83.79291102755815,10.86224597498817,15.577968384235179,14,31,0.0,7183,376639345426009,21,26.4,266.81585693359375,0.13670000433921814,0,0.0,0.0,,,,,0,,6,,
Raw,5441353,5461015000000,,,-1278313578426106624,0.0,83.79291102755815,10.86224597498817,15.577968384235179,14,33,0.0,7183,376639359051522,46,20.5,143.26260375976562,0.7549999952316284,0,0.0,0.0,,,,,0,,6,,
Fix,gps,22.925268,120.294474,53.708496,0.000000,10.720000,1594283822000
NMEA,$GPGSV,4,1,13,12,17,246,31,13,45,181,16,15,20,209,31,17,09,151,14*75,1594283821466
NMEA,$GPGSV,4,2,13,19,28,153,12,25,09,275,35,29,16,320,24,30,13,106,12*7D,1594283821467
NMEA,$GPGSV,4,3,13,02,59,022,,05,55,323,,06,38,081,,07,07,075,*73,1594283821467
NMEA,$GPGSV,4,4,13,09,06,037,*40,1594283821468
NMEA,$GLGSV,2,1,06,65,13,224,24,87,04,329,20,85,47,119,19,71,58,358,15*6C,1594283821468
NMEA,$GLGSV,2,2,06,72,53,246,18,70,12,028,*67,1594283821469
NMEA,$GAGSV,2,1,06,04,50,215,25,11,12,317,24,31,02,206,26,33,49,097,21*6D,1594283821469
NMEA,$GAGSV,2,2,06,19,66,040,,24,02,251,*60,1594283821470
NMEA,$PQGSV,1,1,01,195,66,153,18,0,5*68,1594283821470
NMEA,$PQGSV,4,1,16,04,37,113,19,05,17,258,19,07,16,194,26,09,30,194,23,0,4*69,1594283821471
NMEA,$PQGSV,4,2,16,10,21,217,17,13,42,334,18,16,50,182,16,19,14,237,22,0,4*66,1594283821472
NMEA,$PQGSV,4,3,16,20,59,271,14,27,37,137,18,29,28,320,26,30,85,329,13,0,4*69,1594283821472
NMEA,$PQGSV,4,4,16,01,50,130,,03,62,203,,06,55,177,,08,52,012,,0,4*67,1594283821473
NMEA,$GNGSA,A,3,12,13,15,25,29,,,,,,,,1.2,0.8,0.8,1*3B,1594283821476
NMEA,$GNGSA,A,3,65,71,72,85,87,,,,,,,,1.2,0.8,0.8,2*33,1594283821476
NMEA,$GNGSA,A,2,01,04,11,,,,,,,,,,1.2,0.8,0.8,3*34,1594283821477
NMEA,$PQGSA,A,3,05,07,09,10,13,16,,,,,,,1.2,0.8,0.8,4*30,1594283821477
NMEA,$GNVTG,,T,,M,0.0,N,0.0,K,A*3D,1594283821478
NMEA,$GNRMC,083702.00,A,2255.516086,N,12017.668462,E,0.0,,090720,2.8,W,A*1E,1594283821479
NMEA,$GNGGA,083702.00,2255.516086,N,12017.668462,E,1,12,0.8,36.2,M,17.5,M,,*42,1594283821480
Fix,gps,22.925273,120.294482,54.035889,0.000000,10.720000,1594283823000
Raw,5442061,5462015000000,,,-1278313578426106624,0.0,82.83115312224254,11.496468074518875,15.587860061653112,14,1,0.0,207,41822363807493,171,23.9,-609.513671875,8.371000289916992,0,0.0,0.0,,,,,0,,3,,
Raw,5442062,5462015000000,,,-1278313578426106624,0.0,82.83115312224254,11.496468074518875,15.587860061653112,14,23,0.0,207,41822360923371,46,20.1,-734.2514038085938,1.0464999675750732,0,0.0,0.0,,,,,0,,3,,
Raw,5442062,5462015000000,,,-1278313578426106624,0.0,82.83115312224254,11.496468074518875,15.587860061653112,14,21,0.0,207,41822372784758,96,15.1,349.33270263671875,2.2245001792907715,0,0.0,0.0,,,,,0,,3,,
Raw,5442062,5462015000000,,,-1278313578426106624,0.0,82.83115312224254,11.496468074518875,15.587860061653112,14,7,0.0,207,41822374624282,111,15.0,407.75604248046875,3.7275002002716064,0,0.0,0.0,,,,,0,,3,,
Raw,5442063,5462015000000,,,-1278313578426106624,0.0,82.83115312224254,11.496468074518875,15.587860061653112,14,8,0.0,207,41822374089583,53,19.5,-229.5724334716797,1.1375000476837158,0,0.0,0.0,,,,,0,,3,,
Raw,5442063,5462015000000,,,-1278313578426106624,0.0,82.83115312224254,11.496468074518875,15.587860061653112,14,12,0.0,15,376640360953309,14,30.8,365.365966796875,0.028800001367926598,0,0.0,0.0,,,,,0,,1,,
Raw,5442063,5462015000000,,,-1278313578426106624,0.0,82.83115312224254,11.496468074518875,15.587860061653112,14,13,0.0,15,376640369466632,227,16.4,-528.6072998046875,8.770000457763672,0,0.0,0.0,,,,,0,,1,,
Raw,5442063,5462015000000,,,-1278313578426106624,0.0,82.83115312224254,11.496468074518875,15.587860061653112,14,15,0.0,15,376640362557692,14,30.6,-690.4573364257812,0.028800001367926598,0,0.0,0.0,,,,,0,,1,,
Raw,5442064,5462015000000,,,-1278313578426106624,0.0,82.83115312224254,11.496468074518875,15.587860061653112,14,17,0.0,15,376640359533998,136,14.1,694.067626953125,4.475000381469727,0,0.0,0.0,,,,,0,,1,,
Raw,5442064,5462015000000,,,-1278313578426106624,0.0,82.83115312224254,11.496468074518875,15.587860061653112,14,19,0.0,15,376640363853832,1576,12.3,670.851806640625,26.286001205444336,0,0.0,0.0,,,,,0,,1,,
Raw,5442064,5462015000000,,,-1278313578426106624,0.0,82.83115312224254,11.496468074518875,15.587860061653112,14,25,0.0,15,376640358138831,10,34.8,201.90576171875,0.022099999710917473,0,0.0,0.0,,,,,0,,1,,
Raw,5442065,5462015000000,,,-1278313578426106624,0.0,82.83115312224254,11.496468074518875,15.587860061653112,14,29,0.0,15,376640361285606,24,25.0,-613.9081420898438,0.3833000063896179,0,0.0,0.0,,,,,0,,1,,
Raw,5442065,5462015000000,,,-1278313578426106624,0.0,82.83115312224254,11.496468074518875,15.587860061653112,14,30,0.0,15,376640359480358,932,12.1,-257.1533508300781,19.755001068115234,0,0.0,0.0,,,,,0,,1,,
Raw,5442065,5462015000000,,,-1278313578426106624,0.0,82.83115312224254,11.496468074518875,15.587860061653112,14,4,0.0,783,376626314586483,79,19.1,12.85704517364502,3.873500108718872,0,0.0,0.0,,,,,0,,5,,
Raw,5442066,5462015000000,,,-1278313578426106624,0.0,82.83115312224254,11.496468074518875,15.587860061653112,14,5,0.0,783,376626307964440,133,18.7,3.0630297660827637,6.1650004386901855,0,0.0,0.0,,,,,0,,5,,
Raw,5442066,5462015000000,,,-1278313578426106624,0.0,82.83115312224254,11.496468074518875,15.587860061653112,14,7,0.0,15,376626308971551,24,25.1,254.63133239746094,0.3937999904155731,0,0.0,0.0,,,,,0,,5,,
Raw,5442066,5462015000000,,,-1278313578426106624,0.0,82.83115312224254,11.496468074518875,15.587860061653112,14,9,0.0,15,376626313258581,35,22.5,-237.31280517578125,0.6859999895095825,0,0.0,0.0,,,,,0,,5,,
Raw,5442066,5462015000000,,,-1278313578426106624,0.0,82.83115312224254,11.496468074518875,15.587860061653112,14,10,0.0,15,376626310395695,110,17.0,302.865478515625,4.761500358581543,0,0.0,0.0,,,,,0,,5,,
Raw,5442067,5462015000000,,,-1278313578426106624,0.0,82.83115312224254,11.496468074518875,15.587860061653112,14,13,0.0,15,376626316222129,271,17.7,-106.76435852050781,10.020500183105469,0,0.0,0.0,,,,,0,,5,,
Raw,5442067,5462015000000,,,-1278313578426106624,0.0,82.83115312224254,11.496468074518875,15.587860061653112,14,16,0.0,15,376626316857922,133,15.8,-215.113037109375,4.850500106811523,0,0.0,0.0,,,,,0,,5,,
Raw,5442067,5462015000000,,,-1278313578426106624,0.0,82.83115312224254,11.496468074518875,15.587860061653112,14,19,0.0,15,376626356263545,35,22.7,-429.0834655761719,0.6904999613761902,0,0.0,0.0,,,,,0,,5,,
Raw,5442067,5462015000000,,,-1278313578426106624,0.0,82.83115312224254,11.496468074518875,15.587860061653112,14,20,0.0,15,376626366189411,2868,13.9,-91.61244201660156,35.7655029296875,0,0.0,0.0,,,,,0,,5,,
Raw,5442068,5462015000000,,,-1278313578426106624,0.0,82.83115312224254,11.496468074518875,15.587860061653112,14,27,0.0,15,376626362737064,101,15.6,466.5599365234375,2.6695001125335693,0,0.0,0.0,,,,,0,,5,,
Raw,5442068,5462015000000,,,-1278313578426106624,0.0,82.83115312224254,11.496468074518875,15.587860061653112,14,29,0.0,15,376626360659070,24,25.7,-517.877685546875,0.38179999589920044,0,0.0,0.0,,,,,0,,5,,
Raw,5442068,5462015000000,,,-1278313578426106624,0.0,82.83115312224254,11.496468074518875,15.587860061653112,14,30,0.0,15,376626369573834,1546,13.3,-43.487342834472656,25.985000610351562,0,0.0,0.0,,,,,0,,5,,
Raw,5442069,5462015000000,,,-1278313578426106624,0.0,82.83115312224254,11.496468074518875,15.587860061653112,14,4,0.0,7183,376640359274188,27,24.4,-330.2546691894531,0.5550000071525574,0,0.0,0.0,,,,,0,,6,,
Raw,5442069,5462015000000,,,-1278313578426106624,0.0,82.83115312224254,11.496468074518875,15.587860061653112,14,11,0.0,7183,376640353422047,31,23.0,-442.4898681640625,0.6019999980926514,0,0.0,0.0,,,,,0,,6,,
Raw,5442069,5462015000000,,,-1278313578426106624,0.0,82.83115312224254,11.496468074518875,15.587860061653112,14,24,0.0,7183,376640350924261,667,16.1,308.5041198730469,3.5435001850128174,0,0.0,0.0,,,,,0,,6,,
Raw,5442069,5462015000000,,,-1278313578426106624,0.0,82.83115312224254,11.496468074518875,15.587860061653112,14,31,0.0,7183,376640345425112,24,25.2,267.0541076660156,0.4072999954223633,0,0.0,0.0,,,,,0,,6,,
Raw,5442070,5462015000000,,,-1278313578426106624,0.0,82.83115312224254,11.496468074518875,15.587860061653112,14,33,0.0,7183,376640359051047,46,20.5,143.54803466796875,0.7549999952316284,0,0.0,0.0,,,,,0,,6,,
NMEA,$GPGSV,4,1,13,12,17,246,31,13,45,181,16,15,20,209,31,17,09,151,14*75,1594283822449
NMEA,$GPGSV,4,2,13,19,28,153,12,25,09,275,35,29,16,320,25,30,13,106,12*7C,1594283822449
NMEA,$GPGSV,4,3,13,02,59,022,,05,55,323,,06,38,081,,07,07,075,*73,1594283822449
NMEA,$GPGSV,4,4,13,09,06,037,*40,1594283822450
NMEA,$GLGSV,2,1,06,65,13,224,24,87,04,329,20,85,47,119,15,71,58,358,15*60,1594283822450
NMEA,$GLGSV,2,2,06,72,53,246,20,70,12,028,*6C,1594283822450
NMEA,$GAGSV,2,1,06,04,50,215,24,11,12,317,23,24,02,251,16,31,02,206,25*6D,1594283822450
NMEA,$GAGSV,2,2,06,33,49,097,21,19,66,040,*62,1594283822450
NMEA,$PQGSV,1,1,01,195,66,153,19,0,5*69,1594283822450
NMEA,$PQGSV,4,1,16,04,37,113,19,05,17,258,19,07,16,194,25,09,30,194,23,0,4*6A,1594283822450
NMEA,$PQGSV,4,2,16,10,21,217,17,13,42,334,18,16,50,182,16,19,14,237,23,0,4*67,1594283822451
NMEA,$PQGSV,4,3,16,20,59,271,14,27,37,137,16,29,28,320,26,30,85,329,13,0,4*67,1594283822451
NMEA,$PQGSV,4,4,16,01,50,130,,03,62,203,,06,55,177,,08,52,012,,0,4*67,1594283822451
NMEA,$GNGSA,A,3,12,13,15,25,29,,,,,,,,1.2,0.8,0.8,1*3B,1594283822452
NMEA,$GNGSA,A,3,65,71,72,85,87,,,,,,,,1.2,0.8,0.8,2*33,1594283822452
NMEA,$GNGSA,A,2,01,04,11,,,,,,,,,,1.2,0.8,0.8,3*34,1594283822452
NMEA,$PQGSA,A,2,07,09,10,,,,,,,,,,1.2,0.8,0.8,4*31,1594283822452
NMEA,$GNVTG,,T,,M,0.0,N,0.0,K,A*3D,1594283822453
NMEA,$GNRMC,083703.00,A,2255.516394,N,12017.668918,E,0.0,,090720,2.8,W,A*1F,1594283822453
NMEA,$GNGGA,083703.00,2255.516394,N,12017.668918,E,1,12,0.8,36.6,M,17.5,M,,*47,1594283822453
Raw,5443035,5463015000000,,,-1278313578426106624,0.0,87.1408119564876,12.033151617989342,15.202248469781614,14,1,0.0,207,41823363809526,229,23.9,-609.513671875,9.871000289916992,0,0.0,0.0,,,,,0,,3,,
Raw,5443035,5463015000000,,,-1278313578426106624,0.0,87.1408119564876,12.033151617989342,15.202248469781614,14,23,0.0,207,41823360925859,46,20.1,-734.1018676757812,1.0464999675750732,0,0.0,0.0,,,,,0,,3,,
Raw,5443035,5463015000000,,,-1278313578426106624,0.0,87.1408119564876,12.033151617989342,15.202248469781614,14,21,0.0,207,41823372783593,111,15.1,349.33270263671875,3.7245001792907715,0,0.0,0.0,,,,,0,,3,,
Raw,5443035,5463015000000,,,-1278313578426106624,0.0,87.1408119564876,12.033151617989342,15.202248469781614,14,7,0.0,207,41823374622922,136,15.0,407.75604248046875,5.2275004386901855,0,0.0,0.0,,,,,0,,3,,
Raw,5443036,5463015000000,,,-1278313578426106624,0.0,87.1408119564876,12.033151617989342,15.202248469781614,14,8,0.0,207,41823374090349,62,19.5,-229.5724334716797,2.637500047683716,0,0.0,0.0,,,,,0,,3,,
Raw,5443036,5463015000000,,,-1278313578426106624,0.0,87.1408119564876,12.033151617989342,15.202248469781614,14,12,0.0,15,376641360952099,14,30.8,364.714111328125,0.028800001367926598,0,0.0,0.0,,,,,0,,1,,
Raw,5443036,5463015000000,,,-1278313578426106624,0.0,87.1408119564876,12.033151617989342,15.202248469781614,14,13,0.0,15,376641369468395,287,16.4,-528.6072998046875,10.270000457763672,0,0.0,0.0,,,,,0,,1,,
Raw,5443037,5463015000000,,,-1278313578426106624,0.0,87.1408119564876,12.033151617989342,15.202248469781614,14,15,0.0,15,376641362559975,13,31.2,-691.120849609375,0.028200000524520874,0,0.0,0.0,,,,,0,,1,,
Raw,5443037,5463015000000,,,-1278313578426106624,0.0,87.1408119564876,12.033151617989342,15.202248469781614,14,17,0.0,15,376641359531683,166,14.1,694.067626953125,5.975000381469727,0,0.0,0.0,,,,,0,,1,,
Raw,5443037,5463015000000,,,-1278313578426106624,0.0,87.1408119564876,12.033151617989342,15.202248469781614,14,19,0.0,15,376641363851131,318,12.0,674.8099365234375,9.861000061035156,0,0.0,0.0,,,,,0,,1,,
Raw,5443037,5463015000000,,,-1278313578426106624,0.0,87.1408119564876,12.033151617989342,15.202248469781614,14,25,0.0,15,376641358138178,9,35.1,201.26025390625,0.02160000056028366,0,0.0,0.0,,,,,0,,1,,
Raw,5443038,5463015000000,,,-1278313578426106624,0.0,87.1408119564876,12.033151617989342,15.202248469781614,14,29,0.0,15,376641361287715,24,25.5,-614.5260620117188,0.3833000063896179,0,0.0,0.0,,,,,0,,1,,
Raw,5443038,5463015000000,,,-1278313578426106624,0.0,87.1408119564876,12.033151617989342,15.202248469781614,14,30,0.0,15,376641359481216,1063,12.1,-257.1533508300781,21.255001068115234,0,0.0,0.0,,,,,0,,1,,
Raw,5443038,5463015000000,,,-1278313578426106624,0.0,87.1408119564876,12.033151617989342,15.202248469781614,14,4,0.0,783,376627314586440,107,19.1,12.85704517364502,5.373500347137451,0,0.0,0.0,,,,,0,,5,,
Raw,5443039,5463015000000,,,-1278313578426106624,0.0,87.1408119564876,12.033151617989342,15.202248469781614,14,5,0.0,783,376627307964430,176,18.7,3.0630297660827637,7.6650004386901855,0,0.0,0.0,,,,,0,,5,,
Raw,5443039,5463015000000,,,-1278313578426106624,0.0,87.1408119564876,12.033151617989342,15.202248469781614,14,7,0.0,15,376627308970704,24,25.8,254.01390075683594,0.3937999904155731,0,0.0,0.0,,,,,0,,5,,
Raw,5443039,5463015000000,,,-1278313578426106624,0.0,87.1408119564876,12.033151617989342,15.202248469781614,14,9,0.0,15,376627313259430,40,21.5,-237.60086059570312,0.7459999918937683,0,0.0,0.0,,,,,0,,5,,
Raw,5443039,5463015000000,,,-1278313578426106624,0.0,87.1408119564876,12.033151617989342,15.202248469781614,14,10,0.0,15,376627310394774,116,14.5,303.1151428222656,2.7715001106262207,0,0.0,0.0,,,,,0,,5,,
Raw,5443040,5463015000000,,,-1278313578426106624,0.0,87.1408119564876,12.033151617989342,15.202248469781614,14,13,0.0,15,376627316222485,340,17.7,-106.76435852050781,11.520500183105469,0,0.0,0.0,,,,,0,,5,,
Raw,5443040,5463015000000,,,-1278313578426106624,0.0,87.1408119564876,12.033151617989342,15.202248469781614,14,16,0.0,15,376627316858639,102,15.3,-214.06643676757812,2.690500020980835,0,0.0,0.0,,,,,0,,5,,
Raw,5443040,5463015000000,,,-1278313578426106624,0.0,87.1408119564876,12.033151617989342,15.202248469781614,14,19,0.0,15,376627356264972,35,22.7,-430.2740783691406,0.6904999613761902,0,0.0,0.0,,,,,0,,5,,
Raw,5443040,5463015000000,,,-1278313578426106624,0.0,87.1408119564876,12.033151617989342,15.202248469781614,14,20,0.0,15,376627366189716,3107,13.9,-91.61244201660156,37.2655029296875,0,0.0,0.0,,,,,0,,5,,
Raw,5443041,5463015000000,,,-1278313578426106624,0.0,87.1408119564876,12.033151617989342,15.202248469781614,14,27,0.0,15,376627362735507,120,15.6,466.5599365234375,4.169500350952148,0,0.0,0.0,,,,,0,,5,,
Raw,5443041,5463015000000,,,-1278313578426106624,0.0,87.1408119564876,12.033151617989342,15.202248469781614,14,29,0.0,15,376627360660800,24,25.9,-518.5384521484375,0.38179999589920044,0,0.0,0.0,,,,,0,,5,,
Raw,5443042,5463015000000,,,-1278313578426106624,0.0,87.1408119564876,12.033151617989342,15.202248469781614,14,30,0.0,15,376627369573979,1720,13.3,-43.487342834472656,27.485000610351562,0,0.0,0.0,,,,,0,,5,,
Raw,5443042,5463015000000,,,-1278313578426106624,0.0,87.1408119564876,12.033151617989342,15.202248469781614,14,4,0.0,7183,376641359275310,24,25.3,-329.3702392578125,0.41030001640319824,0,0.0,0.0,,,,,0,,6,,
Raw,5443042,5463015000000,,,-1278313578426106624,0.0,87.1408119564876,12.033151617989342,15.202248469781614,14,11,0.0,7183,376641353423534,31,23.7,-442.994140625,0.6019999980926514,0,0.0,0.0,,,,,0,,6,,
Raw,5443042,5463015000000,,,-1278313578426106624,0.0,87.1408119564876,12.033151617989342,15.202248469781614,14,24,0.0,7183,376641350923235,678,16.5,308.2662353515625,4.293499946594238,0,0.0,0.0,,,,,0,,6,,
Raw,5443043,5463015000000,,,-1278313578426106624,0.0,87.1408119564876,12.033151617989342,15.202248469781614,14,31,0.0,7183,376641345424210,21,26.0,265.84027099609375,0.4819999933242798,0,0.0,0.0,,,,,0,,6,,
Raw,5443043,5463015000000,,,-1278313578426106624,0.0,87.1408119564876,12.033151617989342,15.202248469781614,14,33,0.0,7183,376641359050496,70,17.8,142.83444213867188,0.9449999928474426,0,0.0,0.0,,,,,0,,6,,
Fix,gps,22.925277,120.294486,53.484558,0.000000,11.792000,1594283824000
NMEA,$GPGSV,4,1,13,12,17,246,31,13,45,181,16,15,20,209,31,17,09,151,14*75,1594283823451
NMEA,$GPGSV,4,2,13,19,28,153,12,25,09,275,35,29,16,320,26,30,13,106,12*7F,1594283823451
NMEA,$GPGSV,4,3,13,02,59,022,,05,55,323,,06,38,081,,07,07,075,*73,1594283823452
NMEA,$GPGSV,4,4,13,09,06,037,*40,1594283823452
NMEA,$GLGSV,2,1,06,65,13,224,24,87,04,329,20,85,47,119,15,71,58,358,15*60,1594283823452
NMEA,$GLGSV,2,2,06,72,53,246,20,70,12,028,*6C,1594283823452
NMEA,$GAGSV,2,1,06,04,50,215,25,11,12,317,24,24,02,251,17,31,02,206,26*69,1594283823452
NMEA,$GAGSV,2,2,06,33,49,097,18,19,66,040,*68,1594283823452
NMEA,$PQGSV,1,1,01,195,66,153,19,0,5*69,1594283823452
NMEA,$PQGSV,4,1,16,04,37,113,19,05,17,258,19,07,16,194,26,09,30,194,22,0,4*68,1594283823453
NMEA,$PQGSV,4,2,16,10,21,217,15,13,42,334,18,16,50,182,15,19,14,237,23,0,4*66,1594283823453
NMEA,$PQGSV,4,3,16,20,59,271,14,27,37,137,16,29,28,320,26,30,85,329,13,0,4*67,1594283823453
NMEA,$PQGSV,4,4,16,01,50,130,,03,62,203,,06,55,177,,08,52,012,,0,4*67,1594283823453
NMEA,$GNGSA,A,3,12,15,25,29,,,,,,,,,1.2,0.9,0.8,1*38,1594283823454
NMEA,$GNGSA,A,3,65,71,72,85,87,,,,,,,,1.2,0.9,0.8,2*32,1594283823454
NMEA,$GNGSA,A,2,01,04,11,,,,,,,,,,1.2,0.9,0.8,3*35,1594283823454
NMEA,$PQGSA,A,2,07,09,,,,,,,,,,,1.2,0.9,0.8,4*31,1594283823454
NMEA,$GNVTG,,T,,M,0.0,N,0.0,K,A*3D,1594283823454
NMEA,$GNRMC,083704.00,A,2255.516598,N,12017.669181,E,0.0,,090720,2.8,W,A*1B,1594283823455
NMEA,$GNGGA,083704.00,2255.516598,N,12017.669181,E,1,12,0.9,36.0,M,17.5,M,,*44,1594283823455
Raw,5444250,5464015000000,,,-1278313578426106624,0.0,90.03172453958541,9.454739329126651,14.402929677434281,14,1,0.0,207,41824363811559,297,23.9,-609.513671875,11.371000289916992,0,0.0,0.0,,,,,0,,3,,
Raw,5444252,5464015000000,,,-1278313578426106624,0.0,90.03172453958541,9.454739329126651,14.402929677434281,14,23,0.0,207,41824360928500,70,17.4,-735.8123779296875,1.2764999866485596,0,0.0,0.0,,,,,0,,3,,
Raw,5444253,5464015000000,,,-1278313578426106624,0.0,90.03172453958541,9.454739329126651,14.402929677434281,14,21,0.0,207,41824372782428,136,15.1,349.33270263671875,5.2245001792907715,0,0.0,0.0,,,,,0,,3,,
Raw,5444253,5464015000000,,,-1278313578426106624,0.0,90.03172453958541,9.454739329126651,14.402929677434281,14,7,0.0,207,41824374621562,172,15.0,407.75604248046875,6.7275004386901855,0,0.0,0.0,,,,,0,,3,,
Raw,5444254,5464015000000,,,-1278313578426106624,0.0,90.03172453958541,9.454739329126651,14.402929677434281,14,8,0.0,207,41824374091437,73,17.6,-231.2531280517578,2.0475001335144043,0,0.0,0.0,,,,,0,,3,,
Raw,5444255,5464015000000,,,-1278313578426106624,0.0,90.03172453958541,9.454739329126651,14.402929677434281,14,12,0.0,15,376642360950896,14,30.9,362.0793151855469,0.028800001367926598,0,0.0,0.0,,,,,0,,1,,
Raw,5444256,5464015000000,,,-1278313578426106624,0.0,90.03172453958541,9.454739329126651,14.402929677434281,14,13,0.0,15,376642369470158,356,16.4,-528.6072998046875,11.770000457763672,0,0.0,0.0,,,,,0,,1,,
Raw,5444257,5464015000000,,,-1278313578426106624,0.0,90.03172453958541,9.454739329126651,14.402929677434281,14,15,0.0,15,376642362562306,13,31.0,-693.7343139648438,0.028200000524520874,0,0.0,0.0,,,,,0,,1,,
Raw,5444257,5464015000000,,,-1278313578426106624,0.0,90.03172453958541,9.454739329126651,14.402929677434281,14,17,0.0,15,376642359529368,206,14.1,694.067626953125,7.475000381469727,0,0.0,0.0,,,,,0,,1,,
Raw,5444258,5464015000000,,,-1278313578426106624,0.0,90.03172453958541,9.454739329126651,14.402929677434281,14,19,0.0,15,376642363848880,383,12.0,674.8099365234375,11.361000061035156,0,0.0,0.0,,,,,0,,1,,
Raw,5444259,5464015000000,,,-1278313578426106624,0.0,90.03172453958541,9.454739329126651,14.402929677434281,14,25,0.0,15,376642358137494,10,34.3,198.65487670898438,0.022099999710917473,0,0.0,0.0,,,,,0,,1,,
Raw,5444260,5464015000000,,,-1278313578426106624,0.0,90.03172453958541,9.454739329126651,14.402929677434281,14,29,0.0,15,376642361289740,24,25.4,-617.179443359375,0.6180000305175781,0,0.0,0.0,,,,,0,,1,,
Raw,5444260,5464015000000,,,-1278313578426106624,0.0,90.03172453958541,9.454739329126651,14.402929677434281,14,30,0.0,15,376642359482074,1204,12.1,-257.1533508300781,22.755001068115234,0,0.0,0.0,,,,,0,,1,,
Raw,5444261,5464015000000,,,-1278313578426106624,0.0,90.03172453958541,9.454739329126651,14.402929677434281,14,4,0.0,783,376628314586460,69,18.7,14.306941986083984,2.44350004196167,0,0.0,0.0,,,,,0,,5,,
Raw,5444262,5464015000000,,,-1278313578426106624,0.0,90.03172453958541,9.454739329126651,14.402929677434281,14,5,0.0,783,376628307964419,229,18.7,3.0630297660827637,9.164999961853027,0,0.0,0.0,,,,,0,,5,,
Raw,5444263,5464015000000,,,-1278313578426106624,0.0,90.03172453958541,9.454739329126651,14.402929677434281,14,7,0.0,15,376628308969880,27,24.6,251.16845703125,0.5885000228881836,0,0.0,0.0,,,,,0,,5,,
Raw,5444264,5464015000000,,,-1278313578426106624,0.0,90.03172453958541,9.454739329126651,14.402929677434281,14,9,0.0,15,376628313260230,46,20.7,-240.87513732910156,0.8059999942779541,0,0.0,0.0,,,,,0,,5,,
Raw,5444265,5464015000000,,,-1278313578426106624,0.0,90.03172453958541,9.454739329126651,14.402929677434281,14,10,0.0,15,376628310393763,135,14.5,303.1151428222656,4.271500110626221,0,0.0,0.0,,,,,0,,5,,
Raw,5444265,5464015000000,,,-1278313578426106624,0.0,90.03172453958541,9.454739329126651,14.402929677434281,14,13,0.0,15,376628316222842,418,17.7,-106.76435852050781,13.020500183105469,0,0.0,0.0,,,,,0,,5,,
Raw,5444266,5464015000000,,,-1278313578426106624,0.0,90.03172453958541,9.454739329126651,14.402929677434281,14,16,0.0,15,376628316859353,121,15.3,-214.06643676757812,4.190500259399414,0,0.0,0.0,,,,,0,,5,,
Raw,5444267,5464015000000,,,-1278313578426106624,0.0,90.03172453958541,9.454739329126651,14.402929677434281,14,19,0.0,15,376628356266441,35,22.5,-433.0394287109375,0.6904999613761902,0,0.0,0.0,,,,,0,,5,,
Raw,5444267,5464015000000,,,-1278313578426106624,0.0,90.03172453958541,9.454739329126651,14.402929677434281,14,27,0.0,15,376628362733951,149,15.6,466.5599365234375,5.669500350952148,0,0.0,0.0,,,,,0,,5,,
Raw,5444268,5464015000000,,,-1278313578426106624,0.0,90.03172453958541,9.454739329126651,14.402929677434281,14,29,0.0,15,376628360662536,21,26.0,-521.4064331054688,0.4964999854564667,0,0.0,0.0,,,,,0,,5,,
Raw,5444269,5464015000000,,,-1278313578426106624,0.0,90.03172453958541,9.454739329126651,14.402929677434281,14,30,0.0,15,376628369574124,1904,13.3,-43.487342834472656,28.985000610351562,0,0.0,0.0,,,,,0,,5,,
Raw,5444270,5464015000000,,,-1278313578426106624,0.0,90.03172453958541,9.454739329126651,14.402929677434281,14,4,0.0,7183,376642359276428,27,24.3,-333.4991760253906,0.5550000071525574,0,0.0,0.0,,,,,0,,6,,
Raw,5444271,5464015000000,,,-1278313578426106624,0.0,90.03172453958541,9.454739329126651,14.402929677434281,14,11,0.0,7183,376642353425004,35,22.0,-446.67633056640625,0.6420000195503235,0,0.0,0.0,,,,,0,,6,,
Raw,5444271,5464015000000,,,-1278313578426106624,0.0,90.03172453958541,9.454739329126651,14.402929677434281,14,24,0.0,7183,376642350922215,692,16.1,308.0378723144531,5.0435004234313965,0,0.0,0.0,,,,,0,,6,,
Raw,5444272,5464015000000,,,-1278313578426106624,0.0,90.03172453958541,9.454739329126651,14.402929677434281,14,31,0.0,7183,376642345423335,21,26.2,263.1666564941406,0.4819999933242798,0,0.0,0.0,,,,,0,,6,,
Raw,5444273,5464015000000,,,-1278313578426106624,0.0,90.03172453958541,9.454739329126651,14.402929677434281,14,33,0.0,7183,376642359050044,53,19.2,139.0856475830078,0.8149999976158142,0,0.0,0.0,,,,,0,,6,,
Fix,gps,22.925280,120.294489,55.494263,0.000000,11.792000,1594283825000
NMEA,$GPGSV,4,1,13,12,17,246,31,13,45,181,16,15,20,209,31,17,09,151,14*75,1594283824449
NMEA,$GPGSV,4,2,13,19,28,153,12,25,09,275,34,29,16,320,25,30,13,106,12*7D,1594283824450
NMEA,$GPGSV,4,3,13,02,59,022,,05,55,323,,06,38,081,,07,07,075,*73,1594283824450
NMEA,$GPGSV,4,4,13,09,06,037,*40,1594283824450
NMEA,$GLGSV,2,1,06,65,13,224,24,87,04,329,17,85,47,119,15,71,58,358,15*64,1594283824450
NMEA,$GLGSV,2,2,06,72,53,246,18,70,12,028,*67,1594283824450
NMEA,$GAGSV,2,1,06,04,50,215,24,11,12,317,22,24,02,251,16,31,02,206,26*6F,1594283824450
NMEA,$GAGSV,2,2,06,33,49,097,19,19,66,040,*69,1594283824451
NMEA,$PQGSV,1,1,01,195,66,153,18,0,5*68,1594283824451
NMEA,$PQGSV,4,1,16,04,37,113,19,05,17,258,19,07,16,194,25,09,30,194,21,0,4*68,1594283824451
NMEA,$PQGSV,4,2,16,10,21,217,15,13,42,334,18,16,50,182,15,19,14,237,23,0,4*66,1594283824451
NMEA,$PQGSV,4,3,16,27,37,137,16,29,28,320,26,30,85,329,13,01,50,130,,0,4*6E,1594283824452
NMEA,$PQGSV,4,4,16,03,62,203,,06,55,177,,08,52,012,,20,59,271,,0,4*6B,1594283824452
NMEA,$GNGSA,A,3,12,15,25,29,,,,,,,,,1.2,0.9,0.8,1*38,1594283824453
NMEA,$GNGSA,A,3,71,72,85,87,,,,,,,,,1.2,0.9,0.8,2*31,1594283824453
NMEA,$GNGSA,A,2,01,04,11,,,,,,,,,,1.2,0.9,0.8,3*35,1594283824453
NMEA,$PQGSA,A,2,07,09,,,,,,,,,,,1.2,0.9,0.8,4*31,1594283824453
NMEA,$GNVTG,,T,,M,0.0,N,0.0,K,A*3D,1594283824453
NMEA,$GNRMC,083705.00,A,2255.516801,N,12017.669318,E,0.0,,090720,2.8,W,A*15,1594283824453
NMEA,$GNGGA,083705.00,2255.516801,N,12017.669318,E,1,12,0.9,38.0,M,17.5,M,,*44,1594283824454
Raw,5445083,5465015000000,,,-1278313578426106624,0.0,90.36361007019877,0.6706637115465748,11.415387812731359,14,1,0.0,207,41825363813592,375,23.9,-609.513671875,12.871000289916992,0,0.0,0.0,,,,,0,,3,,
Raw,5445084,5465015000000,,,-1278313578426106624,0.0,90.36361007019877,0.6706637115465748,11.415387812731359,14,23,0.0,207,41825360930998,53,19.7,-738.6912231445312,1.1165000200271606,0,0.0,0.0,,,,,0,,3,,
Raw,5445084,5465015000000,,,-1278313578426106624,0.0,90.36361007019877,0.6706637115465748,11.415387812731359,14,21,0.0,207,41825372781263,171,15.1,349.33270263671875,6.7245001792907715,0,0.0,0.0,,,,,0,,3,,
Raw,5445085,5465015000000,,,-1278313578426106624,0.0,90.36361007019877,0.6706637115465748,11.415387812731359,14,7,0.0,207,41825374620281,88,17.3,406.1681823730469,3.5475001335144043,0,0.0,0.0,,,,,0,,3,,
Raw,5445085,5465015000000,,,-1278313578426106624,0.0,90.36361007019877,0.6706637115465748,11.415387812731359,14,8,0.0,207,41825374091946,46,20.6,-234.56781005859375,1.0674999952316284,0,0.0,0.0,,,,,0,,3,,
Raw,5445086,5465015000000,,,-1278313578426106624,0.0,90.36361007019877,0.6706637115465748,11.415387812731359,14,12,0.0,15,376643360949722,13,31.2,361.5193786621094,0.028200000524520874,0,0.0,0.0,,,,,0,,1,,
Raw,5445086,5465015000000,,,-1278313578426106624,0.0,90.36361007019877,0.6706637115465748,11.415387812731359,14,13,0.0,15,376643369470623,202,13.2,-532.3845825195312,6.860000133514404,0,0.0,0.0,,,,,0,,1,,
Raw,5445087,5465015000000,,,-1278313578426106624,0.0,90.36361007019877,0.6706637115465748,11.415387812731359,14,15,0.0,15,376643362564612,12,32.9,-694.2996826171875,0.026900000870227814,0,0.0,0.0,,,,,0,,1,,
Raw,5445087,5465015000000,,,-1278313578426106624,0.0,90.36361007019877,0.6706637115465748,11.415387812731359,14,17,0.0,15,376643359527123,125,14.2,693.0875854492188,3.7250001430511475,0,0.0,0.0,,,,,0,,1,,
Raw,5445088,5465015000000,,,-1278313578426106624,0.0,90.36361007019877,0.6706637115465748,11.415387812731359,14,19,0.0,15,376643363846744,73,17.4,672.9735717773438,1.9210000038146973,0,0.0,0.0,,,,,0,,1,,
Raw,5445088,5465015000000,,,-1278313578426106624,0.0,90.36361007019877,0.6706637115465748,11.415387812731359,14,25,0.0,15,376643358136841,9,35.5,198.12442016601562,0.02160000056028366,0,0.0,0.0,,,,,0,,1,,
Raw,5445089,5465015000000,,,-1278313578426106624,0.0,90.36361007019877,0.6706637115465748,11.415387812731359,14,29,0.0,15,376643361291890,24,25.7,-617.6982421875,0.3833000063896179,0,0.0,0.0,,,,,0,,1,,
Raw,5445089,5465015000000,,,-1278313578426106624,0.0,90.36361007019877,0.6706637115465748,11.415387812731359,14,30,0.0,15,376643359482932,1355,12.1,-257.1533508300781,24.255001068115234,0,0.0,0.0,,,,,0,,1,,
Raw,5445090,5465015000000,,,-1278313578426106624,0.0,90.36361007019877,0.6706637115465748,11.415387812731359,14,4,0.0,783,376629314586412,87,18.7,14.306941986083984,3.94350004196167,0,0.0,0.0,,,,,0,,5,,
Raw,5445090,5465015000000,,,-1278313578426106624,0.0,90.36361007019877,0.6706637115465748,11.415387812731359,14,5,0.0,783,376629307964409,292,18.7,3.0630297660827637,10.665000915527344,0,0.0,0.0,,,,,0,,5,,
Raw,5445091,5465015000000,,,-1278313578426106624,0.0,90.36361007019877,0.6706637115465748,11.415387812731359,14,7,0.0,15,376629308969040,21,26.7,250.91879272460938,0.5084999799728394,0,0.0,0.0,,,,,0,,5,,
Raw,5445091,5465015000000,,,-1278313578426106624,0.0,90.36361007019877,0.6706637115465748,11.415387812731359,14,9,0.0,15,376629313260999,24,25.3,-241.10403442382812,0.40130001306533813,0,0.0,0.0,,,,,0,,5,,
Raw,5445092,5465015000000,,,-1278313578426106624,0.0,90.36361007019877,0.6706637115465748,11.415387812731359,14,10,0.0,15,376629310392751,84,16.5,298.99591064453125,1.841499924659729,0,0.0,0.0,,,,,0,,5,,
Raw,5445093,5465015000000,,,-1278313578426106624,0.0,90.36361007019877,0.6706637115465748,11.415387812731359,14,13,0.0,15,376629316223198,507,17.7,-106.76435852050781,14.520501136779785,0,0.0,0.0,,,,,0,,5,,
Raw,5445093,5465015000000,,,-1278313578426106624,0.0,90.36361007019877,0.6706637115465748,11.415387812731359,14,16,0.0,15,376629316860067,150,15.3,-214.06643676757812,5.690500259399414,0,0.0,0.0,,,,,0,,5,,
Raw,5445093,5465015000000,,,-1278313578426106624,0.0,90.36361007019877,0.6706637115465748,11.415387812731359,14,19,0.0,15,376629356267838,21,26.6,-433.2699279785156,0.5205000042915344,0,0.0,0.0,,,,,0,,5,,
Raw,5445094,5465015000000,,,-1278313578426106624,0.0,90.36361007019877,0.6706637115465748,11.415387812731359,14,27,0.0,15,376629362732446,78,17.9,463.7369689941406,2.4195001125335693,0,0.0,0.0,,,,,0,,5,,
Raw,5445095,5465015000000,,,-1278313578426106624,0.0,90.36361007019877,0.6706637115465748,11.415387812731359,14,29,0.0,15,376629360664248,24,25.9,-521.8179931640625,0.38179999589920044,0,0.0,0.0,,,,,0,,5,,
Raw,5445095,5465015000000,,,-1278313578426106624,0.0,90.36361007019877,0.6706637115465748,11.415387812731359,14,30,0.0,15,376629369574269,2097,13.3,-43.487342834472656,30.485000610351562,0,0.0,0.0,,,,,0,,5,,
Raw,5445096,5465015000000,,,-1278313578426106624,0.0,90.36361007019877,0.6706637115465748,11.415387812731359,14,4,0.0,7183,376643359277523,27,24.6,-333.2327575683594,0.5550000071525574,0,0.0,0.0,,,,,0,,6,,
Raw,5445096,5465015000000,,,-1278313578426106624,0.0,90.36361007019877,0.6706637115465748,11.415387812731359,14,11,0.0,7183,376643353426486,27,24.6,-447.07598876953125,0.5519999861717224,0,0.0,0.0,,,,,0,,6,,
Raw,5445097,5465015000000,,,-1278313578426106624,0.0,90.36361007019877,0.6706637115465748,11.415387812731359,14,24,0.0,7183,376643350921188,728,16.1,308.0378723144531,6.5435004234313965,0,0.0,0.0,,,,,0,,6,,
Raw,5445097,5465015000000,,,-1278313578426106624,0.0,90.36361007019877,0.6706637115465748,11.415387812731359,14,31,0.0,7183,376643345422450,16,29.9,262.3769226074219,0.3919999897480011,0,0.0,0.0,,,,,0,,6,,
Raw,5445098,5465015000000,,,-1278313578426106624,0.0,90.36361007019877,0.6706637115465748,11.415387812731359,14,33,0.0,7183,376643359049584,46,20.4,139.72312927246094,0.7549999952316284,0,0.0,0.0,,,,,0,,6,,
Fix,gps,22.925281,120.294488,55.480591,0.000000,11.792000,1594283826000
NMEA,$GPGSV,4,1,13,12,17,246,31,13,45,181,13,15,20,209,33,17,09,151,14*72,1594283825449
