# 
# Header Description:
# 
# Version: v2.0.0.1 Platform: 8.0.0 Manufacturer: Sony Model: G8142
# 
# Raw,ElapsedRealtimeMillis,TimeNanos,LeapSecond,TimeUncertaintyNanos,FullBiasNanos,BiasNanos,BiasUncertaintyNanos,DriftNanosPerSecond,DriftUncertaintyNanosPerSecond,HardwareClockDiscontinuityCount,Svid,TimeOffsetNanos,State,ReceivedSvTimeNanos,ReceivedSvTimeUncertaintyNanos,Cn0DbHz,PseudorangeRateMetersPerSecond,PseudorangeRateUncertaintyMetersPerSecond,AccumulatedDeltaRangeState,AccumulatedDeltaRangeMeters,AccumulatedDeltaRangeUncertaintyMeters,CarrierFrequencyHz,CarrierCycles,CarrierPhase,CarrierPhaseUncertainty,MultipathIndicator,SnrInDb,ConstellationType,AgcDb,CarrierFrequencyHz
# 
# Fix,Provider,Latitude,Longitude,Altitude,Speed,Accuracy,(UTC)TimeInMs
# 
# Nav,Svid,Type,Status,MessageId,Sub-messageId,Data(Bytes)
# 
Fix,gps,22.925312,120.294647,37.701477,0.000000,10.720000,1594284088000
NMEA,$GPGSV,4,1,13,05,54,327,16,07,07,074,12,12,16,244,27,13,47,181,22*71,1594284087449
NMEA,$GPGSV,4,2,13,15,22,210,28,17,07,151,18,25,08,272,30,29,18,320,26*71,1594284087449
NMEA,$GPGSV,4,3,13,02,59,026,,06,37,084,,09,04,036,,19,26,154,*7C,1594284087450
NMEA,$GPGSV,4,4,13,30,14,104,*48,1594284087450
NMEA,$GLGSV,2,1,06,65,14,226,23,87,06,330,26,85,45,122,18,71,56,001,18*65,1594284087450
NMEA,$GLGSV,2,2,06,72,54,250,16,70,10,029,*6A,1594284087450
NMEA,$GAGSV,2,1,06,11,14,319,18,31,02,205,20,33,48,099,17,04,52,217,*62,1594284087450
NMEA,$GAGSV,2,2,06,19,65,037,,24,01,250,*61,1594284087450
NMEA,$PQGSV,1,1,0,*73,1594284087450
NMEA,$PQGSV,4,1,16,04,37,113,18,05,17,258,19,06,56,178,19,07,15,192,30,0,4*6E,1594284087451
NMEA,$PQGSV,4,2,16,08,53,014,11,09,31,195,23,10,20,217,17,16,52,184,24,0,4*6C,1594284087451
NMEA,$PQGSV,4,3,16,19,14,239,26,20,59,274,18,27,35,139,19,29,30,320,15,0,4*61,1594284087451
NMEA,$PQGSV,4,4,16,30,87,314,15,01,50,130,,03,62,203,,13,43,336,,0,4*61,1594284087451
NMEA,$GNGSA,A,3,02,05,07,12,13,15,17,25,29,,,,0.9,0.6,0.6,1*37,1594284087452
NMEA,$GNGSA,A,3,65,71,72,85,87,,,,,,,,0.9,0.6,0.6,2*39,1594284087452
NMEA,$GNGSA,A,2,01,11,,,,,,,,,,,0.9,0.6,0.6,3*3A,1594284087452
NMEA,$PQGSA,A,3,05,06,07,09,10,16,,,,,,,0.9,0.6,0.6,4*3E,1594284087452
NMEA,$GNVTG,,T,,M,0.0,N,0.0,K,A*3D,1594284087452
NMEA,$GNRMC,084128.00,A,2255.518729,N,12017.678790,E,0.0,,090720,2.8,W,A*14,1594284087453
NMEA,$GNGGA,084128.00,2255.518729,N,12017.678790,E,1,12,0.6,20.2,M,17.5,M,,*41,1594284087453
Fix,gps,22.925312,120.294646,37.597107,0.000000,10.720000,1594284089000
Raw,5708312,5728015000000,,,-1278313578426105088,0.0,85.72094520786777,15.219653941076748,15.477173161586549,14,1,0.0,207,42088364341197,31,23.9,-590.5821533203125,0.872499942779541,0,0.0,0.0,,,,,0,,3,,
Raw,5708312,5728015000000,,,-1278313578426105088,0.0,85.72094520786777,15.219653941076748,15.477173161586549,14,23,0.0,207,42088361578951,21,26.0,-739.69677734375,0.3127000033855438,0,0.0,0.0,,,,,0,,3,,
Raw,5708313,5728015000000,,,-1278313578426105088,0.0,85.72094520786777,15.219653941076748,15.477173161586549,14,21,0.0,207,42088372462325,79,17.6,383.9884948730469,2.7945001125335693,0,0.0,0.0,,,,,0,,3,,
Raw,5708313,5728015000000,,,-1278313578426105088,0.0,85.72094520786777,15.219653941076748,15.477173161586549,14,7,0.0,207,42088374253315,207,18.2,429.64068603515625,8.717500686645508,0,0.0,0.0,,,,,0,,3,,
Raw,5708313,5728015000000,,,-1278313578426105088,0.0,85.72094520786777,15.219653941076748,15.477173161586549,14,8,0.0,207,42088374280431,61,18.0,-195.91201782226562,1.21750009059906,0,0.0,0.0,,,,,0,,3,,
Raw,5708314,5728015000000,,,-1278313578426105088,0.0,85.72094520786777,15.219653941076748,15.477173161586549,14,5,0.0,15,376906371272698,672,16.1,77.877685546875,16.947999954223633,0,0.0,0.0,,,,,0,,1,,
Raw,5708314,5728015000000,,,-1278313578426105088,0.0,85.72094520786777,15.219653941076748,15.477173161586549,14,7,0.0,15,376906356456525,2176,12.3,-58.705596923828125,14.740500450134277,0,0.0,0.0,,,,,0,,1,,
Raw,5708314,5728015000000,,,-1278313578426105088,0.0,85.72094520786777,15.219653941076748,15.477173161586549,14,12,0.0,15,376906360627002,21,26.7,373.1778564453125,0.11420000344514847,0,0.0,0.0,,,,,0,,1,,
Raw,5708314,5728015000000,,,-1278313578426105088,0.0,85.72094520786777,15.219653941076748,15.477173161586549,14,13,0.0,15,376906369928139,35,22.4,-507.97943115234375,0.800000011920929,0,0.0,0.0,,,,,0,,1,,
Raw,5708315,5728015000000,,,-1278313578426105088,0.0,85.72094520786777,15.219653941076748,15.477173161586549,14,15,0.0,15,376906363167556,19,27.6,-680.3865966796875,0.04580000042915344,0,0.0,0.0,,,,,0,,1,,
Raw,5708315,5728015000000,,,-1278313578426105088,0.0,85.72094520786777,15.219653941076748,15.477173161586549,14,17,0.0,15,376906358917054,487,20.5,697.09326171875,1.1434999704360962,0,0.0,0.0,,,,,0,,1,,
Raw,5708315,5728015000000,,,-1278313578426105088,0.0,85.72094520786777,15.219653941076748,15.477173161586549,14,25,0.0,15,376906357954024,16,29.4,217.86831665039062,0.025200001895427704,0,0.0,0.0,,,,,0,,1,,
Raw,5708316,5728015000000,,,-1278313578426105088,0.0,85.72094520786777,15.219653941076748,15.477173161586549,14,29,0.0,15,376906361825721,24,25.9,-599.8168334960938,0.3833000063896179,0,0.0,0.0,,,,,0,,1,,
Raw,5708316,5728015000000,,,-1278313578426105088,0.0,85.72094520786777,15.219653941076748,15.477173161586549,14,4,0.0,783,376892314580787,134,18.0,3.5239248275756836,6.19350004196167,0,0.0,0.0,,,,,0,,5,,
Raw,5708316,5728015000000,,,-1278313578426105088,0.0,85.72094520786777,15.219653941076748,15.477173161586549,14,5,0.0,783,376892307965060,250,19.1,-10.975057601928711,9.845000267028809,0,0.0,0.0,,,,,0,,5,,
Raw,5708316,5728015000000,,,-1278313578426105088,0.0,85.72094520786777,15.219653941076748,15.477173161586549,14,6,0.0,15,376892318893078,251,19.4,-177.54051208496094,9.87350082397461,0,0.0,0.0,,,,,0,,5,,
Raw,5708319,5728015000000,,,-1278313578426105088,0.0,85.72094520786777,15.219653941076748,15.477173161586549,14,7,0.0,15,376892308749373,16,29.9,249.50946044921875,0.038700003176927567,0,0.0,0.0,,,,,0,,5,,
Raw,5708320,5728015000000,,,-1278313578426105088,0.0,85.72094520786777,15.219653941076748,15.477173161586549,14,8,0.0,15,376892317801285,3286,11.3,-127.30298614501953,38.297000885009766,0,0.0,0.0,,,,,0,,5,,
Raw,5708320,5728015000000,,,-1278313578426105088,0.0,85.72094520786777,15.219653941076748,15.477173161586549,14,9,0.0,15,376892313468818,35,22.3,-233.2127685546875,0.6859999895095825,0,0.0,0.0,,,,,0,,5,,
Raw,5708320,5728015000000,,,-1278313578426105088,0.0,85.72094520786777,15.219653941076748,15.477173161586549,14,10,0.0,15,376892310128251,97,17.0,322.0982360839844,4.014500141143799,0,0.0,0.0,,,,,0,,5,,
Raw,5708321,5728015000000,,,-1278313578426105088,0.0,85.72094520786777,15.219653941076748,15.477173161586549,14,16,0.0,15,376892317046769,35,22.0,-207.50828552246094,0.6919999718666077,0,0.0,0.0,,,,,0,,5,,
Raw,5708321,5728015000000,,,-1278313578426105088,0.0,85.72094520786777,15.219653941076748,15.477173161586549,14,19,0.0,15,376892356640808,24,25.8,-417.2222900390625,0.4058000147342682,0,0.0,0.0,,,,,0,,5,,
Raw,5708321,5728015000000,,,-1278313578426105088,0.0,85.72094520786777,15.219653941076748,15.477173161586549,14,20,0.0,15,376892366259025,212,17.5,-69.59510803222656,8.505500793457031,0,0.0,0.0,,,,,0,,5,,
Raw,5708321,5728015000000,,,-1278313578426105088,0.0,85.72094520786777,15.219653941076748,15.477173161586549,14,27,0.0,15,376892362316719,53,19.5,462.41192626953125,0.8524999618530273,0,0.0,0.0,,,,,0,,5,,
Raw,5708322,5728015000000,,,-1278313578426105088,0.0,85.72094520786777,15.219653941076748,15.477173161586549,14,29,0.0,15,376892361115686,96,15.1,-507.0994873046875,1.9179999828338623,0,0.0,0.0,,,,,0,,5,,
Raw,5708322,5728015000000,,,-1278313578426105088,0.0,85.72094520786777,15.219653941076748,15.477173161586549,14,30,0.0,15,376892369598055,102,15.0,-12.530576705932617,2.680000066757202,0,0.0,0.0,,,,,0,,5,,
Raw,5708322,5728015000000,,,-1278313578426105088,0.0,85.72094520786777,15.219653941076748,15.477173161586549,14,11,0.0,7183,376906353818451,115,14.5,-445.4394226074219,2.692000150680542,0,0.0,0.0,,,,,0,,6,,
Raw,5708322,5728015000000,,,-1278313578426105088,0.0,85.72094520786777,15.219653941076748,15.477173161586549,14,31,0.0,7183,376906345196274,61,18.9,253.3855438232422,0.871999979019165,0,0.0,0.0,,,,,0,,6,,
Raw,5708323,5728015000000,,,-1278313578426105088,0.0,85.72094520786777,15.219653941076748,15.477173161586549,14,33,0.0,7183,376906358919184,282,16.9,153.61456298828125,10.023500442504883,0,0.0,0.0,,,,,0,,6,,
NMEA,$GPGSV,4,1,13,05,54,327,16,07,07,074,12,12,16,244,27,13,47,181,22*71,1594284088450
NMEA,$GPGSV,4,2,13,15,22,210,28,17,07,151,21,25,08,272,29,29,18,320,26*73,1594284088450
NMEA,$GPGSV,4,3,13,02,59,026,,06,37,084,,09,04,036,,19,26,154,*7C,1594284088450
NMEA,$GPGSV,4,4,13,30,14,104,*48,1594284088450
NMEA,$GLGSV,2,1,06,65,14,226,24,87,06,330,26,85,45,122,18,71,56,001,18*62,1594284088450
NMEA,$GLGSV,2,2,06,72,54,250,18,70,10,029,*64,1594284088450
NMEA,$GAGSV,2,1,06,11,14,319,15,31,02,205,19,33,48,099,17,04,52,217,*65,1594284088450
NMEA,$GAGSV,2,2,06,19,65,037,,24,01,250,*61,1594284088451
NMEA,$PQGSV,1,1,0,*73,1594284088451
NMEA,$PQGSV,4,1,16,04,37,113,18,05,17,258,19,06,56,178,19,07,15,192,30,0,4*6E,1594284088451
NMEA,$PQGSV,4,2,16,08,53,014,11,09,31,195,22,10,20,217,17,16,52,184,22,0,4*6B,1594284088451
NMEA,$PQGSV,4,3,16,19,14,239,26,20,59,274,18,27,35,139,20,29,30,320,15,0,4*6B,1594284088451
NMEA,$PQGSV,4,4,16,30,87,314,15,01,50,130,,03,62,203,,13,43,336,,0,4*61,1594284088451
NMEA,$GNGSA,A,3,02,05,07,12,13,15,17,25,29,,,,0.9,0.6,0.7,1*36,1594284088452
NMEA,$GNGSA,A,3,65,71,72,85,87,,,,,,,,0.9,0.6,0.7,2*38,1594284088452
NMEA,$GNGSA,A,2,01,11,,,,,,,,,,,0.9,0.6,0.7,3*3B,1594284088453
NMEA,$PQGSA,A,3,05,06,07,09,10,16,,,,,,,0.9,0.6,0.7,4*3F,1594284088453
NMEA,$GNVTG,,T,,M,0.0,N,0.0,K,A*3D,1594284088453
NMEA,$GNRMC,084129.00,A,2255.518734,N,12017.678737,E,0.0,,090720,2.8,W,A*14,1594284088453
NMEA,$GNGGA,084129.00,2255.518734,N,12017.678737,E,1,12,0.6,20.1,M,17.5,M,,*42,1594284088453
Raw,5709043,5729015000000,,,-1278313578426105088,0.0,87.41066267248243,12.187096911806591,13.522107534990514,14,1,0.0,207,42089364343068,31,23.0,-590.6195678710938,0.872499942779541,0,0.0,0.0,,,,,0,,3,,
Raw,5709044,5729015000000,,,-1278313578426105088,0.0,87.41066267248243,12.187096911806591,13.522107534990514,14,23,0.0,207,42089361581542,27,24.3,-740.252197265625,0.8180000185966492,0,0.0,0.0,,,,,0,,3,,
Raw,5709044,5729015000000,,,-1278313578426105088,0.0,87.41066267248243,12.187096911806591,13.522107534990514,14,21,0.0,207,42089372461044,99,17.6,383.9884948730469,4.294500350952148,0,0.0,0.0,,,,,0,,3,,
Raw,5709044,5729015000000,,,-1278313578426105088,0.0,87.41066267248243,12.187096911806591,13.522107534990514,14,7,0.0,207,42089374251882,266,18.2,429.64068603515625,10.217500686645508,0,0.0,0.0,,,,,0,,3,,
Raw,5709044,5729015000000,,,-1278313578426105088,0.0,87.41066267248243,12.187096911806591,13.522107534990514,14,8,0.0,207,42089374281084,70,18.0,-195.91201782226562,2.7175002098083496,0,0.0,0.0,,,,,0,,3,,
Raw,5709045,5729015000000,,,-1278313578426105088,0.0,87.41066267248243,12.187096911806591,13.522107534990514,14,5,0.0,15,376907371272438,786,16.1,77.877685546875,18.447999954223633,0,0.0,0.0,,,,,0,,1,,
Raw,5709045,5729015000000,,,-1278313578426105088,0.0,87.41066267248243,12.187096911806591,13.522107534990514,14,7,0.0,15,376907356456721,2273,12.3,-58.705596923828125,16.240501403808594,0,0.0,0.0,,,,,0,,1,,
Raw,5709045,5729015000000,,,-1278313578426105088,0.0,87.41066267248243,12.187096911806591,13.522107534990514,14,12,0.0,15,376907360625765,21,26.4,372.7781066894531,0.11420000344514847,0,0.0,0.0,,,,,0,,1,,
Raw,5709046,5729015000000,,,-1278313578426105088,0.0,87.41066267248243,12.187096911806591,13.522107534990514,14,13,0.0,15,376907369929869,46,20.9,-508.3981018066406,0.8600000143051147,0,0.0,0.0,,,,,0,,1,,
Raw,5709046,5729015000000,,,-1278313578426105088,0.0,87.41066267248243,12.187096911806591,13.522107534990514,14,15,0.0,15,376907363169822,19,27.6,-680.8861083984375,0.04580000042915344,0,0.0,0.0,,,,,0,,1,,
Raw,5709046,5729015000000,,,-1278313578426105088,0.0,87.41066267248243,12.187096911806591,13.522107534990514,14,17,0.0,15,376907358914783,566,19.7,698.530029296875,1.9635000228881836,0,0.0,0.0,,,,,0,,1,,
Raw,5709046,5729015000000,,,-1278313578426105088,0.0,87.41066267248243,12.187096911806591,13.522107534990514,14,25,0.0,15,376907357953301,16,29.8,217.50808715820312,0.025200001895427704,0,0.0,0.0,,,,,0,,1,,
Raw,5709047,5729015000000,,,-1278313578426105088,0.0,87.41066267248243,12.187096911806591,13.522107534990514,14,29,0.0,15,376907361827753,24,25.8,-600.1972045898438,0.3833000063896179,0,0.0,0.0,,,,,0,,1,,
Raw,5709047,5729015000000,,,-1278313578426105088,0.0,87.41066267248243,12.187096911806591,13.522107534990514,14,4,0.0,783,376893314580775,177,18.0,3.5239248275756836,7.693500518798828,0,0.0,0.0,,,,,0,,5,,
Raw,5709047,5729015000000,,,-1278313578426105088,0.0,87.41066267248243,12.187096911806591,13.522107534990514,14,5,0.0,783,376893307965097,318,19.1,-10.975057601928711,11.345000267028809,0,0.0,0.0,,,,,0,,5,,
Raw,5709047,5729015000000,,,-1278313578426105088,0.0,87.41066267248243,12.187096911806591,13.522107534990514,14,6,0.0,15,376893318893670,319,19.4,-177.54051208496094,11.37350082397461,0,0.0,0.0,,,,,0,,5,,
Raw,5709048,5729015000000,,,-1278313578426105088,0.0,87.41066267248243,12.187096911806591,13.522107534990514,14,7,0.0,15,376893308748537,16,29.3,249.03936767578125,0.038700003176927567,0,0.0,0.0,,,,,0,,5,,
Raw,5709048,5729015000000,,,-1278313578426105088,0.0,87.41066267248243,12.187096911806591,13.522107534990514,14,9,0.0,15,376893313469619,40,21.4,-233.5872344970703,0.7459999918937683,0,0.0,0.0,,,,,0,,5,,
Raw,5709048,5729015000000,,,-1278313578426105088,0.0,87.41066267248243,12.187096911806591,13.522107534990514,14,10,0.0,15,376893310127176,125,17.0,322.0982360839844,5.514500141143799,0,0.0,0.0,,,,,0,,5,,
Raw,5709048,5729015000000,,,-1278313578426105088,0.0,87.41066267248243,12.187096911806591,13.522107534990514,14,16,0.0,15,376893317047437,40,21.9,-208.13241577148438,0.6919999718666077,0,0.0,0.0,,,,,0,,5,,
Raw,5709050,5729015000000,,,-1278313578426105088,0.0,87.41066267248243,12.187096911806591,13.522107534990514,14,19,0.0,15,376893356642174,24,25.7,-417.7411804199219,0.4058000147342682,0,0.0,0.0,,,,,0,,5,,
Raw,5709050,5729015000000,,,-1278313578426105088,0.0,87.41066267248243,12.187096911806591,13.522107534990514,14,20,0.0,15,376893366259258,271,17.5,-69.59510803222656,10.005500793457031,0,0.0,0.0,,,,,0,,5,,
Raw,5709050,5729015000000,,,-1278313578426105088,0.0,87.41066267248243,12.187096911806591,13.522107534990514,14,27,0.0,15,376893362315001,53,19.3,463.28564453125,0.8524999618530273,0,0.0,0.0,,,,,0,,5,,
Raw,5709051,5729015000000,,,-1278313578426105088,0.0,87.41066267248243,12.187096911806591,13.522107534990514,14,29,0.0,15,376893361117309,80,16.8,-507.5699768066406,0.9980000257492065,0,0.0,0.0,,,,,0,,5,,
Raw,5709051,5729015000000,,,-1278313578426105088,0.0,87.41066267248243,12.187096911806591,13.522107534990514,14,30,0.0,15,376893369598097,121,15.0,-12.530576705932617,4.180000305175781,0,0.0,0.0,,,,,0,,5,,
Raw,5709051,5729015000000,,,-1278313578426105088,0.0,87.41066267248243,12.187096911806591,13.522107534990514,14,4,0.0,7183,376907359561879,652,16.9,-312.4241638183594,2.0390000343322754,0,0.0,0.0,,,,,0,,6,,
Raw,5709051,5729015000000,,,-1278313578426105088,0.0,87.41066267248243,12.187096911806591,13.522107534990514,14,11,0.0,7183,376907353819936,135,14.5,-445.4394226074219,4.191999912261963,0,0.0,0.0,,,,,0,,6,,
Raw,5709052,5729015000000,,,-1278313578426105088,0.0,87.41066267248243,12.187096911806591,13.522107534990514,14,31,0.0,7183,376907345195427,61,18.2,252.80514526367188,0.871999979019165,0,0.0,0.0,,,,,0,,6,,
Raw,5709052,5729015000000,,,-1278313578426105088,0.0,87.41066267248243,12.187096911806591,13.522107534990514,14,33,0.0,7183,376907358918320,180,13.5,158.86668395996094,5.7835001945495605,0,0.0,0.0,,,,,0,,6,,
Fix,gps,22.925312,120.294643,37.553833,0.000000,11.792000,1594284090000
NMEA,$GPGSV,4,1,13,05,54,327,16,07,07,074,12,12,16,244,26,13,47,181,21*73,1594284089447
NMEA,$GPGSV,4,2,13,15,22,210,28,17,07,151,20,25,08,272,30,29,18,320,26*7A,1594284089447
NMEA,$GPGSV,4,3,13,02,59,026,,06,37,084,,09,04,036,,19,26,154,*7C,1594284089448
NMEA,$GPGSV,4,4,13,30,14,104,*48,1594284089448
NMEA,$GLGSV,2,1,06,65,14,226,23,87,06,330,24,85,45,122,18,71,56,001,18*67,1594284089448
NMEA,$GLGSV,2,2,06,72,54,250,18,70,10,029,*64,1594284089448
NMEA,$GAGSV,2,1,06,04,52,217,17,11,14,319,15,31,02,205,18,33,48,099,14*61,1594284089448
NMEA,$GAGSV,2,2,06,19,65,037,,24,01,250,*61,1594284089448
NMEA,$PQGSV,1,1,0,*73,1594284089448
NMEA,$PQGSV,4,1,16,04,37,113,18,05,17,258,19,06,56,178,19,07,15,192,29,0,4*66,1594284089449
NMEA,$PQGSV,4,2,16,09,31,195,21,10,20,217,17,16,52,184,22,19,14,239,26,0,4*62,1594284089449
NMEA,$PQGSV,4,3,16,20,59,274,18,27,35,139,19,29,30,320,17,30,87,314,15,0,4*6C,1594284089449
NMEA,$PQGSV,4,4,16,01,50,130,,03,62,203,,08,53,014,,13,43,336,,0,4*64,1594284089449
NMEA,$GNGSA,A,3,05,07,12,13,15,17,25,29,,,,,0.9,0.6,0.7,1*34,1594284089449
NMEA,$GNGSA,A,3,65,71,72,85,87,,,,,,,,0.9,0.6,0.7,2*38,1594284089449
NMEA,$GNGSA,A,2,11,,,,,,,,,,,,0.9,0.6,0.7,3*3A,1594284089449
NMEA,$PQGSA,A,3,05,07,09,10,16,,,,,,,,0.9,0.6,0.7,4*39,1594284089450
NMEA,$GNVTG,,T,,M,0.0,N,0.0,K,A*3D,1594284089450
NMEA,$GNRMC,084130.00,A,2255.518708,N,12017.678604,E,0.0,,090720,2.8,W,A*12,1594284089450
NMEA,$GNGGA,084130.00,2255.518708,N,12017.678604,E,1,12,0.6,20.1,M,17.5,M,,*44,1594284089450
Raw,5710045,5730015000000,,,-1278313578426105088,0.0,88.51502207107842,11.126798640994368,11.897655201221552,14,1,0.0,207,42090364345115,27,24.0,-591.0404663085938,0.8224999904632568,0,0.0,0.0,,,,,0,,3,,
Raw,5710045,5730015000000,,,-1278313578426105088,0.0,88.51502207107842,11.126798640994368,11.897655201221552,14,23,0.0,207,42090361583951,24,25.1,-740.8064575195312,0.583299994468689,0,0.0,0.0,,,,,0,,3,,
Raw,5710045,5730015000000,,,-1278313578426105088,0.0,88.51502207107842,11.126798640994368,11.897655201221552,14,21,0.0,207,42090372459500,103,15.4,381.9796142578125,2.9745001792907715,0,0.0,0.0,,,,,0,,3,,
Raw,5710046,5730015000000,,,-1278313578426105088,0.0,88.51502207107842,11.126798640994368,11.897655201221552,14,7,0.0,207,42090374250448,335,18.2,429.64068603515625,11.717500686645508,0,0.0,0.0,,,,,0,,3,,
Raw,5710046,5730015000000,,,-1278313578426105088,0.0,88.51502207107842,11.126798640994368,11.897655201221552,14,8,0.0,207,42090374281779,96,15.6,-196.3321990966797,2.2275002002716064,0,0.0,0.0,,,,,0,,3,,
Raw,5710046,5730015000000,,,-1278313578426105088,0.0,88.51502207107842,11.126798640994368,11.897655201221552,14,5,0.0,15,376908371272178,910,16.1,77.877685546875,19.947999954223633,0,0.0,0.0,,,,,0,,1,,
Raw,5710047,5730015000000,,,-1278313578426105088,0.0,88.51502207107842,11.126798640994368,11.897655201221552,14,7,0.0,15,376908356456916,2381,12.3,-58.705596923828125,17.740501403808594,0,0.0,0.0,,,,,0,,1,,
Raw,5710047,5730015000000,,,-1278313578426105088,0.0,88.51502207107842,11.126798640994368,11.897655201221552,14,12,0.0,15,376908360624438,24,25.8,372.18841552734375,0.384799987077713,0,0.0,0.0,,,,,0,,1,,
Raw,5710047,5730015000000,,,-1278313578426105088,0.0,88.51502207107842,11.126798640994368,11.897655201221552,14,13,0.0,15,376908369931540,46,20.0,-508.1126708984375,0.9300000071525574,0,0.0,0.0,,,,,0,,1,,
Raw,5710047,5730015000000,,,-1278313578426105088,0.0,88.51502207107842,11.126798640994368,11.897655201221552,14,15,0.0,15,376908363172072,19,27.5,-681.439208984375,0.04580000042915344,0,0.0,0.0,,,,,0,,1,,
Raw,5710048,5730015000000,,,-1278313578426105088,0.0,88.51502207107842,11.126798640994368,11.897655201221552,14,17,0.0,15,376908358912431,572,19.7,698.6156616210938,2.7135000228881836,0,0.0,0.0,,,,,0,,1,,
Raw,5710048,5730015000000,,,-1278313578426105088,0.0,88.51502207107842,11.126798640994368,11.897655201221552,14,25,0.0,15,376908357952578,14,30.1,216.94210815429688,0.024300001561641693,0,0.0,0.0,,,,,0,,1,,
Raw,5710048,5730015000000,,,-1278313578426105088,0.0,88.51502207107842,11.126798640994368,11.897655201221552,14,29,0.0,15,376908361829759,24,25.5,-600.7400512695312,0.3833000063896179,0,0.0,0.0,,,,,0,,1,,
Raw,5710049,5730015000000,,,-1278313578426105088,0.0,88.51502207107842,11.126798640994368,11.897655201221552,14,4,0.0,783,376894314580763,230,18.0,3.5239248275756836,9.193500518798828,0,0.0,0.0,,,,,0,,5,,
Raw,5710049,5730015000000,,,-1278313578426105088,0.0,88.51502207107842,11.126798640994368,11.897655201221552,14,5,0.0,783,376894307965133,396,19.1,-10.975057601928711,12.845000267028809,0,0.0,0.0,,,,,0,,5,,
Raw,5710049,5730015000000,,,-1278313578426105088,0.0,88.51502207107842,11.126798640994368,11.897655201221552,14,6,0.0,15,376894318894262,397,19.4,-177.54051208496094,12.87350082397461,0,0.0,0.0,,,,,0,,5,,
Raw,5710050,5730015000000,,,-1278313578426105088,0.0,88.51502207107842,11.126798640994368,11.897655201221552,14,7,0.0,15,376894308747714,16,29.7,248.40640258789062,0.038700003176927567,0,0.0,0.0,,,,,0,,5,,
Raw,5710050,5730015000000,,,-1278313578426105088,0.0,88.51502207107842,11.126798640994368,11.897655201221552,14,9,0.0,15,376894313470363,40,21.6,-234.36500549316406,0.7459999918937683,0,0.0,0.0,,,,,0,,5,,
Raw,5710050,5730015000000,,,-1278313578426105088,0.0,88.51502207107842,11.126798640994368,11.897655201221552,14,10,0.0,15,376894310126285,101,15.8,321.8677978515625,2.5945000648498535,0,0.0,0.0,,,,,0,,5,,
Raw,5710051,5730015000000,,,-1278313578426105088,0.0,88.51502207107842,11.126798640994368,11.897655201221552,14,16,0.0,15,376894317048141,35,22.8,-209.1214141845703,0.6420000195503235,0,0.0,0.0,,,,,0,,5,,
Raw,5710051,5730015000000,,,-1278313578426105088,0.0,88.51502207107842,11.126798640994368,11.897655201221552,14,19,0.0,15,376894356643566,24,25.1,-418.1876525878906,0.4058000147342682,0,0.0,0.0,,,,,0,,5,,
Raw,5710051,5730015000000,,,-1278313578426105088,0.0,88.51502207107842,11.126798640994368,11.897655201221552,14,20,0.0,15,376894366259490,339,17.5,-69.59510803222656,11.505500793457031,0,0.0,0.0,,,,,0,,5,,
Raw,5710051,5730015000000,,,-1278313578426105088,0.0,88.51502207107842,11.126798640994368,11.897655201221552,14,27,0.0,15,376894362313437,53,19.6,463.0552062988281,0.8524999618530273,0,0.0,0.0,,,,,0,,5,,
Raw,5710052,5730015000000,,,-1278313578426105088,0.0,88.51502207107842,11.126798640994368,11.897655201221552,14,29,0.0,15,376894361118981,70,17.8,-507.1859130859375,0.9179999828338623,0,0.0,0.0,,,,,0,,5,,
Raw,5710052,5730015000000,,,-1278313578426105088,0.0,88.51502207107842,11.126798640994368,11.897655201221552,14,30,0.0,15,376894369598139,150,15.0,-12.530576705932617,5.680000305175781,0,0.0,0.0,,,,,0,,5,,
Raw,5710052,5730015000000,,,-1278313578426105088,0.0,88.51502207107842,11.126798640994368,11.897655201221552,14,4,0.0,7183,376908359562928,658,16.4,-312.79522705078125,2.7890000343322754,0,0.0,0.0,,,,,0,,6,,
Raw,5710053,5730015000000,,,-1278313578426105088,0.0,88.51502207107842,11.126798640994368,11.897655201221552,14,11,0.0,7183,376908353821422,164,14.5,-445.4394226074219,5.692000389099121,0,0.0,0.0,,,,,0,,6,,
Raw,5710053,5730015000000,,,-1278313578426105088,0.0,88.51502207107842,11.126798640994368,11.897655201221552,14,31,0.0,7183,376908345194585,53,19.3,251.1210479736328,0.8119999766349792,0,0.0,0.0,,,,,0,,6,,
Raw,5710053,5730015000000,,,-1278313578426105088,0.0,88.51502207107842,11.126798640994368,11.897655201221552,14,33,0.0,7183,376908358917758,80,16.2,155.1749725341797,1.0234999656677246,0,0.0,0.0,,,,,0,,6,,
Fix,gps,22.925311,120.294640,37.257935,0.000000,11.792000,1594284091000
NMEA,$GPGSV,4,1,13,05,54,327,16,07,07,074,12,12,16,244,26,13,47,181,20*72,1594284090463
NMEA,$GPGSV,4,2,13,15,22,210,28,17,07,151,20,25,08,272,30,29,18,320,26*7A,1594284090463
NMEA,$GPGSV,4,3,13,02,59,026,,06,37,084,,09,04,036,,19,26,154,*7C,1594284090464
NMEA,$GPGSV,4,4,13,30,14,104,*48,1594284090465
NMEA,$GLGSV,2,1,06,65,14,226,24,87,06,330,25,85,45,122,15,71,56,001,18*6C,1594284090465
NMEA,$GLGSV,2,2,06,72,54,250,16,70,10,029,*6A,1594284090466
NMEA,$GAGSV,2,1,06,04,52,217,16,11,14,319,15,31,02,205,19,33,48,099,16*63,1594284090467
NMEA,$GAGSV,2,2,06,19,65,037,,24,01,250,*61,1594284090467
NMEA,$PQGSV,1,1,0,*73,1594284090468
NMEA,$PQGSV,4,1,16,04,37,113,18,05,17,258,19,06,56,178,19,07,15,192,30,0,4*6E,1594284090469
NMEA,$PQGSV,4,2,16,09,31,195,22,10,20,217,16,16,52,184,23,19,14,239,25,0,4*62,1594284090470
NMEA,$PQGSV,4,3,16,20,59,274,18,27,35,139,20,29,30,320,18,30,87,314,15,0,4*69,1594284090470
NMEA,$PQGSV,4,4,16,01,50,130,,03,62,203,,08,53,014,,13,43,336,,0,4*64,1594284090471
NMEA,$GNGSA,A,3,05,07,12,13,15,17,25,29,,,,,1.0,0.7,0.7,1*3D,1594284090474
NMEA,$GNGSA,A,3,65,72,85,87,,,,,,,,,1.0,0.7,0.7,2*37,1594284090474
NMEA,$GNGSA,A,2,01,04,11,,,,,,,,,,1.0,0.7,0.7,3*36,1594284090475
NMEA,$PQGSA,A,3,07,09,10,16,,,,,,,,,1.0,0.7,0.7,4*35,1594284090476
NMEA,$GNVTG,,T,,M,0.0,N,0.0,K,A*3D,1594284090477
NMEA,$GNRMC,084131.00,A,2255.518679,N,12017.678429,E,0.0,,090720,2.8,W,A*19,1594284090478
NMEA,$GNGGA,084131.00,2255.518679,N,12017.678429,E,1,12,0.7,19.8,M,17.5,M,,*4D,1594284090478
Raw,5711350,5731015000000,,,-1278313578426105088,0.0,95.33132833894342,9.229365276749418,16.494667142829275,14,1,0.0,207,42091364347078,31,23.9,-591.6110229492188,0.872499942779541,0,0.0,0.0,,,,,0,,3,,
Raw,5711350,5731015000000,,,-1278313578426105088,0.0,95.33132833894342,9.229365276749418,16.494667142829275,14,23,0.0,207,42091361586423,27,24.5,-741.14013671875,0.8180000185966492,0,0.0,0.0,,,,,0,,3,,
Raw,5711351,5731015000000,,,-1278313578426105088,0.0,95.33132833894342,9.229365276749418,16.494667142829275,14,21,0.0,207,42091372458226,123,15.4,381.9796142578125,4.4745001792907715,0,0.0,0.0,,,,,0,,3,,
Raw,5711351,5731015000000,,,-1278313578426105088,0.0,95.33132833894342,9.229365276749418,16.494667142829275,14,7,0.0,207,42091374249015,414,18.2,429.64068603515625,13.217500686645508,0,0.0,0.0,,,,,0,,3,,
Raw,5711351,5731015000000,,,-1278313578426105088,0.0,95.33132833894342,9.229365276749418,16.494667142829275,14,8,0.0,207,42091374282434,111,15.6,-196.3321990966797,3.7275002002716064,0,0.0,0.0,,,,,0,,3,,
Raw,5711352,5731015000000,,,-1278313578426105088,0.0,95.33132833894342,9.229365276749418,16.494667142829275,14,2,0.0,15,376909369810370,1164,15.2,-161.65447998046875,3.890000104904175,0,0.0,0.0,,,,,0,,1,,
Raw,5711352,5731015000000,,,-1278313578426105088,0.0,95.33132833894342,9.229365276749418,16.494667142829275,14,5,0.0,15,376909371271918,1044,16.1,77.877685546875,21.448001861572266,0,0.0,0.0,,,,,0,,1,,
Raw,5711352,5731015000000,,,-1278313578426105088,0.0,95.33132833894342,9.229365276749418,16.494667142829275,14,7,0.0,15,376909356457112,2499,12.3,-58.705596923828125,19.240501403808594,0,0.0,0.0,,,,,0,,1,,
Raw,5711352,5731015000000,,,-1278313578426105088,0.0,95.33132833894342,9.229365276749418,16.494667142829275,14,12,0.0,15,376909360623193,24,25.0,371.8457336425781,0.384799987077713,0,0.0,0.0,,,,,0,,1,,
Raw,5711353,5731015000000,,,-1278313578426105088,0.0,95.33132833894342,9.229365276749418,16.494667142829275,14,13,0.0,15,376909369933224,61,18.5,-507.66546630859375,1.0099999904632568,0,0.0,0.0,,,,,0,,1,,
Raw,5711353,5731015000000,,,-1278313578426105088,0.0,95.33132833894342,9.229365276749418,16.494667142829275,14,15,0.0,15,376909363174376,19,27.2,-681.7628173828125,0.04580000042915344,0,0.0,0.0,,,,,0,,1,,
Raw,5711353,5731015000000,,,-1278313578426105088,0.0,95.33132833894342,9.229365276749418,16.494667142829275,14,17,0.0,15,376909358910077,581,19.5,698.3492431640625,3.4635000228881836,0,0.0,0.0,,,,,0,,1,,
Raw,5711353,5731015000000,,,-1278313578426105088,0.0,95.33132833894342,9.229365276749418,16.494667142829275,14,25,0.0,15,376909357951831,16,29.8,216.67868041992188,0.025200001895427704,0,0.0,0.0,,,,,0,,1,,
Raw,5711354,5731015000000,,,-1278313578426105088,0.0,95.33132833894342,9.229365276749418,16.494667142829275,14,29,0.0,15,376909361831765,21,26.0,-601.017822265625,0.11270000040531158,0,0.0,0.0,,,,,0,,1,,
Raw,5711354,5731015000000,,,-1278313578426105088,0.0,95.33132833894342,9.229365276749418,16.494667142829275,14,4,0.0,783,376895314580717,86,17.8,5.309891700744629,3.19350004196167,0,0.0,0.0,,,,,0,,5,,
Raw,5711354,5731015000000,,,-1278313578426105088,0.0,95.33132833894342,9.229365276749418,16.494667142829275,14,5,0.0,783,376895307965170,484,19.1,-10.975057601928711,14.345000267028809,0,0.0,0.0,,,,,0,,5,,
Raw,5711354,5731015000000,,,-1278313578426105088,0.0,95.33132833894342,9.229365276749418,16.494667142829275,14,6,0.0,15,376895318894854,486,19.4,-177.54051208496094,14.37350082397461,0,0.0,0.0,,,,,0,,5,,
Raw,5711355,5731015000000,,,-1278313578426105088,0.0,95.33132833894342,9.229365276749418,16.494667142829275,14,7,0.0,15,376895308746886,16,29.6,248.0839080810547,0.038700003176927567,0,0.0,0.0,,,,,0,,5,,
Raw,5711355,5731015000000,,,-1278313578426105088,0.0,95.33132833894342,9.229365276749418,16.494667142829275,14,9,0.0,15,376895313471180,35,22.3,-234.76828002929688,0.6859999895095825,0,0.0,0.0,,,,,0,,5,,
Raw,5711355,5731015000000,,,-1278313578426105088,0.0,95.33132833894342,9.229365276749418,16.494667142829275,14,10,0.0,15,376895310125212,120,15.8,321.8677978515625,4.0945000648498535,0,0.0,0.0,,,,,0,,5,,
Raw,5711355,5731015000000,,,-1278313578426105088,0.0,95.33132833894342,9.229365276749418,16.494667142829275,14,16,0.0,15,376895317048857,35,22.3,-209.15982055664062,0.6919999718666077,0,0.0,0.0,,,,,0,,5,,
Raw,5711356,5731015000000,,,-1278313578426105088,0.0,95.33132833894342,9.229365276749418,16.494667142829275,14,19,0.0,15,376895356644965,27,24.6,-418.3580322265625,0.6004999876022339,0,0.0,0.0,,,,,0,,5,,
Raw,5711356,5731015000000,,,-1278313578426105088,0.0,95.33132833894342,9.229365276749418,16.494667142829275,14,20,0.0,15,376895366259722,418,17.5,-69.59510803222656,13.005500793457031,0,0.0,0.0,,,,,0,,5,,
Raw,5711356,5731015000000,,,-1278313578426105088,0.0,95.33132833894342,9.229365276749418,16.494667142829275,14,27,0.0,15,376895362311872,46,20.1,461.6437683105469,0.7924999594688416,0,0.0,0.0,,,,,0,,5,,
Raw,5711357,5731015000000,,,-1278313578426105088,0.0,95.33132833894342,9.229365276749418,16.494667142829275,14,29,0.0,15,376895361120706,53,19.2,-508.6742248535156,0.8479999899864197,0,0.0,0.0,,,,,0,,5,,
Raw,5711357,5731015000000,,,-1278313578426105088,0.0,95.33132833894342,9.229365276749418,16.494667142829275,14,30,0.0,15,376895369598180,189,15.0,-12.530576705932617,7.180000305175781,0,0.0,0.0,,,,,0,,5,,
Raw,5711357,5731015000000,,,-1278313578426105088,0.0,95.33132833894342,9.229365276749418,16.494667142829275,14,4,0.0,7183,376909359563953,766,15.9,-313.3851318359375,3.61899995803833,0,0.0,0.0,,,,,0,,6,,
Raw,5711357,5731015000000,,,-1278313578426105088,0.0,95.33132833894342,9.229365276749418,16.494667142829275,14,11,0.0,7183,376909353822922,115,14.3,-446.84759521484375,2.692000150680542,0,0.0,0.0,,,,,0,,6,,
Raw,5711358,5731015000000,,,-1278313578426105088,0.0,95.33132833894342,9.229365276749418,16.494667142829275,14,31,0.0,7183,376909345193758,53,19.2,250.67385864257812,0.8119999766349792,0,0.0,0.0,,,,,0,,6,,
Raw,5711358,5731015000000,,,-1278313578426105088,0.0,95.33132833894342,9.229365276749418,16.494667142829275,14,33,0.0,7183,376909358917240,89,16.2,155.1749725341797,2.5235002040863037,0,0.0,0.0,,,,,0,,6,,
Fix,gps,22.925310,120.294638,37.427124,0.000000,11.792000,1594284092000
NMEA,$GPGSV,4,1,13,02,59,026,15,05,54,327,16,07,07,074,12,12,16,244,25*74,1594284091474
NMEA,$GPGSV,4,2,13,13,47,181,19,15,22,210,27,17,07,151,20,25,08,272,30*73,1594284091474
NMEA,$GPGSV,4,3,13,29,18,320,26,06,37,084,,09,04,036,,19,26,154,*71,1594284091475
NMEA,$GPGSV,4,4,13,30,14,104,*48,1594284091476
NMEA,$GLGSV,2,1,06,65,14,226,24,87,06,330,25,85,45,122,15,71,56,001,18*6C,1594284091476
NMEA,$GLGSV,2,2,06,72,54,250,16,70,10,029,*6A,1594284091477
NMEA,$GAGSV,2,1,06,04,52,217,16,11,14,319,14,31,02,205,19,33,48,099,16*62,1594284091481
NMEA,$GAGSV,2,2,06,19,65,037,,24,01,250,*61,1594284091483
NMEA,$PQGSV,1,1,0,*73,1594284091484
NMEA,$PQGSV,4,1,16,04,37,113,18,05,17,258,19,06,56,178,19,07,15,192,30,0,4*6E,1594284091484
NMEA,$PQGSV,4,2,16,09,31,195,22,10,20,217,16,16,52,184,22,19,14,239,25,0,4*63,1594284091485
NMEA,$PQGSV,4,3,16,20,59,274,18,27,35,139,20,29,30,320,19,30,87,314,15,0,4*68,1594284091485
NMEA,$PQGSV,4,4,16,01,50,130,,03,62,203,,08,53,014,,13,43,336,,0,4*64,1594284091485
NMEA,$GNGSA,A,3,07,12,13,15,17,25,29,,,,,,1.0,0.7,0.7,1*38,1594284091486
NMEA,$GNGSA,A,3,65,72,85,87,,,,,,,,,1.0,0.7,0.7,2*37,1594284091486
NMEA,$GNGSA,A,2,01,04,11,,,,,,,,,,1.0,0.7,0.7,3*36,1594284091486
NMEA,$PQGSA,A,3,07,09,10,16,,,,,,,,,1.0,0.7,0.7,4*35,1594284091486
NMEA,$GNVTG,,T,,M,0.0,N,0.0,K,A*3D,1594284091487
NMEA,$GNRMC,084132.00,A,2255.518599,N,12017.678257,E,0.0,,090720,2.8,W,A*18,1594284091487
NMEA,$GNGGA,084132.00,2255.518599,N,12017.678257,E,1,12,0.7,20.0,M,17.5,M,,*4E,1594284091487
Raw,5712052,5732015000000,,,-1278313578426105088,0.0,98.27066969592124,8.298233003646713,16.261224191989076,14,1,0.0,207,42092364349019,27,24.7,-590.1705932617188,0.8224999904632568,0,0.0,0.0,,,,,0,,3,,
Raw,5712053,5732015000000,,,-1278313578426105088,0.0,98.27066969592124,8.298233003646713,16.261224191989076,14,23,0.0,207,42092361588881,31,23.5,-739.859619140625,0.8679999709129333,0,0.0,0.0,,,,,0,,3,,
Raw,5712053,5732015000000,,,-1278313578426105088,0.0,98.27066969592124,8.298233003646713,16.261224191989076,14,21,0.0,207,42092372456951,153,15.4,381.9796142578125,5.9745001792907715,0,0.0,0.0,,,,,0,,3,,
Raw,5712054,5732015000000,,,-1278313578426105088,0.0,98.27066969592124,8.298233003646713,16.261224191989076,14,7,0.0,207,42092374247582,504,18.2,429.64068603515625,14.717500686645508,0,0.0,0.0,,,,,0,,3,,
Raw,5712054,5732015000000,,,-1278313578426105088,0.0,98.27066969592124,8.298233003646713,16.261224191989076,14,8,0.0,207,42092374283168,110,14.2,-197.5460205078125,2.327500104904175,0,0.0,0.0,,,,,0,,3,,
Raw,5712054,5732015000000,,,-1278313578426105088,0.0,98.27066969592124,8.298233003646713,16.261224191989076,14,2,0.0,15,376910369810917,1176,14.9,-161.95895385742188,4.640000343322754,0,0.0,0.0,,,,,0,,1,,
Raw,5712055,5732015000000,,,-1278313578426105088,0.0,98.27066969592124,8.298233003646713,16.261224191989076,14,5,0.0,15,376910371271658,1188,16.1,77.877685546875,22.948001861572266,0,0.0,0.0,,,,,0,,1,,
Raw,5712055,5732015000000,,,-1278313578426105088,0.0,98.27066969592124,8.298233003646713,16.261224191989076,14,6,0.0,15,376910366704166,1351,14.2,216.4400177001953,4.755500316619873,0,0.0,0.0,,,,,0,,1,,
Raw,5712055,5732015000000,,,-1278313578426105088,0.0,98.27066969592124,8.298233003646713,16.261224191989076,14,7,0.0,15,376910356457308,2626,12.3,-58.705596923828125,20.740501403808594,0,0.0,0.0,,,,,0,,1,,
Raw,5712055,5732015000000,,,-1278313578426105088,0.0,98.27066969592124,8.298233003646713,16.261224191989076,14,9,0.0,15,376910356505949,1351,14.1,653.763427734375,4.770500183105469,0,0.0,0.0,,,,,0,,1,,
Raw,5712056,5732015000000,,,-1278313578426105088,0.0,98.27066969592124,8.298233003646713,16.261224191989076,14,12,0.0,15,376910360622018,27,24.1,372.9280090332031,0.6694999933242798,0,0.0,0.0,,,,,0,,1,,
Raw,5712056,5732015000000,,,-1278313578426105088,0.0,98.27066969592124,8.298233003646713,16.261224191989076,14,13,0.0,15,376910369934779,61,18.8,-507.21826171875,1.0099999904632568,0,0.0,0.0,,,,,0,,1,,
Raw,5712056,5732015000000,,,-1278313578426105088,0.0,98.27066969592124,8.298233003646713,16.261224191989076,14,15,0.0,15,376910363176634,19,27.2,-680.7503051757812,0.04580000042915344,0,0.0,0.0,,,,,0,,1,,
Raw,5712057,5732015000000,,,-1278313578426105088,0.0,98.27066969592124,8.298233003646713,16.261224191989076,14,17,0.0,15,376910358907763,678,19.4,698.2540893554688,4.293499946594238,0,0.0,0.0,,,,,0,,1,,
Raw,5712057,5732015000000,,,-1278313578426105088,0.0,98.27066969592124,8.298233003646713,16.261224191989076,14,25,0.0,15,376910357951113,16,29.3,217.69479370117188,0.025200001895427704,0,0.0,0.0,,,,,0,,1,,
Raw,5712057,5732015000000,,,-1278313578426105088,0.0,98.27066969592124,8.298233003646713,16.261224191989076,14,29,0.0,15,376910361833735,24,25.4,-600.0016479492188,0.3833000063896179,0,0.0,0.0,,,,,0,,1,,
Raw,5712057,5732015000000,,,-1278313578426105088,0.0,98.27066969592124,8.298233003646713,16.261224191989076,14,1,0.0,783,376896317405532,517,19.6,-8.776205062866211,4.144999980926514,0,0.0,0.0,,,,,0,,5,,
Raw,5712058,5732015000000,,,-1278313578426105088,0.0,98.27066969592124,8.298233003646713,16.261224191989076,14,4,0.0,783,376896314580699,109,17.8,5.309891700744629,4.69350004196167,0,0.0,0.0,,,,,0,,5,,
Raw,5712058,5732015000000,,,-1278313578426105088,0.0,98.27066969592124,8.298233003646713,16.261224191989076,14,5,0.0,783,376896307965206,582,19.1,-10.975057601928711,15.845000267028809,0,0.0,0.0,,,,,0,,5,,
Raw,5712058,5732015000000,,,-1278313578426105088,0.0,98.27066969592124,8.298233003646713,16.261224191989076,14,6,0.0,15,376896318895446,584,19.4,-177.54051208496094,15.87350082397461,0,0.0,0.0,,,,,0,,5,,
Raw,5712058,5732015000000,,,-1278313578426105088,0.0,98.27066969592124,8.298233003646713,16.261224191989076,14,7,0.0,15,376896308746072,16,29.3,249.00914001464844,0.038700003176927567,0,0.0,0.0,,,,,0,,5,,
Raw,5712059,5732015000000,,,-1278313578426105088,0.0,98.27066969592124,8.298233003646713,16.261224191989076,14,9,0.0,15,376896313471943,35,22.7,-233.46241760253906,0.6859999895095825,0,0.0,0.0,,,,,0,,5,,
Raw,5712059,5732015000000,,,-1278313578426105088,0.0,98.27066969592124,8.298233003646713,16.261224191989076,14,10,0.0,15,376896310124339,84,16.2,320.5907287597656,1.844499945640564,0,0.0,0.0,,,,,0,,5,,
Raw,5712059,5732015000000,,,-1278313578426105088,0.0,98.27066969592124,8.298233003646713,16.261224191989076,14,16,0.0,15,376896317049559,31,23.3,-208.57408142089844,0.6420000195503235,0,0.0,0.0,,,,,0,,5,,
Raw,5712059,5732015000000,,,-1278313578426105088,0.0,98.27066969592124,8.298233003646713,16.261224191989076,14,19,0.0,15,376896356646343,27,24.5,-417.1097717285156,0.6004999876022339,0,0.0,0.0,,,,,0,,5,,
Raw,5712060,5732015000000,,,-1278313578426105088,0.0,98.27066969592124,8.298233003646713,16.261224191989076,14,20,0.0,15,376896366259954,506,17.5,-69.59510803222656,14.505500793457031,0,0.0,0.0,,,,,0,,5,,
Raw,5712060,5732015000000,,,-1278313578426105088,0.0,98.27066969592124,8.298233003646713,16.261224191989076,14,27,0.0,15,376896362310332,54,20.1,461.6437683105469,2.2925000190734863,0,0.0,0.0,,,,,0,,5,,
Raw,5712060,5732015000000,,,-1278313578426105088,0.0,98.27066969592124,8.298233003646713,16.261224191989076,14,29,0.0,15,376896361122395,53,19.3,-508.0693054199219,0.8479999899864197,0,0.0,0.0,,,,,0,,5,,
Raw,5712060,5732015000000,,,-1278313578426105088,0.0,98.27066969592124,8.298233003646713,16.261224191989076,14,30,0.0,15,376896369598222,238,15.0,-12.530576705932617,8.680000305175781,0,0.0,0.0,,,,,0,,5,,
Raw,5712061,5732015000000,,,-1278313578426105088,0.0,98.27066969592124,8.298233003646713,16.261224191989076,14,4,0.0,7183,376910359564986,778,15.8,-313.4517517089844,4.36899995803833,0,0.0,0.0,,,,,0,,6,,
Raw,5712061,5732015000000,,,-1278313578426105088,0.0,98.27066969592124,8.298233003646713,16.261224191989076,14,11,0.0,7183,376910353824413,135,14.3,-446.84759521484375,4.191999912261963,0,0.0,0.0,,,,,0,,6,,
Raw,5712061,5732015000000,,,-1278313578426105088,0.0,98.27066969592124,8.298233003646713,16.261224191989076,14,31,0.0,7183,376910345192933,53,19.4,251.4540557861328,0.8119999766349792,0,0.0,0.0,,,,,0,,6,,
Raw,5712061,5732015000000,,,-1278313578426105088,0.0,98.27066969592124,8.298233003646713,16.261224191989076,14,33,0.0,7183,376910358916722,108,16.2,155.1749725341797,4.023499965667725,0,0.0,0.0,,,,,0,,6,,
Fix,gps,22.925309,120.294636,37.345398,0.000000,11.792000,1594284093000
NMEA,$GPGSV,4,1,13,02,59,026,15,05,54,327,16,06,37,084,14,07,07,074,12*7E,1594284092464
NMEA,$GPGSV,4,2,13,09,04,036,14,12,16,244,24,13,47,181,19,15,22,210,27*73,1594284092465
NMEA,$GPGSV,4,3,13,17,07,151,19,25,08,272,29,29,18,320,25,19,26,154,*7B,1594284092465
NMEA,$GPGSV,4,4,13,30,14,104,*48,1594284092467
NMEA,$GLGSV,2,1,06,65,14,226,25,87,06,330,24,85,45,122,15,71,56,001,18*6C,1594284092467
NMEA,$GLGSV,2,2,06,72,54,250,14,70,10,029,*68,1594284092468
NMEA,$GAGSV,2,1,06,04,52,217,16,11,14,319,14,31,02,205,19,33,48,099,16*62,1594284092468
NMEA,$GAGSV,2,2,06,19,65,037,,24,01,250,*61,1594284092469
NMEA,$PQGSV,1,1,0,*73,1594284092470
NMEA,$PQGSV,4,1,16,01,50,130,20,04,37,113,18,05,17,258,19,06,56,178,19,0,4*60,1594284092470
NMEA,$PQGSV,4,2,16,07,15,192,29,09,31,195,23,10,20,217,16,16,52,184,23,0,4*63,1594284092471
NMEA,$PQGSV,4,3,16,19,14,239,25,20,59,274,18,27,35,139,20,29,30,320,19,0,4*64,1594284092472
NMEA,$PQGSV,4,4,16,30,87,314,15,03,62,203,,08,53,014,,13,43,336,,0,4*6C,1594284092473
NMEA,$GNGSA,A,3,02,12,13,15,17,25,29,,,,,,1.0,0.7,0.7,1*3D,1594284092475
NMEA,$GNGSA,A,3,65,72,85,87,,,,,,,,,1.0,0.7,0.7,2*37,1594284092475
NMEA,$GNGSA,A,2,01,04,11,,,,,,,,,,1.0,0.7,0.7,3*36,1594284092476
NMEA,$PQGSA,A,3,07,09,10,16,,,,,,,,,1.0,0.7,0.7,4*35,1594284092477
NMEA,$GNVTG,,T,,M,0.0,N,0.0,K,A*3D,1594284092478
NMEA,$GNRMC,084133.00,A,2255.518552,N,12017.678165,E,0.0,,090720,2.8,W,A*1C,1594284092478
NMEA,$GNGGA,084133.00,2255.518552,N,12017.678165,E,1,12,0.7,19.9,M,17.5,M,,*49,1594284092479
Raw,5713062,5733015000000,,,-1278313578426104832,0.0,102.9114646371454,11.172390382674322,18.38118928226525,14,1,0.0,207,42093364351060,27,24.7,-591.321044921875,0.8224999904632568,0,0.0,0.0,,,,,0,,3,,
Raw,5713063,5733015000000,,,-1278313578426104832,0.0,102.9114646371454,11.172390382674322,18.38118928226525,14,23,0.0,207,42093361591329,35,22.4,-740.2802124023438,0.9279999732971191,0,0.0,0.0,,,,,0,,3,,
Raw,5713063,5733015000000,,,-1278313578426104832,0.0,102.9114646371454,11.172390382674322,18.38118928226525,14,21,0.0,207,42093372455677,193,15.4,381.9796142578125,7.4745001792907715,0,0.0,0.0,,,,,0,,3,,
Raw,5713063,5733015000000,,,-1278313578426104832,0.0,102.9114646371454,11.172390382674322,18.38118928226525,14,7,0.0,207,42093374246149,603,18.2,429.64068603515625,16.217500686645508,0,0.0,0.0,,,,,0,,3,,
Raw,5713064,5733015000000,,,-1278313578426104832,0.0,102.9114646371454,11.172390382674322,18.38118928226525,14,8,0.0,207,42093374283827,126,14.2,-197.5460205078125,3.827500104904175,0,0.0,0.0,,,,,0,,3,,
Raw,5713064,5733015000000,,,-1278313578426104832,0.0,102.9114646371454,11.172390382674322,18.38118928226525,14,2,0.0,15,376911369811474,1366,14.4,-162.09214782714844,5.510000228881836,0,0.0,0.0,,,,,0,,1,,
Raw,5713064,5733015000000,,,-1278313578426104832,0.0,102.9114646371454,11.172390382674322,18.38118928226525,14,5,0.0,15,376911371271399,1342,16.1,77.877685546875,24.448001861572266,0,0.0,0.0,,,,,0,,1,,
Raw,5713065,5733015000000,,,-1278313578426104832,0.0,102.9114646371454,11.172390382674322,18.38118928226525,14,6,0.0,15,376911366703541,1190,15.1,216.896728515625,5.385500431060791,0,0.0,0.0,,,,,0,,1,,
Raw,5713065,5733015000000,,,-1278313578426104832,0.0,102.9114646371454,11.172390382674322,18.38118928226525,14,7,0.0,15,376911356457504,2764,12.3,-58.705596923828125,22.240501403808594,0,0.0,0.0,,,,,0,,1,,
Raw,5713065,5733015000000,,,-1278313578426104832,0.0,102.9114646371454,11.172390382674322,18.38118928226525,14,9,0.0,15,376911356503774,1190,14.7,654.2677001953125,5.400500297546387,0,0.0,0.0,,,,,0,,1,,
Raw,5713065,5733015000000,,,-1278313578426104832,0.0,102.9114646371454,11.172390382674322,18.38118928226525,14,12,0.0,15,376911360620767,27,24.5,372.91851806640625,0.6195000410079956,0,0.0,0.0,,,,,0,,1,,
Raw,5713066,5733015000000,,,-1278313578426104832,0.0,102.9114646371454,11.172390382674322,18.38118928226525,14,13,0.0,15,376911369936577,53,19.5,-507.8272399902344,0.9300000071525574,0,0.0,0.0,,,,,0,,1,,
Raw,5713066,5733015000000,,,-1278313578426104832,0.0,102.9114646371454,11.172390382674322,18.38118928226525,14,15,0.0,15,376911363178881,17,28.3,-680.9404296875,0.03779999911785126,0,0.0,0.0,,,,,0,,1,,
Raw,5713067,5733015000000,,,-1278313578426104832,0.0,102.9114646371454,11.172390382674322,18.38118928226525,14,17,0.0,15,376911358905436,105,19.5,698.4063110351562,5.338500022888184,0,0.0,0.0,,,,,0,,1,,
Raw,5713067,5733015000000,,,-1278313578426104832,0.0,102.9114646371454,11.172390382674322,18.38118928226525,14,25,0.0,15,376911357950407,16,29.2,216.6305694580078,0.025200001895427704,0,0.0,0.0,,,,,0,,1,,
Raw,5713067,5733015000000,,,-1278313578426104832,0.0,102.9114646371454,11.172390382674322,18.38118928226525,14,29,0.0,15,376911361835757,24,25.2,-600.2031860351562,0.3833000063896179,0,0.0,0.0,,,,,0,,1,,
Raw,5713068,5733015000000,,,-1278313578426104832,0.0,102.9114646371454,11.172390382674322,18.38118928226525,14,1,0.0,783,376897317405488,531,19.7,-2.131638526916504,4.894999980926514,0,0.0,0.0,,,,,0,,5,,
Raw,5713068,5733015000000,,,-1278313578426104832,0.0,102.9114646371454,11.172390382674322,18.38118928226525,14,4,0.0,783,376897314580681,143,17.8,5.309891700744629,6.19350004196167,0,0.0,0.0,,,,,0,,5,,
Raw,5713068,5733015000000,,,-1278313578426104832,0.0,102.9114646371454,11.172390382674322,18.38118928226525,14,5,0.0,783,376897307965243,690,19.1,-10.975057601928711,17.345001220703125,0,0.0,0.0,,,,,0,,5,,
Raw,5713069,5733015000000,,,-1278313578426104832,0.0,102.9114646371454,11.172390382674322,18.38118928226525,14,6,0.0,15,376897318896039,692,19.4,-177.54051208496094,17.37350082397461,0,0.0,0.0,,,,,0,,5,,
Raw,5713069,5733015000000,,,-1278313578426104832,0.0,102.9114646371454,11.172390382674322,18.38118928226525,14,7,0.0,15,376897308745215,16,29.1,248.78451538085938,0.038700003176927567,0,0.0,0.0,,,,,0,,5,,
Raw,5713069,5733015000000,,,-1278313578426104832,0.0,102.9114646371454,11.172390382674322,18.38118928226525,14,9,0.0,15,376897313472725,46,20.7,-234.11534118652344,0.8059999942779541,0,0.0,0.0,,,,,0,,5,,
Raw,5713069,5733015000000,,,-1278313578426104832,0.0,102.9114646371454,11.172390382674322,18.38118928226525,14,10,0.0,15,376897310123269,97,16.2,320.5907287597656,3.3445000648498535,0,0.0,0.0,,,,,0,,5,,
Raw,5713070,5733015000000,,,-1278313578426104832,0.0,102.9114646371454,11.172390382674322,18.38118928226525,14,16,0.0,15,376897317050245,40,21.5,-209.3902587890625,0.7519999742507935,0,0.0,0.0,,,,,0,,5,,
Raw,5713070,5733015000000,,,-1278313578426104832,0.0,102.9114646371454,11.172390382674322,18.38118928226525,14,19,0.0,15,376897356647725,27,24.0,-417.58026123046875,0.6004999876022339,0,0.0,0.0,,,,,0,,5,,
Raw,5713070,5733015000000,,,-1278313578426104832,0.0,102.9114646371454,11.172390382674322,18.38118928226525,14,20,0.0,15,376897366260186,605,17.5,-69.59510803222656,16.00550079345703,0,0.0,0.0,,,,,0,,5,,
Raw,5713070,5733015000000,,,-1278313578426104832,0.0,102.9114646371454,11.172390382674322,18.38118928226525,14,27,0.0,15,376897362308658,64,18.7,462.9208068847656,1.6725000143051147,0,0.0,0.0,,,,,0,,5,,
Raw,5713071,5733015000000,,,-1278313578426104832,0.0,102.9114646371454,11.172390382674322,18.38118928226525,14,29,0.0,15,376897361124017,61,18.1,-507.64678955078125,0.9179999828338623,0,0.0,0.0,,,,,0,,5,,
Raw,5713071,5733015000000,,,-1278313578426104832,0.0,102.9114646371454,11.172390382674322,18.38118928226525,14,30,0.0,15,376897369598275,151,13.2,-11.944856643676758,4.37000036239624,0,0.0,0.0,,,,,0,,5,,
Raw,5713071,5733015000000,,,-1278313578426104832,0.0,102.9114646371454,11.172390382674322,18.38118928226525,14,4,0.0,7183,376911359566040,792,15.6,-313.5849304199219,5.11899995803833,0,0.0,0.0,,,,,0,,6,,
Raw,5713071,5733015000000,,,-1278313578426104832,0.0,102.9114646371454,11.172390382674322,18.38118928226525,14,11,0.0,7183,376911353825855,84,16.7,-446.781005859375,1.7720000743865967,0,0.0,0.0,,,,,0,,6,,
Raw,5713072,5733015000000,,,-1278313578426104832,0.0,102.9114646371454,11.172390382674322,18.38118928226525,14,24,0.0,7183,376911350646806,906,14.6,308.3804016113281,5.213500022888184,0,0.0,0.0,,,,,0,,6,,
Raw,5713072,5733015000000,,,-1278313578426104832,0.0,102.9114646371454,11.172390382674322,18.38118928226525,14,31,0.0,7183,376911345192085,53,19.0,250.76901245117188,0.8119999766349792,0,0.0,0.0,,,,,0,,6,,
Raw,5713072,5733015000000,,,-1278313578426104832,0.0,102.9114646371454,11.172390382674322,18.38118928226525,14,33,0.0,7183,376911358916205,136,16.2,155.1749725341797,5.523500442504883,0,0.0,0.0,,,,,0,,6,,
Fix,gps,22.925309,120.294634,37.052307,0.690000,12.864000,1594284094000
NMEA,$GPGSV,4,1,13,02,59,026,14,05,54,327,16,06,37,084,15,07,07,074,12*7E,1594284093450
NMEA,$GPGSV,4,2,13,09,04,036,15,12,16,244,25,13,47,181,20,15,22,210,28*76,1594284093450
NMEA,$GPGSV,4,3,13,17,07,151,20,25,08,272,29,29,18,320,25,19,26,154,*71,1594284093450
NMEA,$GPGSV,4,4,13,30,14,104,*48,1594284093450
NMEA,$GLGSV,2,1,06,65,14,226,25,87,06,330,22,85,45,122,15,71,56,001,18*6A,1594284093451
NMEA,$GLGSV,2,2,06,72,54,250,14,70,10,029,*68,1594284093451
NMEA,$GAGSV,2,1,06,04,52,217,16,11,14,319,17,24,01,250,15,31,02,205,19*6E,1594284093451
NMEA,$GAGSV,2,2,06,33,48,099,16,19,65,037,*6A,1594284093451
NMEA,$PQGSV,1,1,0,*73,1594284093451
NMEA,$PQGSV,4,1,16,01,50,130,20,04,37,113,18,05,17,258,19,06,56,178,19,0,4*60,1594284093451
NMEA,$PQGSV,4,2,16,07,15,192,29,09,31,195,21,10,20,217,16,16,52,184,22,0,4*60,1594284093452
NMEA,$PQGSV,4,3,16,19,14,239,24,20,59,274,18,27,35,139,19,29,30,320,18,0,4*6E,1594284093452
Raw,5714093,5734015000000,,,-1278313578426104832,0.0,102.82856965204701,9.567313425729052,14.953521851421089,14,1,0.0,207,42094364353040,19,27.1,-592.4093017578125,0.24730001389980316,0,0.0,0.0,,,,,0,,3,,
Raw,5714094,5734015000000,,,-1278313578426104832,0.0,102.82856965204701,9.567313425729052,14.953521851421089,14,23,0.0,207,42094361593770,35,22.5,-743.1217041015625,0.9279999732971191,0,0.0,0.0,,,,,0,,3,,
Raw,5714094,5734015000000,,,-1278313578426104832,0.0,102.82856965204701,9.567313425729052,14.953521851421089,14,21,0.0,207,42094372454690,126,14.4,380.69952392578125,3.82450008392334,0,0.0,0.0,,,,,0,,3,,
Raw,5714095,5734015000000,,,-1278313578426104832,0.0,102.82856965204701,9.567313425729052,14.953521851421089,14,7,0.0,207,42094374244716,712,18.2,429.64068603515625,17.717500686645508,0,0.0,0.0,,,,,0,,3,,
Raw,5714096,5734015000000,,,-1278313578426104832,0.0,102.82856965204701,9.567313425729052,14.953521851421089,14,8,0.0,207,42094374284486,151,14.2,-197.5460205078125,5.327500343322754,0,0.0,0.0,,,,,0,,3,,
Raw,5714096,5734015000000,,,-1278313578426104832,0.0,102.82856965204701,9.567313425729052,14.953521851421089,14,2,0.0,15,376912369812010,1383,13.9,-162.50128173828125,6.260000228881836,0,0.0,0.0,,,,,0,,1,,
Raw,5714097,5734015000000,,,-1278313578426104832,0.0,102.82856965204701,9.567313425729052,14.953521851421089,14,5,0.0,15,376912371271139,1506,16.1,77.877685546875,25.948001861572266,0,0.0,0.0,,,,,0,,1,,
Raw,5714098,5734015000000,,,-1278313578426104832,0.0,102.82856965204701,9.567313425729052,14.953521851421089,14,6,0.0,15,376912366702885,1055,15.7,216.22117614746094,6.0355000495910645,0,0.0,0.0,,,,,0,,1,,
Raw,5714098,5734015000000,,,-1278313578426104832,0.0,102.82856965204701,9.567313425729052,14.953521851421089,14,7,0.0,15,376912356457700,2912,12.3,-58.705596923828125,23.740501403808594,0,0.0,0.0,,,,,0,,1,,
Raw,5714099,5734015000000,,,-1278313578426104832,0.0,102.82856965204701,9.567313425729052,14.953521851421089,14,9,0.0,15,376912356501581,1208,14.6,653.9156494140625,6.150500297546387,0,0.0,0.0,,,,,0,,1,,
Raw,5714099,5734015000000,,,-1278313578426104832,0.0,102.82856965204701,9.567313425729052,14.953521851421089,14,12,0.0,15,376912360619500,24,25.2,370.14019775390625,0.6195000410079956,0,0.0,0.0,,,,,0,,1,,
Raw,5714100,5734015000000,,,-1278313578426104832,0.0,102.82856965204701,9.567313425729052,14.953521851421089,14,13,0.0,15,376912369938395,53,19.5,-510.1012268066406,0.9300000071525574,0,0.0,0.0,,,,,0,,1,,
Raw,5714101,5734015000000,,,-1278313578426104832,0.0,102.82856965204701,9.567313425729052,14.953521851421089,14,15,0.0,15,376912363181163,17,28.4,-683.2494506835938,0.5009999871253967,0,0.0,0.0,,,,,0,,1,,
Raw,5714101,5734015000000,,,-1278313578426104832,0.0,102.82856965204701,9.567313425729052,14.953521851421089,14,17,0.0,15,376912358903106,143,19.5,698.4063110351562,6.838500022888184,0,0.0,0.0,,,,,0,,1,,
Raw,5714102,5734015000000,,,-1278313578426104832,0.0,102.82856965204701,9.567313425729052,14.953521851421089,14,25,0.0,15,376912357949666,17,28.8,214.86827087402344,0.03180000185966492,0,0.0,0.0,,,,,0,,1,,
Raw,5714103,5734015000000,,,-1278313578426104832,0.0,102.82856965204701,9.567313425729052,14.953521851421089,14,29,0.0,15,376912361837780,27,24.8,-602.4793090820312,0.6180000305175781,0,0.0,0.0,,,,,0,,1,,
Raw,5714103,5734015000000,,,-1278313578426104832,0.0,102.82856965204701,9.567313425729052,14.953521851421089,14,1,0.0,783,376898317405467,482,20.0,-2.074026584625244,5.585000038146973,0,0.0,0.0,,,,,0,,5,,
Raw,5714104,5734015000000,,,-1278313578426104832,0.0,102.82856965204701,9.567313425729052,14.953521851421089,14,4,0.0,783,376898314580672,69,18.4,11.138290405273438,2.44350004196167,0,0.0,0.0,,,,,0,,5,,
Raw,5714105,5734015000000,,,-1278313578426104832,0.0,102.82856965204701,9.567313425729052,14.953521851421089,14,5,0.0,783,376898307965280,808,19.1,-10.975057601928711,18.845001220703125,0,0.0,0.0,,,,,0,,5,,
Raw,5714106,5734015000000,,,-1278313578426104832,0.0,102.82856965204701,9.567313425729052,14.953521851421089,14,6,0.0,15,376898318896631,810,19.4,-177.54051208496094,18.87350082397461,0,0.0,0.0,,,,,0,,5,,
Raw,5714106,5734015000000,,,-1278313578426104832,0.0,102.82856965204701,9.567313425729052,14.953521851421089,14,7,0.0,15,376898308744404,16,29.5,246.07940673828125,0.398499995470047,0,0.0,0.0,,,,,0,,5,,
Raw,5714107,5734015000000,,,-1278313578426104832,0.0,102.82856965204701,9.567313425729052,14.953521851421089,14,9,0.0,15,376898313473537,31,23.2,-235.85330200195312,0.6360000371932983,0,0.0,0.0,,,,,0,,5,,
Raw,5714107,5734015000000,,,-1278313578426104832,0.0,102.82856965204701,9.567313425729052,14.953521851421089,14,10,0.0,15,376898310122377,96,15.5,321.3876953125,1.934499979019165,0,0.0,0.0,,,,,0,,5,,
Raw,5714108,5734015000000,,,-1278313578426104832,0.0,102.82856965204701,9.567313425729052,14.953521851421089,14,16,0.0,15,376898317050931,31,23.6,-211.2530517578125,0.6420000195503235,0,0.0,0.0,,,,,0,,5,,
Raw,5714109,5734015000000,,,-1278313578426104832,0.0,102.82856965204701,9.567313425729052,14.953521851421089,14,19,0.0,15,376898356649176,31,23.6,-420.1152038574219,0.640500009059906,0,0.0,0.0,,,,,0,,5,,
Raw,5714109,5734015000000,,,-1278313578426104832,0.0,102.82856965204701,9.567313425729052,14.953521851421089,14,20,0.0,15,376898366260494,309,11.9,-70.29605865478516,8.98550033569336,0,0.0,0.0,,,,,0,,5,,
Raw,5714110,5734015000000,,,-1278313578426104832,0.0,102.82856965204701,9.567313425729052,14.953521851421089,14,27,0.0,15,376898362307000,53,19.5,458.5231018066406,0.8524999618530273,0,0.0,0.0,,,,,0,,5,,
Raw,5714111,5734015000000,,,-1278313578426104832,0.0,102.82856965204701,9.567313425729052,14.953521851421089,14,29,0.0,15,376898361125720,53,19.5,-510.4217834472656,0.8479999899864197,0,0.0,0.0,,,,,0,,5,,
Raw,5714111,5734015000000,,,-1278313578426104832,0.0,102.82856965204701,9.567313425729052,14.953521851421089,14,30,0.0,15,376898369598315,181,13.2,-11.944856643676758,5.87000036239624,0,0.0,0.0,,,,,0,,5,,
Raw,5714112,5734015000000,,,-1278313578426104832,0.0,102.82856965204701,9.567313425729052,14.953521851421089,14,4,0.0,7183,376912359567087,808,15.6,-313.6896057128906,5.86899995803833,0,0.0,0.0,,,,,0,,6,,
Raw,5714112,5734015000000,,,-1278313578426104832,0.0,102.82856965204701,9.567313425729052,14.953521851421089,14,11,0.0,7183,376912353827345,97,16.7,-446.781005859375,3.2720000743865967,0,0.0,0.0,,,,,0,,6,,
Raw,5714113,5734015000000,,,-1278313578426104832,0.0,102.82856965204701,9.567313425729052,14.953521851421089,14,24,0.0,7183,376912350645785,932,14.4,308.19012451171875,6.338500022888184,0,0.0,0.0,,,,,0,,6,,
Raw,5714114,5734015000000,,,-1278313578426104832,0.0,102.82856965204701,9.567313425729052,14.953521851421089,14,31,0.0,7183,376912345191248,61,19.0,250.76901245117188,2.312000036239624,0,0.0,0.0,,,,,0,,6,,
Raw,5714114,5734015000000,,,-1278313578426104832,0.0,102.82856965204701,9.567313425729052,14.953521851421089,14,33,0.0,7183,376912358915687,175,16.2,155.1749725341797,7.023500442504883,0,0.0,0.0,,,,,0,,6,,
NMEA,$PQGSV,4,4,16,30,87,314,13,03,62,203,,08,53,014,,13,43,336,,0,4*6A,1594284093452
NMEA,$GNGSA,A,3,02,06,12,13,15,17,25,29,,,,,1.0,0.7,0.7,1*3B,1594284093453
NMEA,$GNGSA,A,3,65,72,85,87,,,,,,,,,1.0,0.7,0.7,2*37,1594284093453
NMEA,$GNGSA,A,2,01,04,11,,,,,,,,,,1.0,0.7,0.7,3*36,1594284093453
NMEA,$PQGSA,A,3,07,09,10,16,,,,,,,,,1.0,0.7,0.7,4*35,1594284093453
NMEA,$GNVTG,114.7,T,114.7,M,1.3,N,2.5,K,A*38,1594284093453
NMEA,$GNRMC,084134.00,A,2255.518558,N,12017.678033,E,1.3,114.7,090720,2.8,W,A*3C,1594284093454
NMEA,$GNGGA,084134.00,2255.518558,N,12017.678033,E,1,12,0.7,19.6,M,17.5,M,,*49,1594284093454
Fix,gps,22.925311,120.294629,36.707031,0.780000,12.864000,1594284095000
NMEA,$GPGSV,4,1,13,02,59,026,14,05,54,327,16,06,37,084,16,07,07,074,12*7D,1594284094449
NMEA,$GPGSV,4,2,13,09,04,036,15,12,16,244,25,13,47,181,20,15,22,210,28*76,1594284094450
NMEA,$GPGSV,4,3,13,17,07,151,20,25,08,272,29,29,18,320,25,19,26,154,*71,1594284094450
NMEA,$GPGSV,4,4,13,30,14,104,*48,1594284094450
NMEA,$GLGSV,2,1,06,65,14,226,27,87,06,330,23,85,45,122,14,71,56,001,18*68,1594284094451
NMEA,$GLGSV,2,2,06,72,54,250,14,70,10,029,*68,1594284094451
NMEA,$GAGSV,2,1,06,04,52,217,16,11,14,319,17,24,01,250,14,31,02,205,19*6F,1594284094451
NMEA,$GAGSV,2,2,06,33,48,099,16,19,65,037,*6A,1594284094451
NMEA,$PQGSV,1,1,0,*73,1594284094452
NMEA,$PQGSV,4,1,16,01,50,130,20,04,37,113,18,05,17,258,19,06,56,178,19,0,4*60,1594284094452
NMEA,$PQGSV,4,2,16,07,15,192,30,09,31,195,23,10,20,217,16,16,52,184,24,0,4*6C,1594284094452
NMEA,$PQGSV,4,3,16,19,14,239,24,20,59,274,12,27,35,139,20,29,30,320,20,0,4*65,1594284094452
NMEA,$PQGSV,4,4,16,30,87,314,13,03,62,203,,08,53,014,,13,43,336,,0,4*6A,1594284094452
NMEA,$GNGSA,A,3,02,06,12,13,15,17,25,29,,,,,1.0,0.7,0.7,1*3B,1594284094453
Raw,5715105,5735015000000,,,-1278313578426104832,0.0,106.79809201974422,3.876299696414646,16.398980791038724,14,1,0.0,207,42095364354969,16,29.0,-593.737060546875,0.23270000517368317,0,0.0,0.0,,,,,0,,3,,
Raw,5715105,5735015000000,,,-1278313578426104832,0.0,106.79809201974422,3.876299696414646,16.398980791038724,14,23,0.0,207,42095361596235,21,26.1,-744.0659790039062,0.3127000033855438,0,0.0,0.0,,,,,0,,3,,
Raw,5715106,5735015000000,,,-1278313578426104832,0.0,106.79809201974422,3.876299696414646,16.398980791038724,14,21,0.0,207,42095372453420,151,14.4,380.69952392578125,5.32450008392334,0,0.0,0.0,,,,,0,,3,,
Raw,5715106,5735015000000,,,-1278313578426104832,0.0,106.79809201974422,3.876299696414646,16.398980791038724,14,7,0.0,207,42095374243500,371,10.4,428.3703918457031,10.33750057220459,0,0.0,0.0,,,,,0,,3,,
Raw,5715107,5735015000000,,,-1278313578426104832,0.0,106.79809201974422,3.876299696414646,16.398980791038724,14,8,0.0,207,42095374285277,117,14.2,-197.69541931152344,3.077500104904175,0,0.0,0.0,,,,,0,,3,,
Raw,5715107,5735015000000,,,-1278313578426104832,0.0,106.79809201974422,3.876299696414646,16.398980791038724,14,2,0.0,15,376913369812552,1425,13.9,-162.50128173828125,7.760000228881836,0,0.0,0.0,,,,,0,,1,,
Raw,5715108,5735015000000,,,-1278313578426104832,0.0,106.79809201974422,3.876299696414646,16.398980791038724,14,5,0.0,15,376913371270879,1680,16.1,77.877685546875,27.448001861572266,0,0.0,0.0,,,,,0,,1,,
Raw,5715108,5735015000000,,,-1278313578426104832,0.0,106.79809201974422,3.876299696414646,16.398980791038724,14,6,0.0,15,376913366702147,1074,15.6,215.96429443359375,6.7855000495910645,0,0.0,0.0,,,,,0,,1,,
Raw,5715109,5735015000000,,,-1278313578426104832,0.0,106.79809201974422,3.876299696414646,16.398980791038724,14,7,0.0,15,376913356457896,3069,12.3,-58.705596923828125,25.240501403808594,0,0.0,0.0,,,,,0,,1,,
Raw,5715109,5735015000000,,,-1278313578426104832,0.0,106.79809201974422,3.876299696414646,16.398980791038724,14,9,0.0,15,376913356499394,1403,14.4,653.8300170898438,7.020500183105469,0,0.0,0.0,,,,,0,,1,,
Raw,5715110,5735015000000,,,-1278313578426104832,0.0,106.79809201974422,3.876299696414646,16.398980791038724,14,12,0.0,15,376913360618237,24,25.0,369.3482666015625,0.384799987077713,0,0.0,0.0,,,,,0,,1,,
