# 
# Header Description:
# 
# Version: v2.0.0.1 Platform: 8.0.0 Manufacturer: Sony Model: G8142
# 
# Raw,ElapsedRealtimeMillis,TimeNanos,LeapSecond,TimeUncertaintyNanos,FullBiasNanos,BiasNanos,BiasUncertaintyNanos,DriftNanosPerSecond,DriftUncertaintyNanosPerSecond,HardwareClockDiscontinuityCount,Svid,TimeOffsetNanos,State,ReceivedSvTimeNanos,ReceivedSvTimeUncertaintyNanos,Cn0DbHz,PseudorangeRateMetersPerSecond,PseudorangeRateUncertaintyMetersPerSecond,AccumulatedDeltaRangeState,AccumulatedDeltaRangeMeters,AccumulatedDeltaRangeUncertaintyMeters,CarrierFrequencyHz,CarrierCycles,CarrierPhase,CarrierPhaseUncertainty,MultipathIndicator,SnrInDb,ConstellationType,AgcDb,CarrierFrequencyHz
# 
# Fix,Provider,Latitude,Longitude,Altitude,Speed,Accuracy,(UTC)TimeInMs
# 
# Nav,Svid,Type,Status,MessageId,Sub-messageId,Data(Bytes)
# 
Fix,gps,22.925187,120.294426,66.500427,1.010000,6.432000,1594281829000
NMEA,$GPGSV,4,1,13,02,52,001,13,05,55,296,19,06,42,063,19,12,23,260,32*72,1594281828459
NMEA,$GPGSV,4,2,13,13,30,184,24,15,07,208,32,17,22,147,15,19,42,146,24*74,1594281828459
NMEA,$GPGSV,4,3,13,25,10,289,27,29,04,323,26,07,04,090,,09,17,042,*76,1594281828460
NMEA,$GPGSV,4,4,13,30,07,119,*46,1594281828465
NMEA,$GLGSV,2,1,06,70,27,023,20,65,00,000,10,85,54,090,15,71,75,336,16*67,1594281828466
NMEA,$GLGSV,2,2,06,72,41,223,17,84,07,129,*67,1594281828466
NMEA,$GAGSV,1,1,04,04,38,206,24,11,04,310,18,24,07,262,32,31,08,216,25*60,1594281828467
NMEA,$PQGSV,1,1,01,195,71,139,15,0,5*6F,1594281828467
NMEA,$PQGSV,4,1,16,04,37,113,20,05,17,258,27,06,47,172,11,07,21,195,22,0,4*69,1594281828467
NMEA,$PQGSV,4,2,16,09,25,191,13,10,27,220,16,13,40,330,15,16,43,178,13,0,4*62,1594281828467
NMEA,$PQGSV,4,3,16,19,04,229,30,20,52,246,19,27,48,123,19,29,17,320,20,0,4*6F,1594281828468
NMEA,$PQGSV,4,4,16,30,70,341,18,01,50,130,,03,62,203,,08,49,007,,0,4*65,1594281828468
NMEA,$GNGSA,A,3,02,05,06,12,13,15,19,25,,,,,1.0,0.7,0.8,1*34,1594281828469
NMEA,$GNGSA,A,2,70,72,,,,,,,,,,,1.0,0.7,0.8,2*3F,1594281828470
NMEA,$GNGSA,A,3,04,11,24,31,,,,,,,,,1.0,0.7,0.8,3*3D,1594281828470
NMEA,$PQGSA,A,3,05,07,09,13,16,,,,,,,,1.0,0.7,0.8,4*3C,1594281828470
NMEA,$GNVTG,104.1,T,104.1,M,2.0,N,3.6,K,A*3A,1594281828470
Raw,3448101,3468015000000,,,-1278313578426120704,0.0,78.42196646379307,-6.036930571631211,21.366987100612043,13,6,0.0,207,39828368112314,46,20.0,691.2139282226562,1.0584999322891235,0,0.0,0.0,,,,,0,,3,,
Raw,3448103,3468015000000,,,-1278313578426120704,0.0,78.42196646379307,-6.036930571631211,21.366987100612043,13,1,0.0,207,39828359342914,1649,10.1,-722.2518920898438,26.740001678466797,0,0.0,0.0,,,,,0,,3,,
Raw,3448104,3468015000000,,,-1278313578426120704,0.0,78.42196646379307,-6.036930571631211,21.366987100612043,13,21,0.0,207,39828374270695,453,15.3,99.80935668945312,13.477500915527344,0,0.0,0.0,,,,,0,,3,,
Raw,3448105,3468015000000,,,-1278313578426120704,0.0,78.42196646379307,-6.036930571631211,21.366987100612043,13,7,0.0,207,39828376637430,1218,15.8,179.9058380126953,23.230501174926758,0,0.0,0.0,,,,,0,,3,,
Raw,3448105,3468015000000,,,-1278313578426120704,0.0,78.42196646379307,-6.036930571631211,21.366987100612043,13,8,0.0,207,39828371718827,70,17.4,-481.5820617675781,1.2929999828338623,0,0.0,0.0,,,,,0,,3,,
Raw,3448105,3468015000000,,,-1278313578426120704,0.0,78.42196646379307,-6.036930571631211,21.366987100612043,13,2,0.0,15,374646368335576,141,13.4,-219.77015686035156,3.8585002422332764,0,0.0,0.0,,,,,0,,1,,
Raw,3448106,3468015000000,,,-1278313578426120704,0.0,78.42196646379307,-6.036930571631211,21.366987100612043,13,5,0.0,15,374646371452030,61,18.8,-43.92929458618164,1.0130000114440918,0,0.0,0.0,,,,,0,,1,,
Raw,3448106,3468015000000,,,-1278313578426120704,0.0,78.42196646379307,-6.036930571631211,21.366987100612043,13,6,0.0,15,374646367924716,53,19.2,109.83750915527344,1.0069999694824219,0,0.0,0.0,,,,,0,,1,,
Raw,3448106,3468015000000,,,-1278313578426120704,0.0,78.42196646379307,-6.036930571631211,21.366987100612043,13,12,0.0,15,374646363076226,13,31.9,256.5179443359375,0.02970000170171261,0,0.0,0.0,,,,,0,,1,,
Raw,3448107,3468015000000,,,-1278313578426120704,0.0,78.42196646379307,-6.036930571631211,21.366987100612043,13,13,0.0,15,374646365513266,27,24.3,-648.5018310546875,0.6739999651908875,0,0.0,0.0,,,,,0,,1,,
Raw,3448107,3468015000000,,,-1278313578426120704,0.0,78.42196646379307,-6.036930571631211,21.366987100612043,13,15,0.0,15,374646357807050,13,31.6,-729.4507446289062,0.050700001418590546,0,0.0,0.0,,,,,0,,1,,
Raw,3448107,3468015000000,,,-1278313578426120704,0.0,78.42196646379307,-6.036930571631211,21.366987100612043,13,17,0.0,15,374646363937725,2558,15.3,617.7408447265625,33.97100067138672,0,0.0,0.0,,,,,0,,1,,
Raw,3448108,3468015000000,,,-1278313578426120704,0.0,78.42196646379307,-6.036930571631211,21.366987100612043,13,19,0.0,15,374646367974846,31,23.9,549.24462890625,0.6769999861717224,0,0.0,0.0,,,,,0,,1,,
Raw,3448108,3468015000000,,,-1278313578426120704,0.0,78.42196646379307,-6.036930571631211,21.366987100612043,13,25,0.0,15,374646358997474,19,27.4,45.33201217651367,0.06830000132322311,0,0.0,0.0,,,,,0,,1,,
Raw,3448108,3468015000000,,,-1278313578426120704,0.0,78.42196646379307,-6.036930571631211,21.366987100612043,13,29,0.0,15,374646356952620,24,25.7,-679.4089965820312,0.4058000147342682,0,0.0,0.0,,,,,0,,1,,
Raw,3448109,3468015000000,,,-1278313578426120704,0.0,78.42196646379307,-6.036930571631211,21.366987100612043,13,4,0.0,783,374632314629403,100,20.3,5.213871955871582,5.31350040435791,0,0.0,0.0,,,,,0,,5,,
Raw,3448109,3468015000000,,,-1278313578426120704,0.0,78.42196646379307,-6.036930571631211,21.366987100612043,13,5,0.0,783,374632307961462,35,26.8,-3.30307936668396,2.705000162124634,0,0.0,0.0,,,,,0,,5,,
Raw,3448109,3468015000000,,,-1278313578426120704,0.0,78.42196646379307,-6.036930571631211,21.366987100612043,13,6,0.0,15,374632317364024,1558,10.6,-230.1017303466797,25.75200080871582,0,0.0,0.0,,,,,0,,5,,
Raw,3448110,3468015000000,,,-1278313578426120704,0.0,78.42196646379307,-6.036930571631211,21.366987100612043,13,7,0.0,15,374632310771759,35,22.3,281.0978088378906,0.6814999580383301,0,0.0,0.0,,,,,0,,5,,
Raw,3448110,3468015000000,,,-1278313578426120704,0.0,78.42196646379307,-6.036930571631211,21.366987100612043,13,9,0.0,15,374632311600023,131,13.2,-262.2683410644531,2.873000144958496,0,0.0,0.0,,,,,0,,5,,
Raw,3448110,3468015000000,,,-1278313578426120704,0.0,78.42196646379307,-6.036930571631211,21.366987100612043,13,10,0.0,15,374632312444934,618,16.0,306.62945556640625,16.094501495361328,0,0.0,0.0,,,,,0,,5,,
Raw,3448110,3468015000000,,,-1278313578426120704,0.0,78.42196646379307,-6.036930571631211,21.366987100612043,13,13,0.0,15,374632315635717,238,15.4,-68.65411376953125,8.689000129699707,0,0.0,0.0,,,,,0,,5,,
Raw,3448111,3468015000000,,,-1278313578426120704,0.0,78.42196646379307,-6.036930571631211,21.366987100612043,13,16,0.0,15,374632315270328,199,12.8,-260.9432678222656,5.879000186920166,0,0.0,0.0,,,,,0,,5,,
Raw,3448111,3468015000000,,,-1278313578426120704,0.0,78.42196646379307,-6.036930571631211,21.366987100612043,13,19,0.0,15,374632353111592,14,30.0,-517.2584228515625,0.04530000314116478,0,0.0,0.0,,,,,0,,5,,
Raw,3448111,3468015000000,,,-1278313578426120704,0.0,78.42196646379307,-6.036930571631211,21.366987100612043,13,20,0.0,15,374632365132108,115,18.8,-234.57623291015625,5.354000091552734,0,0.0,0.0,,,,,0,,5,,
Raw,3448112,3468015000000,,,-1278313578426120704,0.0,78.42196646379307,-6.036930571631211,21.366987100612043,13,27,0.0,15,374632365381000,61,18.9,320.3122863769531,0.8539999723434448,0,0.0,0.0,,,,,0,,5,,
Raw,3448112,3468015000000,,,-1278313578426120704,0.0,78.42196646379307,-6.036930571631211,21.366987100612043,13,29,0.0,15,374632357031522,53,19.6,-565.5275268554688,0.871999979019165,0,0.0,0.0,,,,,0,,5,,
Raw,3448112,3468015000000,,,-1278313578426120704,0.0,78.42196646379307,-6.036930571631211,21.366987100612043,13,30,0.0,15,374632368718377,61,18.4,-216.2268829345703,0.9284999966621399,0,0.0,0.0,,,,,0,,5,,
Raw,3448113,3468015000000,,,-1278313578426120704,0.0,78.42196646379307,-6.036930571631211,21.366987100612043,13,4,0.0,7183,374646356672370,31,23.7,-450.61541748046875,0.6004999876022339,0,0.0,0.0,,,,,0,,6,,
Raw,3448113,3468015000000,,,-1278313578426120704,0.0,78.42196646379307,-6.036930571631211,21.366987100612043,13,11,0.0,7183,374646350608875,566,18.0,-401.0629577636719,6.393500328063965,0,0.0,0.0,,,,,0,,6,,
Raw,3448113,3468015000000,,,-1278313578426120704,0.0,78.42196646379307,-6.036930571631211,21.366987100612043,13,24,0.0,7183,374646352921673,12,32.0,281.0138854980469,0.0479000024497509,0,0.0,0.0,,,,,0,,6,,
Raw,3448114,3468015000000,,,-1278313578426120704,0.0,78.42196646379307,-6.036930571631211,21.366987100612043,13,31,0.0,7183,374646347498979,27,24.6,347.714111328125,0.5489999651908875,0,0.0,0.0,,,,,0,,6,,
NMEA,$GNRMC,080349.00,A,2255.511200,N,12017.665552,E,2.0,104.1,090720,2.8,W,A*3A,1594281828470
NMEA,$GNGGA,080349.00,2255.511200,N,12017.665552,E,1,12,0.7,49.0,M,17.5,M,,*4B,1594281828474
Fix,gps,22.925185,120.294427,67.609070,0.230000,6.432000,1594281830000
Raw,3449058,3469015000000,,,-1278313578426120704,0.0,77.88521907059476,-5.730458761333386,19.517693551245877,13,6,0.0,207,39829368110008,55,20.0,691.2139282226562,2.558500051498413,0,0.0,0.0,,,,,0,,3,,
Raw,3449058,3469015000000,,,-1278313578426120704,0.0,77.88521907059476,-5.730458761333386,19.517693551245877,13,1,0.0,207,39829359345324,1826,10.1,-722.2518920898438,28.240001678466797,0,0.0,0.0,,,,,0,,3,,
Raw,3449058,3469015000000,,,-1278313578426120704,0.0,77.88521907059476,-5.730458761333386,19.517693551245877,13,21,0.0,207,39829374270362,543,15.3,99.80935668945312,14.977500915527344,0,0.0,0.0,,,,,0,,3,,
Raw,3449058,3469015000000,,,-1278313578426120704,0.0,77.88521907059476,-5.730458761333386,19.517693551245877,13,7,0.0,207,39829376636795,103,15.7,179.6723175048828,2.9805002212524414,0,0.0,0.0,,,,,0,,3,,
Raw,3449059,3469015000000,,,-1278313578426120704,0.0,77.88521907059476,-5.730458761333386,19.517693551245877,13,8,0.0,207,39829371720367,53,19.5,-479.4531555175781,1.1330000162124634,0,0.0,0.0,,,,,0,,3,,
Raw,3449059,3469015000000,,,-1278313578426120704,0.0,77.88521907059476,-5.730458761333386,19.517693551245877,13,2,0.0,15,374647368336309,167,13.4,-219.77015686035156,5.358500003814697,0,0.0,0.0,,,,,0,,1,,
Raw,3449059,3469015000000,,,-1278313578426120704,0.0,77.88521907059476,-5.730458761333386,19.517693551245877,13,5,0.0,15,374647371452172,70,17.7,-41.74091720581055,1.0929999351501465,0,0.0,0.0,,,,,0,,1,,
Raw,3449060,3469015000000,,,-1278313578426120704,0.0,77.88521907059476,-5.730458761333386,19.517693551245877,13,6,0.0,15,374647367924408,61,18.7,111.25519561767578,1.0069999694824219,0,0.0,0.0,,,,,0,,1,,
Raw,3449060,3469015000000,,,-1278313578426120704,0.0,77.88521907059476,-5.730458761333386,19.517693551245877,13,12,0.0,15,374647363075383,12,32.9,258.1287841796875,0.0284000001847744,0,0.0,0.0,,,,,0,,1,,
Raw,3449060,3469015000000,,,-1278313578426120704,0.0,77.88521907059476,-5.730458761333386,19.517693551245877,13,13,0.0,15,374647365515432,31,23.7,-646.7225341796875,0.6739999651908875,0,0.0,0.0,,,,,0,,1,,
Raw,3449060,3469015000000,,,-1278313578426120704,0.0,77.88521907059476,-5.730458761333386,19.517693551245877,13,15,0.0,15,374647357809448,13,31.4,-727.9456787109375,0.050700001418590546,0,0.0,0.0,,,,,0,,1,,
Raw,3449061,3469015000000,,,-1278313578426120704,0.0,77.88521907059476,-5.730458761333386,19.517693551245877,13,17,0.0,15,374647363935664,2785,15.3,617.7408447265625,35.47100067138672,0,0.0,0.0,,,,,0,,1,,
Raw,3449061,3469015000000,,,-1278313578426120704,0.0,77.88521907059476,-5.730458761333386,19.517693551245877,13,19,0.0,15,374647367972940,31,23.7,551.1951293945312,0.6769999861717224,0,0.0,0.0,,,,,0,,1,,
Raw,3449061,3469015000000,,,-1278313578426120704,0.0,77.88521907059476,-5.730458761333386,19.517693551245877,13,25,0.0,15,374647358997328,17,28.1,45.743988037109375,0.06030000001192093,0,0.0,0.0,,,,,0,,1,,
Raw,3449061,3469015000000,,,-1278313578426120704,0.0,77.88521907059476,-5.730458761333386,19.517693551245877,13,29,0.0,15,374647356954911,27,24.5,-677.4169311523438,0.640500009059906,0,0.0,0.0,,,,,0,,1,,
Raw,3449062,3469015000000,,,-1278313578426120704,0.0,77.88521907059476,-5.730458761333386,19.517693551245877,13,4,0.0,783,374633314629447,69,18.6,8.132872581481934,2.44350004196167,0,0.0,0.0,,,,,0,,5,,
Raw,3449062,3469015000000,,,-1278313578426120704,0.0,77.88521907059476,-5.730458761333386,19.517693551245877,13,5,0.0,783,374633307961497,21,27.1,-4.897006988525391,1.2050000429153442,0,0.0,0.0,,,,,0,,5,,
Raw,3449062,3469015000000,,,-1278313578426120704,0.0,77.88521907059476,-5.730458761333386,19.517693551245877,13,6,0.0,15,374633317364791,1729,10.6,-230.1017303466797,27.25200080871582,0,0.0,0.0,,,,,0,,5,,
Raw,3449062,3469015000000,,,-1278313578426120704,0.0,77.88521907059476,-5.730458761333386,19.517693551245877,13,7,0.0,15,374633310770810,35,22.9,282.89337158203125,0.6315000057220459,0,0.0,0.0,,,,,0,,5,,
Raw,3449063,3469015000000,,,-1278313578426120704,0.0,77.88521907059476,-5.730458761333386,19.517693551245877,13,9,0.0,15,374633311600883,80,16.2,-260.93365478515625,1.0929999351501465,0,0.0,0.0,,,,,0,,5,,
Raw,3449063,3469015000000,,,-1278313578426120704,0.0,77.88521907059476,-5.730458761333386,19.517693551245877,13,10,0.0,15,374633312443911,727,16.0,306.62945556640625,17.594501495361328,0,0.0,0.0,,,,,0,,5,,
Raw,3449063,3469015000000,,,-1278313578426120704,0.0,77.88521907059476,-5.730458761333386,19.517693551245877,13,13,0.0,15,374633315635985,135,14.4,-71.44829559326172,4.279000282287598,0,0.0,0.0,,,,,0,,5,,
Raw,3449064,3469015000000,,,-1278313578426120704,0.0,77.88521907059476,-5.730458761333386,19.517693551245877,13,16,0.0,15,374633315271198,238,12.8,-260.9432678222656,7.379000186920166,0,0.0,0.0,,,,,0,,5,,
Raw,3449064,3469015000000,,,-1278313578426120704,0.0,77.88521907059476,-5.730458761333386,19.517693551245877,13,19,0.0,15,374633353113311,13,31.4,-515.6881713867188,0.04470000043511391,0,0.0,0.0,,,,,0,,5,,
Raw,3449064,3469015000000,,,-1278313578426120704,0.0,77.88521907059476,-5.730458761333386,19.517693551245877,13,20,0.0,15,374633365132891,152,18.8,-234.57623291015625,6.854000091552734,0,0.0,0.0,,,,,0,,5,,
Raw,3449064,3469015000000,,,-1278313578426120704,0.0,77.88521907059476,-5.730458761333386,19.517693551245877,13,27,0.0,15,374633365379932,69,18.9,320.3122863769531,2.3540000915527344,0,0.0,0.0,,,,,0,,5,,
Raw,3449065,3469015000000,,,-1278313578426120704,0.0,77.88521907059476,-5.730458761333386,19.517693551245877,13,29,0.0,15,374633357033464,53,19.0,-564.317626953125,0.871999979019165,0,0.0,0.0,,,,,0,,5,,
Raw,3449065,3469015000000,,,-1278313578426120704,0.0,77.88521907059476,-5.730458761333386,19.517693551245877,13,30,0.0,15,374633368719098,69,18.4,-216.2268829345703,2.428499937057495,0,0.0,0.0,,,,,0,,5,,
Raw,3449065,3469015000000,,,-1278313578426120704,0.0,77.88521907059476,-5.730458761333386,19.517693551245877,13,4,0.0,7183,374647356673878,27,24.9,-448.4365539550781,0.5504999756813049,0,0.0,0.0,,,,,0,,6,,
Raw,3449065,3469015000000,,,-1278313578426120704,0.0,77.88521907059476,-5.730458761333386,19.517693551245877,13,11,0.0,7183,374647350610223,662,17.9,-401.2056884765625,7.213500499725342,0,0.0,0.0,,,,,0,,6,,
Raw,3449066,3469015000000,,,-1278313578426120704,0.0,77.88521907059476,-5.730458761333386,19.517693551245877,13,24,0.0,7183,374647352920749,11,33.3,281.3016052246094,0.2905000150203705,0,0.0,0.0,,,,,0,,6,,
Raw,3449066,3469015000000,,,-1278313578426120704,0.0,77.88521907059476,-5.730458761333386,19.517693551245877,13,31,0.0,7183,374647347497788,27,24.0,348.4277038574219,0.5489999651908875,0,0.0,0.0,,,,,0,,6,,
NMEA,$GPGSV,4,1,13,02,52,001,13,05,55,296,18,06,42,063,19,12,23,260,33*72,1594281829459
NMEA,$GPGSV,4,2,13,13,30,184,24,15,07,208,31,17,22,147,15,19,42,146,24*77,1594281829459
NMEA,$GPGSV,4,3,13,25,10,289,28,29,04,323,25,07,04,090,,09,17,042,*7A,1594281829459
NMEA,$GPGSV,4,4,13,30,07,119,*46,1594281829460
NMEA,$GLGSV,2,1,06,70,27,023,20,65,00,000,10,85,54,090,15,71,75,336,16*67,1594281829463
NMEA,$GLGSV,2,2,06,72,41,223,20,84,07,129,*63,1594281829463
NMEA,$GAGSV,1,1,04,04,38,206,25,11,04,310,18,24,07,262,33,31,08,216,24*61,1594281829463
NMEA,$PQGSV,1,1,01,195,71,139,15,0,5*6F,1594281829463
NMEA,$PQGSV,4,1,16,04,37,113,19,05,17,258,27,06,47,172,11,07,21,195,23,0,4*62,1594281829463
NMEA,$PQGSV,4,2,16,09,25,191,16,10,27,220,16,13,40,330,14,16,43,178,13,0,4*66,1594281829463
NMEA,$PQGSV,4,3,16,19,04,229,31,20,52,246,19,27,48,123,19,29,17,320,19,0,4*64,1594281829464
NMEA,$PQGSV,4,4,16,30,70,341,18,01,50,130,,03,62,203,,08,49,007,,0,4*65,1594281829464
NMEA,$GNGSA,A,3,02,05,06,12,13,15,19,25,,,,,1.0,0.7,0.8,1*34,1594281829465
NMEA,$GNGSA,A,2,70,72,,,,,,,,,,,1.0,0.7,0.8,2*3F,1594281829465
NMEA,$GNGSA,A,3,04,11,24,31,,,,,,,,,1.0,0.7,0.8,3*3D,1594281829466
NMEA,$PQGSA,A,3,05,07,09,13,16,,,,,,,,1.0,0.7,0.8,4*3C,1594281829466
NMEA,$GNVTG,120.4,T,120.4,M,0.4,N,0.8,K,A*31,1594281829466
NMEA,$GNRMC,080350.00,A,2255.511107,N,12017.665622,E,0.4,120.4,090720,2.8,W,A*37,1594281829466
NMEA,$GNGGA,080350.00,2255.511107,N,12017.665622,E,1,12,0.7,50.1,M,17.5,M,,*4A,1594281829466
Fix,gps,22.925184,120.294424,68.346924,0.260000,7.504000,1594281831000
NMEA,$GPGSV,4,1,13,02,52,001,13,05,55,296,18,06,42,063,19,12,23,260,33*72,1594281830476
NMEA,$GPGSV,4,2,13,13,30,184,22,15,07,208,32,17,22,147,12,19,42,146,23*72,1594281830477
NMEA,$GPGSV,4,3,13,25,10,289,27,29,04,323,25,07,04,090,,09,17,042,*75,1594281830477
NMEA,$GPGSV,4,4,13,30,07,119,*46,1594281830478
NMEA,$GLGSV,2,1,06,70,27,023,20,65,00,000,10,85,54,090,15,71,75,336,16*67,1594281830482
NMEA,$GLGSV,2,2,06,72,41,223,20,84,07,129,*63,1594281830482
NMEA,$GAGSV,1,1,04,04,38,206,24,11,04,310,18,24,07,262,33,31,08,216,24*60,1594281830482
NMEA,$PQGSV,1,1,01,195,71,139,15,0,5*6F,1594281830482
NMEA,$PQGSV,4,1,16,04,37,113,19,05,17,258,27,06,47,172,11,07,21,195,24,0,4*65,1594281830483
NMEA,$PQGSV,4,2,16,09,25,191,17,10,27,220,16,13,40,330,14,16,43,178,13,0,4*67,1594281830483
NMEA,$PQGSV,4,3,16,19,04,229,32,20,52,246,19,27,48,123,14,29,17,320,17,0,4*64,1594281830483
NMEA,$PQGSV,4,4,16,30,70,341,18,01,50,130,,03,62,203,,08,49,007,,0,4*65,1594281830484
NMEA,$GNGSA,A,3,02,05,06,12,13,15,19,25,,,,,1.0,0.6,0.7,1*3A,1594281830485
NMEA,$GNGSA,A,2,70,71,72,,,,,,,,,,1.0,0.6,0.7,2*37,1594281830485
NMEA,$GNGSA,A,3,04,11,24,31,,,,,,,,,1.0,0.6,0.7,3*33,1594281830485
NMEA,$PQGSA,A,3,05,07,09,13,16,,,,,,,,1.0,0.6,0.7,4*32,1594281830486
NMEA,$GNVTG,113.5,T,113.5,M,0.5,N,0.9,K,A*31,1594281830486
NMEA,$GNRMC,080351.00,A,2255.511044,N,12017.665430,E,0.5,113.5,090720,2.8,W,A*31,1594281830488
NMEA,$GNGGA,080351.00,2255.511044,N,12017.665430,E,1,12,0.6,50.9,M,17.5,M,,*45,1594281830488
Raw,3450103,3470015000000,,,-1278313578426120704,0.0,82.55222928710282,-2.237054183310555,18.736965195570164,13,6,0.0,207,39830368107703,73,20.0,691.2139282226562,4.058500289916992,0,0.0,0.0,,,,,0,,3,,
Raw,3450104,3470015000000,,,-1278313578426120704,0.0,82.55222928710282,-2.237054183310555,18.736965195570164,13,1,0.0,207,39830359347733,2012,10.1,-722.2518920898438,29.740001678466797,0,0.0,0.0,,,,,0,,3,,
Raw,3450104,3470015000000,,,-1278313578426120704,0.0,82.55222928710282,-2.237054183310555,18.736965195570164,13,21,0.0,207,39830374270029,643,15.3,99.80935668945312,16.477500915527344,0,0.0,0.0,,,,,0,,3,,
Raw,3450104,3470015000000,,,-1278313578426120704,0.0,82.55222928710282,-2.237054183310555,18.736965195570164,13,7,0.0,207,39830376636195,123,15.7,179.6723175048828,4.480500221252441,0,0.0,0.0,,,,,0,,3,,
Raw,3450104,3470015000000,,,-1278313578426120704,0.0,82.55222928710282,-2.237054183310555,18.736965195570164,13,8,0.0,207,39830371721867,46,20.1,-477.76318359375,1.062999963760376,0,0.0,0.0,,,,,0,,3,,
Raw,3450105,3470015000000,,,-1278313578426120704,0.0,82.55222928710282,-2.237054183310555,18.736965195570164,13,2,0.0,15,374648368337042,202,13.4,-219.77015686035156,6.8585004806518555,0,0.0,0.0,,,,,0,,1,,
Raw,3450105,3470015000000,,,-1278313578426120704,0.0,82.55222928710282,-2.237054183310555,18.736965195570164,13,5,0.0,15,374648371452311,79,17.7,-41.74091720581055,2.5929999351501465,0,0.0,0.0,,,,,0,,1,,
Raw,3450105,3470015000000,,,-1278313578426120704,0.0,82.55222928710282,-2.237054183310555,18.736965195570164,13,6,0.0,15,374648367924037,69,18.7,111.25519561767578,2.507000207901001,0,0.0,0.0,,,,,0,,1,,
Raw,3450105,3470015000000,,,-1278313578426120704,0.0,82.55222928710282,-2.237054183310555,18.736965195570164,13,12,0.0,15,374648363074494,11,33.3,259.9263000488281,0.027400000020861626,0,0.0,0.0,,,,,0,,1,,
Raw,3450106,3470015000000,,,-1278313578426120704,0.0,82.55222928710282,-2.237054183310555,18.736965195570164,13,13,0.0,15,374648365517610,35,22.4,-645.3619995117188,0.793999969959259,0,0.0,0.0,,,,,0,,1,,
Raw,3450106,3470015000000,,,-1278313578426120704,0.0,82.55222928710282,-2.237054183310555,18.736965195570164,13,15,0.0,15,374648357811880,13,31.8,-726.2188720703125,0.050700001418590546,0,0.0,0.0,,,,,0,,1,,
Raw,3450106,3470015000000,,,-1278313578426120704,0.0,82.55222928710282,-2.237054183310555,18.736965195570164,13,17,0.0,15,374648363933789,313,11.5,617.0462646484375,9.230999946594238,0,0.0,0.0,,,,,0,,1,,
Raw,3450106,3470015000000,,,-1278313578426120704,0.0,82.55222928710282,-2.237054183310555,18.736965195570164,13,19,0.0,15,374648367971131,31,23.0,552.7745971679688,0.7369999885559082,0,0.0,0.0,,,,,0,,1,,
Raw,3450107,3470015000000,,,-1278313578426120704,0.0,82.55222928710282,-2.237054183310555,18.736965195570164,13,25,0.0,15,374648358997186,19,27.2,47.54117965698242,0.06830000132322311,0,0.0,0.0,,,,,0,,1,,
Raw,3450107,3470015000000,,,-1278313578426120704,0.0,82.55222928710282,-2.237054183310555,18.736965195570164,13,29,0.0,15,374648356957125,27,24.5,-676.1134033203125,0.640500009059906,0,0.0,0.0,,,,,0,,1,,
Raw,3450107,3470015000000,,,-1278313578426120704,0.0,82.55222928710282,-2.237054183310555,18.736965195570164,13,4,0.0,783,374634314629420,87,18.6,8.132872581481934,3.94350004196167,0,0.0,0.0,,,,,0,,5,,
Raw,3450107,3470015000000,,,-1278313578426120704,0.0,82.55222928710282,-2.237054183310555,18.736965195570164,13,5,0.0,783,374634307961513,33,27.1,-4.897006988525391,2.705000162124634,0,0.0,0.0,,,,,0,,5,,
Raw,3450108,3470015000000,,,-1278313578426120704,0.0,82.55222928710282,-2.237054183310555,18.736965195570164,13,6,0.0,15,374634317365559,1910,10.6,-230.1017303466797,28.75200080871582,0,0.0,0.0,,,,,0,,5,,
Raw,3450108,3470015000000,,,-1278313578426120704,0.0,82.55222928710282,-2.237054183310555,18.736965195570164,13,7,0.0,15,374634310769867,31,23.5,284.1224365234375,0.6315000057220459,0,0.0,0.0,,,,,0,,5,,
Raw,3450108,3470015000000,,,-1278313578426120704,0.0,82.55222928710282,-2.237054183310555,18.736965195570164,13,9,0.0,15,374634311601800,80,16.6,-257.515380859375,1.0929999351501465,0,0.0,0.0,,,,,0,,5,,
Raw,3450108,3470015000000,,,-1278313578426120704,0.0,82.55222928710282,-2.237054183310555,18.736965195570164,13,10,0.0,15,374634312442888,846,16.0,306.62945556640625,19.094501495361328,0,0.0,0.0,,,,,0,,5,,
Raw,3450109,3470015000000,,,-1278313578426120704,0.0,82.55222928710282,-2.237054183310555,18.736965195570164,13,13,0.0,15,374634315636223,164,14.4,-71.44829559326172,5.779000282287598,0,0.0,0.0,,,,,0,,5,,
Raw,3450109,3470015000000,,,-1278313578426120704,0.0,82.55222928710282,-2.237054183310555,18.736965195570164,13,16,0.0,15,374634315272127,158,12.7,-262.73883056640625,3.749000072479248,0,0.0,0.0,,,,,0,,5,,
Raw,3450109,3470015000000,,,-1278313578426120704,0.0,82.55222928710282,-2.237054183310555,18.736965195570164,13,19,0.0,15,374634353115038,13,31.6,-513.9242553710938,0.04470000043511391,0,0.0,0.0,,,,,0,,5,,
Raw,3450109,3470015000000,,,-1278313578426120704,0.0,82.55222928710282,-2.237054183310555,18.736965195570164,13,20,0.0,15,374634365133673,200,18.8,-234.57623291015625,8.354000091552734,0,0.0,0.0,,,,,0,,5,,
Raw,3450110,3470015000000,,,-1278313578426120704,0.0,82.55222928710282,-2.237054183310555,18.736965195570164,13,27,0.0,15,374634365378776,110,14.4,324.1146545410156,2.0139999389648438,0,0.0,0.0,,,,,0,,5,,
Raw,3450110,3470015000000,,,-1278313578426120704,0.0,82.55222928710282,-2.237054183310555,18.736965195570164,13,29,0.0,15,374634357035312,70,17.1,-563.4534912109375,1.0220000743865967,0,0.0,0.0,,,,,0,,5,,
Raw,3450110,3470015000000,,,-1278313578426120704,0.0,82.55222928710282,-2.237054183310555,18.736965195570164,13,30,0.0,15,374634368719819,87,18.4,-216.2268829345703,3.928500175476074,0,0.0,0.0,,,,,0,,5,,
Raw,3450110,3470015000000,,,-1278313578426120704,0.0,82.55222928710282,-2.237054183310555,18.736965195570164,13,4,0.0,7183,374648356675405,27,24.4,-446.88568115234375,0.5504999756813049,0,0.0,0.0,,,,,0,,6,,
Raw,3450111,3470015000000,,,-1278313578426120704,0.0,82.55222928710282,-2.237054183310555,18.736965195570164,13,11,0.0,7183,374648350611562,686,17.9,-400.9678039550781,7.963500499725342,0,0.0,0.0,,,,,0,,6,,
Raw,3450111,3470015000000,,,-1278313578426120704,0.0,82.55222928710282,-2.237054183310555,18.736965195570164,13,24,0.0,7183,374648352919799,12,32.9,283.0142517089844,0.31050002574920654,0,0.0,0.0,,,,,0,,6,,
Raw,3450111,3470015000000,,,-1278313578426120704,0.0,82.55222928710282,-2.237054183310555,18.736965195570164,13,31,0.0,7183,374648347496642,31,23.8,350.9681396484375,0.5989999771118164,0,0.0,0.0,,,,,0,,6,,
Fix,gps,22.925183,120.294416,68.563538,0.000000,7.504000,1594281832000
NMEA,$GPGSV,4,1,13,02,52,001,13,05,55,296,18,06,42,063,19,12,23,260,33*72,1594281831472
NMEA,$GPGSV,4,2,13,13,30,184,22,15,07,208,31,17,22,147,19,19,42,146,23*7A,1594281831472
NMEA,$GPGSV,4,3,13,25,10,289,27,29,04,323,24,07,04,090,,09,17,042,*74,1594281831475
NMEA,$GPGSV,4,4,13,30,07,119,*46,1594281831477
NMEA,$GLGSV,2,1,06,70,27,023,15,65,00,000,10,85,54,090,12,71,75,336,16*66,1594281831478
NMEA,$GLGSV,2,2,06,72,41,223,19,84,07,129,*69,1594281831479
NMEA,$GAGSV,1,1,04,04,38,206,25,11,04,310,19,24,07,262,33,31,08,216,24*60,1594281831480
NMEA,$PQGSV,1,1,01,195,71,139,15,0,5*6F,1594281831482
NMEA,$PQGSV,4,1,16,04,37,113,19,05,17,258,27,06,47,172,11,07,21,195,23,0,4*62,1594281831482
NMEA,$PQGSV,4,2,16,09,25,191,17,10,27,220,16,13,40,330,14,16,43,178,13,0,4*67,1594281831482
NMEA,$PQGSV,4,3,16,19,04,229,32,20,52,246,19,27,48,123,14,29,17,320,16,0,4*65,1594281831482
NMEA,$PQGSV,4,4,16,30,70,341,18,01,50,130,,03,62,203,,08,49,007,,0,4*65,1594281831482
Raw,3451115,3471015000000,,,-1278313578426120704,0.0,85.65744064981118,3.0346506006484097,19.619148855278723,13,6,0.0,207,39831368105204,103,15.1,694.5590209960938,2.9685001373291016,0,0.0,0.0,,,,,0,,3,,
Raw,3451116,3471015000000,,,-1278313578426120704,0.0,85.65744064981118,3.0346506006484097,19.619148855278723,13,1,0.0,207,39831359350142,2209,10.1,-722.2518920898438,31.240001678466797,0,0.0,0.0,,,,,0,,3,,
Raw,3451116,3471015000000,,,-1278313578426120704,0.0,85.65744064981118,3.0346506006484097,19.619148855278723,13,21,0.0,207,39831374269920,269,12.0,99.57575988769531,8.567500114440918,0,0.0,0.0,,,,,0,,3,,
Raw,3451117,3471015000000,,,-1278313578426120704,0.0,85.65744064981118,3.0346506006484097,19.619148855278723,13,7,0.0,207,39831376635596,153,15.7,179.6723175048828,5.980500221252441,0,0.0,0.0,,,,,0,,3,,
Raw,3451118,3471015000000,,,-1278313578426120704,0.0,85.65744064981118,3.0346506006484097,19.619148855278723,13,8,0.0,207,39831371723277,53,19.2,-476.6240234375,1.1330000162124634,0,0.0,0.0,,,,,0,,3,,
Raw,3451118,3471015000000,,,-1278313578426120704,0.0,85.65744064981118,3.0346506006484097,19.619148855278723,13,2,0.0,15,374649368337775,248,13.4,-219.77015686035156,8.358500480651855,0,0.0,0.0,,,,,0,,1,,
Raw,3451119,3471015000000,,,-1278313578426120704,0.0,85.65744064981118,3.0346506006484097,19.619148855278723,13,5,0.0,15,374649371452451,97,17.7,-41.74091720581055,4.0929999351501465,0,0.0,0.0,,,,,0,,1,,
Raw,3451120,3471015000000,,,-1278313578426120704,0.0,85.65744064981118,3.0346506006484097,19.619148855278723,13,6,0.0,15,374649367923666,88,18.7,111.25519561767578,4.006999969482422,0,0.0,0.0,,,,,0,,1,,
Raw,3451121,3471015000000,,,-1278313578426120704,0.0,85.65744064981118,3.0346506006484097,19.619148855278723,13,12,0.0,15,374649363073635,11,33.0,260.7581787109375,0.027400000020861626,0,0.0,0.0,,,,,0,,1,,
Raw,3451123,3471015000000,,,-1278313578426120704,0.0,85.65744064981118,3.0346506006484097,19.619148855278723,13,13,0.0,15,374649365519706,35,22.1,-644.4105224609375,0.793999969959259,0,0.0,0.0,,,,,0,,1,,
Raw,3451123,3471015000000,,,-1278313578426120704,0.0,85.65744064981118,3.0346506006484097,19.619148855278723,13,15,0.0,15,374649357814269,13,31.4,-725.4398193359375,0.050700001418590546,0,0.0,0.0,,,,,0,,1,,
Raw,3451124,3471015000000,,,-1278313578426120704,0.0,85.65744064981118,3.0346506006484097,19.619148855278723,13,17,0.0,15,374649363931652,53,19.1,620.0623779296875,1.0010000467300415,0,0.0,0.0,,,,,0,,1,,
Raw,3451124,3471015000000,,,-1278313578426120704,0.0,85.65744064981118,3.0346506006484097,19.619148855278723,13,19,0.0,15,374649367969276,35,22.5,553.5642700195312,0.7369999885559082,0,0.0,0.0,,,,,0,,1,,
Raw,3451125,3471015000000,,,-1278313578426120704,0.0,85.65744064981118,3.0346506006484097,19.619148855278723,13,25,0.0,15,374649358997050,19,27.2,48.43152618408203,0.06830000132322311,0,0.0,0.0,,,,,0,,1,,
Raw,3451126,3471015000000,,,-1278313578426120704,0.0,85.65744064981118,3.0346506006484097,19.619148855278723,13,29,0.0,15,374649356959377,31,23.7,-675.0192260742188,0.6904999613761902,0,0.0,0.0,,,,,0,,1,,
Raw,3451126,3471015000000,,,-1278313578426120704,0.0,85.65744064981118,3.0346506006484097,19.619148855278723,13,4,0.0,783,374635314629393,116,18.6,8.132872581481934,5.44350004196167,0,0.0,0.0,,,,,0,,5,,
Raw,3451127,3471015000000,,,-1278313578426120704,0.0,85.65744064981118,3.0346506006484097,19.619148855278723,13,5,0.0,783,374635307961506,21,27.0,-4.46491813659668,1.2050000429153442,0,0.0,0.0,,,,,0,,5,,
Raw,3451127,3471015000000,,,-1278313578426120704,0.0,85.65744064981118,3.0346506006484097,19.619148855278723,13,6,0.0,15,374635317366326,2101,10.6,-230.1017303466797,30.25200080871582,0,0.0,0.0,,,,,0,,5,,
Raw,3451128,3471015000000,,,-1278313578426120704,0.0,85.65744064981118,3.0346506006484097,19.619148855278723,13,7,0.0,15,374635310768892,35,22.8,285.3130798339844,0.6315000057220459,0,0.0,0.0,,,,,0,,5,,
Raw,3451128,3471015000000,,,-1278313578426120704,0.0,85.65744064981118,3.0346506006484097,19.619148855278723,13,9,0.0,15,374635311602587,70,17.0,-259.090087890625,1.0130000114440918,0,0.0,0.0,,,,,0,,5,,
Raw,3451129,3471015000000,,,-1278313578426120704,0.0,85.65744064981118,3.0346506006484097,19.619148855278723,13,10,0.0,15,374635312441866,975,16.0,306.62945556640625,20.594501495361328,0,0.0,0.0,,,,,0,,5,,
Raw,3451129,3471015000000,,,-1278313578426120704,0.0,85.65744064981118,3.0346506006484097,19.619148855278723,13,13,0.0,15,374635315636462,204,14.4,-71.44829559326172,7.279000282287598,0,0.0,0.0,,,,,0,,5,,
Raw,3451130,3471015000000,,,-1278313578426120704,0.0,85.65744064981118,3.0346506006484097,19.619148855278723,13,16,0.0,15,374635315273004,183,12.7,-262.73883056640625,5.249000072479248,0,0.0,0.0,,,,,0,,5,,
Raw,3451130,3471015000000,,,-1278313578426120704,0.0,85.65744064981118,3.0346506006484097,19.619148855278723,13,19,0.0,15,374635353116753,13,31.8,-513.1289672851562,0.04470000043511391,0,0.0,0.0,,,,,0,,5,,
Raw,3451131,3471015000000,,,-1278313578426120704,0.0,85.65744064981118,3.0346506006484097,19.619148855278723,13,20,0.0,15,374635365134456,258,18.8,-234.57623291015625,9.854000091552734,0,0.0,0.0,,,,,0,,5,,
Raw,3451131,3471015000000,,,-1278313578426120704,0.0,85.65744064981118,3.0346506006484097,19.619148855278723,13,27,0.0,15,374635365377695,124,14.4,324.1146545410156,3.514000177383423,0,0.0,0.0,,,,,0,,5,,
Raw,3451132,3471015000000,,,-1278313578426120704,0.0,85.65744064981118,3.0346506006484097,19.619148855278723,13,29,0.0,15,374635357037190,81,16.4,-562.0227661132812,1.1019999980926514,0,0.0,0.0,,,,,0,,5,,
Raw,3451132,3471015000000,,,-1278313578426120704,0.0,85.65744064981118,3.0346506006484097,19.619148855278723,13,30,0.0,15,374635368720540,115,18.4,-216.2268829345703,5.428500175476074,0,0.0,0.0,,,,,0,,5,,
Raw,3451133,3471015000000,,,-1278313578426120704,0.0,85.65744064981118,3.0346506006484097,19.619148855278723,13,4,0.0,7183,374649356676854,27,24.8,-446.2386474609375,0.5504999756813049,0,0.0,0.0,,,,,0,,6,,
Raw,3451133,3471015000000,,,-1278313578426120704,0.0,85.65744064981118,3.0346506006484097,19.619148855278723,13,11,0.0,7183,374649350612969,61,18.8,-398.85552978515625,0.8614999651908875,0,0.0,0.0,,,,,0,,6,,
Raw,3451134,3471015000000,,,-1278313578426120704,0.0,85.65744064981118,3.0346506006484097,19.619148855278723,13,24,0.0,7183,374649352918858,12,32.9,282.4504699707031,0.0479000024497509,0,0.0,0.0,,,,,0,,6,,
Raw,3451136,3471015000000,,,-1278313578426120704,0.0,85.65744064981118,3.0346506006484097,19.619148855278723,13,31,0.0,7183,374649347495438,27,24.1,351.55804443359375,0.5489999651908875,0,0.0,0.0,,,,,0,,6,,
NMEA,$GNGSA,A,3,02,05,06,12,13,15,17,19,25,,,,1.0,0.6,0.7,1*3C,1594281831484
NMEA,$GNGSA,A,2,70,71,72,,,,,,,,,,1.0,0.6,0.7,2*37,1594281831487
NMEA,$GNGSA,A,3,04,11,24,31,,,,,,,,,1.0,0.6,0.7,3*33,1594281831487
NMEA,$PQGSA,A,3,05,07,09,13,16,,,,,,,,1.0,0.6,0.7,4*32,1594281831487
NMEA,$GNVTG,,T,,M,0.0,N,0.0,K,A*3D,1594281831487
NMEA,$GNRMC,080352.00,A,2255.510982,N,12017.664988,E,0.0,,090720,2.8,W,A*12,1594281831487
NMEA,$GNGGA,080352.00,2255.510982,N,12017.664988,E,1,12,0.6,51.1,M,17.5,M,,*42,1594281831488
Fix,gps,22.925188,120.294412,68.534668,0.510000,7.504000,1594281833000
NMEA,$GPGSV,4,1,13,02,52,001,13,05,55,296,18,06,42,063,15,12,23,260,32*7F,1594281832457
NMEA,$GPGSV,4,2,13,13,30,184,19,15,07,208,31,17,22,147,19,19,42,146,21*70,1594281832457
NMEA,$GPGSV,4,3,13,25,10,289,27,29,04,323,24,07,04,090,,09,17,042,*74,1594281832457
NMEA,$GPGSV,4,4,13,30,07,119,*46,1594281832458
NMEA,$GLGSV,2,1,06,70,27,023,18,65,00,000,10,85,54,090,12,71,75,336,16*6B,1594281832458
NMEA,$GLGSV,2,2,06,72,41,223,19,84,07,129,*69,1594281832458
NMEA,$GAGSV,1,1,04,04,38,206,25,11,04,310,18,24,07,262,33,31,08,216,25*60,1594281832459
NMEA,$PQGSV,1,1,01,195,71,139,15,0,5*6F,1594281832459
NMEA,$PQGSV,4,1,16,04,37,113,20,05,17,258,28,06,47,172,11,07,21,195,23,0,4*67,1594281832459
NMEA,$PQGSV,4,2,16,09,25,191,18,10,27,220,16,13,40,330,14,16,43,178,13,0,4*68,1594281832459
NMEA,$PQGSV,4,3,16,19,04,229,31,20,52,246,19,27,48,123,14,29,17,320,18,0,4*68,1594281832459
NMEA,$PQGSV,4,4,16,30,70,341,18,01,50,130,,03,62,203,,08,49,007,,0,4*65,1594281832459
NMEA,$GNGSA,A,3,02,05,06,12,13,15,17,19,25,,,,1.0,0.6,0.7,1*3C,1594281832460
NMEA,$GNGSA,A,3,70,71,72,85,,,,,,,,,1.0,0.6,0.7,2*3B,1594281832461
NMEA,$GNGSA,A,3,04,11,24,31,,,,,,,,,1.0,0.6,0.7,3*33,1594281832461
NMEA,$PQGSA,A,3,05,07,09,13,16,,,,,,,,1.0,0.6,0.7,4*32,1594281832465
NMEA,$GNVTG,309.7,T,309.7,M,1.0,N,1.8,K,A*35,1594281832466
NMEA,$GNRMC,080353.00,A,2255.511288,N,12017.664724,E,1.0,309.7,090720,2.8,W,A*39,1594281832466
NMEA,$GNGGA,080353.00,2255.511288,N,12017.664724,E,1,12,0.6,51.1,M,17.5,M,,*4B,1594281832467
Raw,3452064,3472015000000,,,-1278313578426120704,0.0,88.51761231198907,6.2413060832026,20.63039035478325,13,6,0.0,207,39832368103037,61,18.1,695.7677612304688,1.2085000276565552,0,0.0,0.0,,,,,0,,3,,
Raw,3452064,3472015000000,,,-1278313578426120704,0.0,88.51761231198907,6.2413060832026,20.63039035478325,13,1,0.0,207,39832359352551,2415,10.1,-722.2518920898438,32.7400016784668,0,0.0,0.0,,,,,0,,3,,
Raw,3452064,3472015000000,,,-1278313578426120704,0.0,88.51761231198907,6.2413060832026,20.63039035478325,13,21,0.0,207,39832374269588,325,12.0,99.57575988769531,10.067500114440918,0,0.0,0.0,,,,,0,,3,,
Raw,3452064,3472015000000,,,-1278313578426120704,0.0,88.51761231198907,6.2413060832026,20.63039035478325,13,7,0.0,207,39832376634997,193,15.7,179.6723175048828,7.480500221252441,0,0.0,0.0,,,,,0,,3,,
Raw,3452065,3472015000000,,,-1278313578426120704,0.0,88.51761231198907,6.2413060832026,20.63039035478325,13,8,0.0,207,39832371725070,53,19.1,-477.07220458984375,1.1330000162124634,0,0.0,0.0,,,,,0,,3,,
Raw,3452065,3472015000000,,,-1278313578426120704,0.0,88.51761231198907,6.2413060832026,20.63039035478325,13,2,0.0,15,374650368338508,303,13.4,-219.77015686035156,9.858500480651855,0,0.0,0.0,,,,,0,,1,,
Raw,3452065,3472015000000,,,-1278313578426120704,0.0,88.51761231198907,6.2413060832026,20.63039035478325,13,5,0.0,15,374650371452590,126,17.7,-41.74091720581055,5.5929999351501465,0,0.0,0.0,,,,,0,,1,,
Raw,3452065,3472015000000,,,-1278313578426120704,0.0,88.51761231198907,6.2413060832026,20.63039035478325,13,6,0.0,15,374650367923291,102,15.0,113.51968383789062,2.867000102996826,0,0.0,0.0,,,,,0,,1,,
Raw,3452066,3472015000000,,,-1278313578426120704,0.0,88.51761231198907,6.2413060832026,20.63039035478325,13,12,0.0,15,374650363072787,12,32.2,261.2113037109375,0.0284000001847744,0,0.0,0.0,,,,,0,,1,,
Raw,3452066,3472015000000,,,-1278313578426120704,0.0,88.51761231198907,6.2413060832026,20.63039035478325,13,13,0.0,15,374650365521825,53,19.3,-643.820556640625,1.0040000677108765,0,0.0,0.0,,,,,0,,1,,
Raw,3452067,3472015000000,,,-1278313578426120704,0.0,88.51761231198907,6.2413060832026,20.63039035478325,13,15,0.0,15,374650357816714,13,31.1,-725.0044555664062,0.050700001418590546,0,0.0,0.0,,,,,0,,1,,
Raw,3452067,3472015000000,,,-1278313578426120704,0.0,88.51761231198907,6.2413060832026,20.63039035478325,13,17,0.0,15,374650363929584,61,19.1,620.0623779296875,2.501000165939331,0,0.0,0.0,,,,,0,,1,,
Raw,3452067,3472015000000,,,-1278313578426120704,0.0,88.51761231198907,6.2413060832026,20.63039035478325,13,19,0.0,15,374650367967542,46,20.8,554.2589111328125,0.8569999933242798,0,0.0,0.0,,,,,0,,1,,
Raw,3452067,3472015000000,,,-1278313578426120704,0.0,88.51761231198907,6.2413060832026,20.63039035478325,13,25,0.0,15,374650358996908,21,26.9,49.287994384765625,0.13819999992847443,0,0.0,0.0,,,,,0,,1,,
Raw,3452068,3472015000000,,,-1278313578426120704,0.0,88.51761231198907,6.2413060832026,20.63039035478325,13,29,0.0,15,374650356961565,27,24.2,-674.54345703125,0.6904999613761902,0,0.0,0.0,,,,,0,,1,,
Raw,3452068,3472015000000,,,-1278313578426120704,0.0,88.51761231198907,6.2413060832026,20.63039035478325,13,4,0.0,783,374636314629386,54,20.1,3.2166614532470703,2.313500165939331,0,0.0,0.0,,,,,0,,5,,
Raw,3452068,3472015000000,,,-1278313578426120704,0.0,88.51761231198907,6.2413060832026,20.63039035478325,13,5,0.0,783,374636307961495,19,27.5,-2.5253193378448486,0.45500001311302185,0,0.0,0.0,,,,,0,,5,,
Raw,3452068,3472015000000,,,-1278313578426120704,0.0,88.51761231198907,6.2413060832026,20.63039035478325,13,6,0.0,15,374636317367094,2302,10.6,-230.1017303466797,31.75200080871582,0,0.0,0.0,,,,,0,,5,,
Raw,3452069,3472015000000,,,-1278313578426120704,0.0,88.51761231198907,6.2413060832026,20.63039035478325,13,7,0.0,15,374636310768003,31,23.4,286.1100158691406,0.6315000057220459,0,0.0,0.0,,,,,0,,5,,
Raw,3452069,3472015000000,,,-1278313578426120704,0.0,88.51761231198907,6.2413060832026,20.63039035478325,13,9,0.0,15,374636311603498,61,18.1,-256.53594970703125,0.9329999685287476,0,0.0,0.0,,,,,0,,5,,
Raw,3452069,3472015000000,,,-1278313578426120704,0.0,88.51761231198907,6.2413060832026,20.63039035478325,13,10,0.0,15,374636312440843,1114,16.0,306.62945556640625,22.094501495361328,0,0.0,0.0,,,,,0,,5,,
Raw,3452069,3472015000000,,,-1278313578426120704,0.0,88.51761231198907,6.2413060832026,20.63039035478325,13,13,0.0,15,374636315636700,253,14.4,-71.44829559326172,8.779000282287598,0,0.0,0.0,,,,,0,,5,,
Raw,3452069,3472015000000,,,-1278313578426120704,0.0,88.51761231198907,6.2413060832026,20.63039035478325,13,16,0.0,15,374636315273880,219,12.7,-262.73883056640625,6.749000072479248,0,0.0,0.0,,,,,0,,5,,
Raw,3452070,3472015000000,,,-1278313578426120704,0.0,88.51761231198907,6.2413060832026,20.63039035478325,13,19,0.0,15,374636353118470,13,31.1,-512.5642700195312,0.04470000043511391,0,0.0,0.0,,,,,0,,5,,
Raw,3452070,3472015000000,,,-1278313578426120704,0.0,88.51761231198907,6.2413060832026,20.63039035478325,13,20,0.0,15,374636365135238,326,18.8,-234.57623291015625,11.354000091552734,0,0.0,0.0,,,,,0,,5,,
Raw,3452070,3472015000000,,,-1278313578426120704,0.0,88.51761231198907,6.2413060832026,20.63039035478325,13,27,0.0,15,374636365376614,148,14.4,324.1146545410156,5.014000415802002,0,0.0,0.0,,,,,0,,5,,
Raw,3452070,3472015000000,,,-1278313578426120704,0.0,88.51761231198907,6.2413060832026,20.63039035478325,13,29,0.0,15,374636357039163,61,18.0,-562.2820434570312,0.9419999718666077,0,0.0,0.0,,,,,0,,5,,
Raw,3452071,3472015000000,,,-1278313578426120704,0.0,88.51761231198907,6.2413060832026,20.63039035478325,13,30,0.0,15,374636368721262,154,18.4,-216.2268829345703,6.928500175476074,0,0.0,0.0,,,,,0,,5,,
Raw,3452071,3472015000000,,,-1278313578426120704,0.0,88.51761231198907,6.2413060832026,20.63039035478325,13,4,0.0,7183,374650356678312,27,24.8,-445.6297302246094,0.5504999756813049,0,0.0,0.0,,,,,0,,6,,
Raw,3452071,3472015000000,,,-1278313578426120704,0.0,88.51761231198907,6.2413060832026,20.63039035478325,13,11,0.0,7183,374650350614262,70,17.7,-399.0268249511719,0.9434999823570251,0,0.0,0.0,,,,,0,,6,,
Raw,3452071,3472015000000,,,-1278313578426120704,0.0,88.51761231198907,6.2413060832026,20.63039035478325,13,24,0.0,7183,374650352917915,12,32.7,283.426513671875,0.0479000024497509,0,0.0,0.0,,,,,0,,6,,
Raw,3452072,3472015000000,,,-1278313578426120704,0.0,88.51761231198907,6.2413060832026,20.63039035478325,13,31,0.0,7183,374650347494333,27,24.6,352.0147399902344,0.5489999651908875,0,0.0,0.0,,,,,0,,6,,
Fix,gps,22.925193,120.294402,69.382935,0.870000,8.576000,1594281834000
NMEA,$GPGSV,4,1,13,02,52,001,13,05,55,296,18,06,42,063,15,12,23,260,33*7E,1594281833458
NMEA,$GPGSV,4,2,13,13,30,184,20,15,07,208,32,17,22,147,19,19,42,146,21*79,1594281833458
NMEA,$GPGSV,4,3,13,25,10,289,26,29,04,323,23,07,04,090,,09,17,042,*72,1594281833458
NMEA,$GPGSV,4,4,13,30,07,119,*46,1594281833459
NMEA,$GLGSV,2,1,06,70,27,023,18,65,00,000,10,85,54,090,12,71,75,336,15*68,1594281833459
NMEA,$GLGSV,2,2,06,72,41,223,19,84,07,129,*69,1594281833460
NMEA,$GAGSV,1,1,04,04,38,206,26,11,04,310,20,24,07,262,33,31,08,216,24*69,1594281833461
NMEA,$PQGSV,1,1,01,195,71,139,15,0,5*6F,1594281833462
NMEA,$PQGSV,4,1,16,04,37,113,20,05,17,258,28,06,47,172,11,07,21,195,23,0,4*67,1594281833463
NMEA,$PQGSV,4,2,16,09,25,191,18,10,27,220,16,13,40,330,14,16,43,178,13,0,4*68,1594281833464
NMEA,$PQGSV,4,3,16,19,04,229,31,20,52,246,19,27,48,123,15,29,17,320,16,0,4*67,1594281833464
NMEA,$PQGSV,4,4,16,30,70,341,18,01,50,130,,03,62,203,,08,49,007,,0,4*65,1594281833464
NMEA,$GNGSA,A,3,02,05,06,12,13,15,17,19,25,,,,1.0,0.6,0.7,1*3C,1594281833465
NMEA,$GNGSA,A,3,70,71,72,85,,,,,,,,,1.0,0.6,0.7,2*3B,1594281833465
NMEA,$GNGSA,A,3,04,11,24,31,,,,,,,,,1.0,0.6,0.7,3*33,1594281833465
NMEA,$PQGSA,A,3,05,07,09,13,16,,,,,,,,1.0,0.6,0.7,4*32,1594281833466
NMEA,$GNVTG,281.1,T,281.1,M,1.7,N,3.1,K,A*39,1594281833466
NMEA,$GNRMC,080354.00,A,2255.511571,N,12017.664119,E,1.7,281.1,090720,2.8,W,A*37,1594281833466
NMEA,$GNGGA,080354.00,2255.511571,N,12017.664119,E,1,12,0.6,51.9,M,17.5,M,,*4D,1594281833466
Raw,3453081,3473015000000,,,-1278313578426120704,0.0,87.76557660894468,7.290947220774832,21.45442004926356,13,6,0.0,207,39833368100716,70,18.1,695.7677612304688,2.7085001468658447,0,0.0,0.0,,,,,0,,3,,
Raw,3453082,3473015000000,,,-1278313578426120704,0.0,87.76557660894468,7.290947220774832,21.45442004926356,13,1,0.0,207,39833359354960,2632,10.1,-722.2518920898438,34.2400016784668,0,0.0,0.0,,,,,0,,3,,
Raw,3453083,3473015000000,,,-1278313578426120704,0.0,87.76557660894468,7.290947220774832,21.45442004926356,13,21,0.0,207,39833374269255,391,12.0,99.57575988769531,11.567500114440918,0,0.0,0.0,,,,,0,,3,,
Raw,3453083,3473015000000,,,-1278313578426120704,0.0,87.76557660894468,7.290947220774832,21.45442004926356,13,7,0.0,207,39833376634322,126,14.5,181.91403198242188,3.8305001258850098,0,0.0,0.0,,,,,0,,3,,
Raw,3453084,3473015000000,,,-1278313578426120704,0.0,87.76557660894468,7.290947220774832,21.45442004926356,13,8,0.0,207,39833371726661,62,19.1,-477.07220458984375,2.633000135421753,0,0.0,0.0,,,,,0,,3,,
Raw,3453085,3473015000000,,,-1278313578426120704,0.0,87.76557660894468,7.290947220774832,21.45442004926356,13,2,0.0,15,374651368339241,369,13.4,-219.77015686035156,11.358500480651855,0,0.0,0.0,,,,,0,,1,,
Raw,3453085,3473015000000,,,-1278313578426120704,0.0,87.76557660894468,7.290947220774832,21.45442004926356,13,5,0.0,15,374651371452729,165,17.7,-41.74091720581055,7.093000411987305,0,0.0,0.0,,,,,0,,1,,
Raw,3453086,3473015000000,,,-1278313578426120704,0.0,87.76557660894468,7.290947220774832,21.45442004926356,13,6,0.0,15,374651367922913,122,15.0,113.51968383789062,4.367000102996826,0,0.0,0.0,,,,,0,,1,,
Raw,3453086,3473015000000,,,-1278313578426120704,0.0,87.76557660894468,7.290947220774832,21.45442004926356,13,12,0.0,15,374651363071907,12,32.6,256.91265869140625,0.0284000001847744,0,0.0,0.0,,,,,0,,1,,
Raw,3453087,3473015000000,,,-1278313578426120704,0.0,87.76557660894468,7.290947220774832,21.45442004926356,13,13,0.0,15,374651365523950,53,19.7,-648.1593017578125,0.9239999651908875,0,0.0,0.0,,,,,0,,1,,
Raw,3453087,3473015000000,,,-1278313578426120704,0.0,87.76557660894468,7.290947220774832,21.45442004926356,13,15,0.0,15,374651357819132,13,31.9,-729.415771484375,0.050700001418590546,0,0.0,0.0,,,,,0,,1,,
Raw,3453088,3473015000000,,,-1278313578426120704,0.0,87.76557660894468,7.290947220774832,21.45442004926356,13,17,0.0,15,374651363927516,80,19.1,620.0623779296875,4.000999927520752,0,0.0,0.0,,,,,0,,1,,
Raw,3453089,3473015000000,,,-1278313578426120704,0.0,87.76557660894468,7.290947220774832,21.45442004926356,13,19,0.0,15,374651367965626,40,21.4,550.0914306640625,0.8569999933242798,0,0.0,0.0,,,,,0,,1,,
Raw,3453090,3473015000000,,,-1278313578426120704,0.0,87.76557660894468,7.290947220774832,21.45442004926356,13,25,0.0,15,374651358996760,21,26.1,44.97591018676758,0.6035000085830688,0,0.0,0.0,,,,,0,,1,,
Raw,3453090,3473015000000,,,-1278313578426120704,0.0,87.76557660894468,7.290947220774832,21.45442004926356,13,29,0.0,15,374651356963885,31,23.3,-679.3294067382812,0.750499963760376,0,0.0,0.0,,,,,0,,1,,
Raw,3453091,3473015000000,,,-1278313578426120704,0.0,87.76557660894468,7.290947220774832,21.45442004926356,13,4,0.0,783,374637314629376,72,20.1,3.2166614532470703,3.813500165939331,0,0.0,0.0,,,,,0,,5,,
Raw,3453092,3473015000000,,,-1278313578426120704,0.0,87.76557660894468,7.290947220774832,21.45442004926356,13,5,0.0,783,374637307961504,26,27.5,-2.5253193378448486,1.9550000429153442,0,0.0,0.0,,,,,0,,5,,
Raw,3453092,3473015000000,,,-1278313578426120704,0.0,87.76557660894468,7.290947220774832,21.45442004926356,13,6,0.0,15,374637317367861,2513,10.6,-230.1017303466797,33.25200271606445,0,0.0,0.0,,,,,0,,5,,
Raw,3453093,3473015000000,,,-1278313578426120704,0.0,87.76557660894468,7.290947220774832,21.45442004926356,13,7,0.0,15,374637310767011,35,22.9,281.02099609375,0.6315000057220459,0,0.0,0.0,,,,,0,,5,,
Raw,3453093,3473015000000,,,-1278313578426120704,0.0,87.76557660894468,7.290947220774832,21.45442004926356,13,9,0.0,15,374637311604353,69,18.1,-256.53594970703125,2.433000087738037,0,0.0,0.0,,,,,0,,5,,
Raw,3453094,3473015000000,,,-1278313578426120704,0.0,87.76557660894468,7.290947220774832,21.45442004926356,13,10,0.0,15,374637312439820,1263,16.0,306.62945556640625,23.594501495361328,0,0.0,0.0,,,,,0,,5,,
Raw,3453095,3473015000000,,,-1278313578426120704,0.0,87.76557660894468,7.290947220774832,21.45442004926356,13,13,0.0,15,374637315636938,313,14.4,-71.44829559326172,10.279000282287598,0,0.0,0.0,,,,,0,,5,,
Raw,3453095,3473015000000,,,-1278313578426120704,0.0,87.76557660894468,7.290947220774832,21.45442004926356,13,16,0.0,15,374637315274756,264,12.7,-262.73883056640625,8.249000549316406,0,0.0,0.0,,,,,0,,5,,
Raw,3453096,3473015000000,,,-1278313578426120704,0.0,87.76557660894468,7.290947220774832,21.45442004926356,13,19,0.0,15,374637353120183,13,31.1,-516.931884765625,0.35600000619888306,0,0.0,0.0,,,,,0,,5,,
Raw,3453096,3473015000000,,,-1278313578426120704,0.0,87.76557660894468,7.290947220774832,21.45442004926356,13,20,0.0,15,374637365136020,404,18.8,-234.57623291015625,12.854000091552734,0,0.0,0.0,,,,,0,,5,,
Raw,3453097,3473015000000,,,-1278313578426120704,0.0,87.76557660894468,7.290947220774832,21.45442004926356,13,27,0.0,15,374637365375653,102,15.4,323.88421630859375,2.6740000247955322,0,0.0,0.0,,,,,0,,5,,
Raw,3453098,3473015000000,,,-1278313578426120704,0.0,87.76557660894468,7.290947220774832,21.45442004926356,13,29,0.0,15,374637357040912,81,16.3,-567.7071533203125,1.1019999980926514,0,0.0,0.0,,,,,0,,5,,
Raw,3453098,3473015000000,,,-1278313578426120704,0.0,87.76557660894468,7.290947220774832,21.45442004926356,13,30,0.0,15,374637368721983,202,18.4,-216.2268829345703,8.428500175476074,0,0.0,0.0,,,,,0,,5,,
Raw,3453099,3473015000000,,,-1278313578426120704,0.0,87.76557660894468,7.290947220774832,21.45442004926356,13,4,0.0,7183,374651356679809,24,25.7,-449.7210388183594,0.5205000042915344,0,0.0,0.0,,,,,0,,6,,
Raw,3453100,3473015000000,,,-1278313578426120704,0.0,87.76557660894468,7.290947220774832,21.45442004926356,13,11,0.0,7183,374651350615573,53,19.9,-403.2989196777344,0.8134999871253967,0,0.0,0.0,,,,,0,,6,,
Raw,3453100,3473015000000,,,-1278313578426120704,0.0,87.76557660894468,7.290947220774832,21.45442004926356,13,24,0.0,7183,374651352916956,12,32.7,279.8553771972656,0.31050002574920654,0,0.0,0.0,,,,,0,,6,,
Raw,3453101,3473015000000,,,-1278313578426120704,0.0,87.76557660894468,7.290947220774832,21.45442004926356,13,31,0.0,7183,374651347493125,31,23.5,347.7331237792969,0.5989999771118164,0,0.0,0.0,,,,,0,,6,,
Fix,gps,22.925195,120.294391,69.978821,0.660000,8.576000,1594281835000
NMEA,$GPGSV,4,1,13,02,52,001,13,05,55,296,18,06,42,063,15,12,23,260,32*7F,1594281834457
NMEA,$GPGSV,4,2,13,13,30,184,19,15,07,208,31,17,22,147,16,19,42,146,21*7F,1594281834457
NMEA,$GPGSV,4,3,13,25,10,289,26,29,04,323,23,07,04,090,,09,17,042,*72,1594281834459
NMEA,$GPGSV,4,4,13,30,07,119,*46,1594281834459
NMEA,$GLGSV,2,1,06,70,27,023,18,65,00,000,10,85,54,090,15,71,75,336,15*6F,1594281834460
NMEA,$GLGSV,2,2,06,72,41,223,19,84,07,129,*69,1594281834460
NMEA,$GAGSV,1,1,04,04,38,206,23,11,04,310,18,24,07,262,32,31,08,216,24*66,1594281834460
NMEA,$PQGSV,1,1,01,195,71,139,15,0,5*6F,1594281834460
NMEA,$PQGSV,4,1,16,04,37,113,20,05,17,258,27,06,47,172,11,07,21,195,22,0,4*69,1594281834460
NMEA,$PQGSV,4,2,16,09,25,191,15,10,27,220,16,13,40,330,14,16,43,178,13,0,4*65,1594281834461
NMEA,$PQGSV,4,3,16,19,04,229,31,20,52,246,12,27,48,123,15,29,17,320,16,0,4*6C,1594281834462
NMEA,$PQGSV,4,4,16,30,70,341,18,01,50,130,,03,62,203,,08,49,007,,0,4*65,1594281834462
NMEA,$GNGSA,A,3,02,05,06,12,13,15,17,19,25,,,,1.0,0.6,0.8,1*33,1594281834462
NMEA,$GNGSA,A,3,70,71,72,85,,,,,,,,,1.0,0.6,0.8,2*34,1594281834463
NMEA,$GNGSA,A,3,04,11,24,31,,,,,,,,,1.0,0.6,0.8,3*3C,1594281834464
NMEA,$PQGSA,A,3,05,07,09,13,16,,,,,,,,1.0,0.6,0.8,4*3D,1594281834464
NMEA,$GNVTG,271.5,T,271.5,M,1.3,N,2.4,K,A*39,1594281834465
NMEA,$GNRMC,080355.00,A,2255.511706,N,12017.663468,E,1.3,271.5,090720,2.8,W,A*3F,1594281834465
NMEA,$GNGGA,080355.00,2255.511706,N,12017.663468,E,1,12,0.6,52.5,M,17.5,M,,*45,1594281834465
Raw,3454084,3474015000000,,,-1278313578426120704,0.0,115.64997839741409,7.290947220774832,31.220045781174523,14,6,0.0,207,39834368098396,89,18.1,695.7677612304688,4.208500385284424,0,0.0,0.0,,,,,0,,3,,
Raw,3454084,3474015000000,,,-1278313578426120704,0.0,115.64997839741409,7.290947220774832,31.220045781174523,14,1,0.0,207,39834359357369,2858,10.1,-722.2518920898438,35.7400016784668,0,0.0,0.0,,,,,0,,3,,
Raw,3454085,3474015000000,,,-1278313578426120704,0.0,115.64997839741409,7.290947220774832,31.220045781174523,14,21,0.0,207,39834374268806,103,15.0,99.19266510009766,2.9775002002716064,0,0.0,0.0,,,,,0,,3,,
Raw,3454085,3474015000000,,,-1278313578426120704,0.0,115.64997839741409,7.290947220774832,31.220045781174523,14,7,0.0,207,39834376633715,151,14.5,181.91403198242188,5.33050012588501,0,0.0,0.0,,,,,0,,3,,
Raw,3454086,3474015000000,,,-1278313578426120704,0.0,115.64997839741409,7.290947220774832,31.220045781174523,14,8,0.0,207,39834371728253,81,19.1,-477.07220458984375,4.133000373840332,0,0.0,0.0,,,,,0,,3,,
Raw,3454087,3474015000000,,,-1278313578426120704,0.0,115.64997839741409,7.290947220774832,31.220045781174523,14,2,0.0,15,374652368339974,444,13.4,-219.77015686035156,12.858500480651855,0,0.0,0.0,,,,,0,,1,,
Raw,3454087,3474015000000,,,-1278313578426120704,0.0,115.64997839741409,7.290947220774832,31.220045781174523,14,5,0.0,15,374652371452868,214,17.7,-41.74091720581055,8.593000411987305,0,0.0,0.0,,,,,0,,1,,
Raw,3454088,3474015000000,,,-1278313578426120704,0.0,115.64997839741409,7.290947220774832,31.220045781174523,14,6,0.0,15,374652367922534,152,15.0,113.51968383789062,5.867000102996826,0,0.0,0.0,,,,,0,,1,,
Raw,3454089,3474015000000,,,-1278313578426120704,0.0,115.64997839741409,7.290947220774832,31.220045781174523,14,12,0.0,15,374652363071027,12,32.0,256.7080383300781,0.0284000001847744,0,0.0,0.0,,,,,0,,1,,
Raw,3454089,3474015000000,,,-1278313578426120704,0.0,115.64997839741409,7.290947220774832,31.220045781174523,14,13,0.0,15,374652365526153,61,18.6,-647.968994140625,1.0040000677108765,0,0.0,0.0,,,,,0,,1,,
Raw,3454090,3474015000000,,,-1278313578426120704,0.0,115.64997839741409,7.290947220774832,31.220045781174523,14,15,0.0,15,374652357821551,13,31.2,-729.664794921875,0.050700001418590546,0,0.0,0.0,,,,,0,,1,,
Raw,3454090,3474015000000,,,-1278313578426120704,0.0,115.64997839741409,7.290947220774832,31.220045781174523,14,17,0.0,15,374652363925506,90,16.0,616.4373168945312,2.761000156402588,0,0.0,0.0,,,,,0,,1,,
Raw,3454091,3474015000000,,,-1278313578426120704,0.0,115.64997839741409,7.290947220774832,31.220045781174523,14,19,0.0,15,374652367963824,46,20.9,549.920166015625,0.8569999933242798,0,0.0,0.0,,,,,0,,1,,
Raw,3454092,3474015000000,,,-1278313578426120704,0.0,115.64997839741409,7.290947220774832,31.220045781174523,14,25,0.0,15,374652358996553,24,25.8,45.11357498168945,0.40880000591278076,0,0.0,0.0,,,,,0,,1,,
Raw,3454092,3474015000000,,,-1278313578426120704,0.0,115.64997839741409,7.290947220774832,31.220045781174523,14,29,0.0,15,374652356966161,31,23.1,-679.5957641601562,0.750499963760376,0,0.0,0.0,,,,,0,,1,,
Raw,3454093,3474015000000,,,-1278313578426120704,0.0,115.64997839741409,7.290947220774832,31.220045781174523,14,4,0.0,783,374638314629365,100,20.1,3.2166614532470703,5.31350040435791,0,0.0,0.0,,,,,0,,5,,
Raw,3454093,3474015000000,,,-1278313578426120704,0.0,115.64997839741409,7.290947220774832,31.220045781174523,14,5,0.0,783,374638307961519,23,26.6,-5.357901573181152,1.2450000047683716,0,0.0,0.0,,,,,0,,5,,
Raw,3454094,3474015000000,,,-1278313578426120704,0.0,115.64997839741409,7.290947220774832,31.220045781174523,14,6,0.0,15,374638317368629,2734,10.6,-230.1017303466797,34.75200271606445,0,0.0,0.0,,,,,0,,5,,
Raw,3454095,3474015000000,,,-1278313578426120704,0.0,115.64997839741409,7.290947220774832,31.220045781174523,14,7,0.0,15,374638310766070,40,21.9,280.21441650390625,0.6814999580383301,0,0.0,0.0,,,,,0,,5,,
Raw,3454095,3474015000000,,,-1278313578426120704,0.0,115.64997839741409,7.290947220774832,31.220045781174523,14,9,0.0,15,374638311605192,110,14.8,-262.40277099609375,1.9329999685287476,0,0.0,0.0,,,,,0,,5,,
Raw,3454096,3474015000000,,,-1278313578426120704,0.0,115.64997839741409,7.290947220774832,31.220045781174523,14,10,0.0,15,374638312438797,1422,16.0,306.62945556640625,25.094501495361328,0,0.0,0.0,,,,,0,,5,,
Raw,3454096,3474015000000,,,-1278313578426120704,0.0,115.64997839741409,7.290947220774832,31.220045781174523,14,13,0.0,15,374638315637177,382,14.4,-71.44829559326172,11.779000282287598,0,0.0,0.0,,,,,0,,5,,
Raw,3454097,3474015000000,,,-1278313578426120704,0.0,115.64997839741409,7.290947220774832,31.220045781174523,14,16,0.0,15,374638315275633,319,12.7,-262.73883056640625,9.749000549316406,0,0.0,0.0,,,,,0,,5,,
Raw,3454097,3474015000000,,,-1278313578426120704,0.0,115.64997839741409,7.290947220774832,31.220045781174523,14,19,0.0,15,374638353121912,14,30.5,-517.2772827148438,0.04530000314116478,0,0.0,0.0,,,,,0,,5,,
Raw,3454098,3474015000000,,,-1278313578426120704,0.0,115.64997839741409,7.290947220774832,31.220045781174523,14,20,0.0,15,374638365136992,259,11.8,-236.2085723876953,7.484000205993652,0,0.0,0.0,,,,,0,,5,,
Raw,3454098,3474015000000,,,-1278313578426120704,0.0,115.64997839741409,7.290947220774832,31.220045781174523,14,27,0.0,15,374638365374573,121,15.4,323.88421630859375,4.174000263214111,0,0.0,0.0,,,,,0,,5,,
Raw,3454099,3474015000000,,,-1278313578426120704,0.0,115.64997839741409,7.290947220774832,31.220045781174523,14,29,0.0,15,374638357042913,81,16.0,-565.9595947265625,1.1019999980926514,0,0.0,0.0,,,,,0,,5,,
Raw,3454099,3474015000000,,,-1278313578426120704,0.0,115.64997839741409,7.290947220774832,31.220045781174523,14,30,0.0,15,374638368722704,260,18.4,-216.2268829345703,9.928500175476074,0,0.0,0.0,,,,,0,,5,,
Raw,3454100,3474015000000,,,-1278313578426120704,0.0,115.64997839741409,7.290947220774832,31.220045781174523,14,4,0.0,7183,374652356681311,31,23.4,-450.12066650390625,0.6004999876022339,0,0.0,0.0,,,,,0,,6,,
Raw,3454100,3474015000000,,,-1278313578426120704,0.0,115.64997839741409,7.290947220774832,31.220045781174523,14,11,0.0,7183,374652350616999,70,17.5,-402.9183349609375,0.9434999823570251,0,0.0,0.0,,,,,0,,6,,
Raw,3454101,3474015000000,,,-1278313578426120704,0.0,115.64997839741409,7.290947220774832,31.220045781174523,14,24,0.0,7183,374652352916033,12,32.1,279.6270446777344,0.31050002574920654,0,0.0,0.0,,,,,0,,6,,
Raw,3454101,3474015000000,,,-1278313578426120704,0.0,115.64997839741409,7.290947220774832,31.220045781174523,14,31,0.0,7183,374652347491977,31,23.8,347.28594970703125,0.5989999771118164,0,0.0,0.0,,,,,0,,6,,
Fix,gps,22.925194,120.294383,70.138184,0.770000,9.648001,1594281836000
NMEA,$GPGSV,4,1,13,02,52,001,13,05,55,296,18,06,42,063,15,12,23,260,33*7E,1594281835458
NMEA,$GPGSV,4,2,13,13,30,184,19,15,07,208,31,17,22,147,16,19,42,146,23*7D,1594281835459
NMEA,$GPGSV,4,3,13,25,10,289,27,29,04,323,23,07,04,090,,09,17,042,*73,1594281835459
NMEA,$GPGSV,4,4,13,30,07,119,*46,1594281835459
NMEA,$GLGSV,2,1,06,70,27,023,18,65,00,000,10,85,54,090,15,71,75,336,15*6F,1594281835459
NMEA,$GLGSV,2,2,06,72,41,223,16,84,07,129,*66,1594281835460
NMEA,$GAGSV,1,1,04,04,38,206,25,11,04,310,18,24,07,262,33,31,08,216,24*61,1594281835461
NMEA,$PQGSV,1,1,01,195,71,139,15,0,5*6F,1594281835463
NMEA,$PQGSV,4,1,16,04,37,113,20,05,17,258,27,06,47,172,11,07,21,195,23,0,4*68,1594281835463
NMEA,$PQGSV,4,2,16,09,25,191,17,10,27,220,16,13,40,330,14,16,43,178,13,0,4*67,1594281835464
Raw,3455090,3475015000000,,,-1278313578426120704,0.0,109.95203774655238,-5.626938913597616,26.248236448493586,14,6,0.0,207,39835368096075,118,18.1,695.7677612304688,5.708500385284424,0,0.0,0.0,,,,,0,,3,,
Raw,3455090,3475015000000,,,-1278313578426120704,0.0,109.95203774655238,-5.626938913597616,26.248236448493586,14,1,0.0,207,39835359359779,3095,10.1,-722.2518920898438,37.2400016784668,0,0.0,0.0,,,,,0,,3,,
Raw,3455090,3475015000000,,,-1278313578426120704,0.0,109.95203774655238,-5.626938913597616,26.248236448493586,14,21,0.0,207,39835374268475,123,15.0,99.19266510009766,4.4775004386901855,0,0.0,0.0,,,,,0,,3,,
Raw,3455091,3475015000000,,,-1278313578426120704,0.0,109.95203774655238,-5.626938913597616,26.248236448493586,14,7,0.0,207,39835376633108,187,14.5,181.91403198242188,6.83050012588501,0,0.0,0.0,,,,,0,,3,,
Raw,3455091,3475015000000,,,-1278313578426120704,0.0,109.95203774655238,-5.626938913597616,26.248236448493586,14,8,0.0,207,39835371729700,103,15.8,-480.36822509765625,2.9730000495910645,0,0.0,0.0,,,,,0,,3,,
Raw,3455091,3475015000000,,,-1278313578426120704,0.0,109.95203774655238,-5.626938913597616,26.248236448493586,14,2,0.0,15,374653368340707,530,13.4,-219.77015686035156,14.358500480651855,0,0.0,0.0,,,,,0,,1,,
Raw,3455092,3475015000000,,,-1278313578426120704,0.0,109.95203774655238,-5.626938913597616,26.248236448493586,14,5,0.0,15,374653371453007,273,17.7,-41.74091720581055,10.093000411987305,0,0.0,0.0,,,,,0,,1,,
Raw,3455092,3475015000000,,,-1278313578426120704,0.0,109.95203774655238,-5.626938913597616,26.248236448493586,14,6,0.0,15,374653367922155,191,15.0,113.51968383789062,7.367000102996826,0,0.0,0.0,,,,,0,,1,,
