# 
# Header Description:
# 
# Version: v2.0.0.1 Platform: 8.0.0 Manufacturer: Sony Model: G8142
# 
# Raw,ElapsedRealtimeMillis,TimeNanos,LeapSecond,TimeUncertaintyNanos,FullBiasNanos,BiasNanos,BiasUncertaintyNanos,DriftNanosPerSecond,DriftUncertaintyNanosPerSecond,HardwareClockDiscontinuityCount,Svid,TimeOffsetNanos,State,ReceivedSvTimeNanos,ReceivedSvTimeUncertaintyNanos,Cn0DbHz,PseudorangeRateMetersPerSecond,PseudorangeRateUncertaintyMetersPerSecond,AccumulatedDeltaRangeState,AccumulatedDeltaRangeMeters,AccumulatedDeltaRangeUncertaintyMeters,CarrierFrequencyHz,CarrierCycles,CarrierPhase,CarrierPhaseUncertainty,MultipathIndicator,SnrInDb,ConstellationType,AgcDb,CarrierFrequencyHz
# 
# Fix,Provider,Latitude,Longitude,Altitude,Speed,Accuracy,(UTC)TimeInMs
# 
# Nav,Svid,Type,Status,MessageId,Sub-messageId,Data(Bytes)
# 
Raw,8916340,9149881000000,,,-1287378671552264960,0.0,50.25853533879854,-1.8724926265456587,17.11477781575572,7,18,0.0,207,38603353727704,11,33.3,511.5815734863281,0.24240000545978546,0,0.0,0.0,,,,,0,,3,,
Raw,8916341,9149881000000,,,-1287378671552264960,0.0,50.25853533879854,-1.8724926265456587,17.11477781575572,7,15,0.0,207,38603354097807,13,31.3,-806.4842529296875,0.24620001018047333,0,0.0,0.0,,,,,0,,3,,
Raw,8916341,9149881000000,,,-1287378671552264960,0.0,50.25853533879854,-1.8724926265456587,17.11477781575572,7,19,0.0,207,38603354151261,53,19.0,262.1264953613281,1.1375000476837158,0,0.0,0.0,,,,,0,,3,,
Raw,8916341,9149881000000,,,-1287378671552264960,0.0,50.25853533879854,-1.8724926265456587,17.11477781575572,7,3,0.0,207,38603365185838,84,16.6,-261.73724365234375,2.124000072479248,0,0.0,0.0,,,,,0,,3,,
Raw,8916342,9149881000000,,,-1287378671552264960,0.0,50.25853533879854,-1.8724926265456587,17.11477781575572,7,4,0.0,207,38603357091935,81,16.5,-535.1212768554688,1.4070000648498535,0,0.0,0.0,,,,,0,,3,,
Raw,8916342,9149881000000,,,-1287378671552264960,0.0,50.25853533879854,-1.8724926265456587,17.11477781575572,7,10,0.0,15,373421362634248,96,15.9,-412.36639404296875,2.009500026702881,0,0.0,0.0,,,,,0,,1,,
Raw,8916342,9149881000000,,,-1287378671552264960,0.0,50.25853533879854,-1.8724926265456587,17.11477781575572,7,23,0.0,15,373421366025866,135,15.4,-20.40899658203125,5.115500450134277,0,0.0,0.0,,,,,0,,1,,
Raw,8916343,9149881000000,,,-1287378671552264960,0.0,50.25853533879854,-1.8724926265456587,17.11477781575572,7,31,0.0,15,373421353816686,8,36.9,-573.4751586914062,0.04070000350475311,0,0.0,0.0,,,,,0,,1,,
Raw,8916343,9149881000000,,,-1287378671552264960,0.0,50.25853533879854,-1.8724926265456587,17.11477781575572,7,32,0.0,15,373421356028895,46,20.4,-303.5945129394531,0.9404999613761902,0,0.0,0.0,,,,,0,,1,,
Raw,8916344,9149881000000,,,-1287378671552264960,0.0,50.25853533879854,-1.8724926265456587,17.11477781575572,7,5,0.0,783,373407300589672,24,28.0,3.168651580810547,1.9585000276565552,0,0.0,0.0,,,,,0,,5,,
Raw,8916344,9149881000000,,,-1287378671552264960,0.0,50.25853533879854,-1.8724926265456587,17.11477781575572,7,10,0.0,15,373407301060869,203,14.3,-236.40060424804688,7.258000373840332,0,0.0,0.0,,,,,0,,5,,
Raw,8916344,9149881000000,,,-1287378671552264960,0.0,50.25853533879854,-1.8724926265456587,17.11477781575572,7,13,0.0,15,373407310384022,35,22.1,283.4502868652344,0.6814999580383301,0,0.0,0.0,,,,,0,,5,,
Raw,8916345,9149881000000,,,-1287378671552264960,0.0,50.25853533879854,-1.8724926265456587,17.11477781575572,7,21,0.0,15,373407344775360,16,29.3,-505.65301513671875,0.03270000219345093,0,0.0,0.0,,,,,0,,5,,
Raw,8916345,9149881000000,,,-1287378671552264960,0.0,50.25853533879854,-1.8724926265456587,17.11477781575572,7,7,0.0,7183,373421351975234,405,18.3,-83.37716674804688,12.869000434875488,0,0.0,0.0,,,,,0,,6,,
Raw,8916345,9149881000000,,,-1287378671552264960,0.0,50.25853533879854,-1.8724926265456587,17.11477781575572,7,13,0.0,7183,373421341980981,124,14.9,456.55255126953125,3.4570000171661377,0,0.0,0.0,,,,,0,,6,,
Raw,8916346,9149881000000,,,-1287378671552264960,0.0,50.25853533879854,-1.8724926265456587,17.11477781575572,7,26,0.0,7183,373421348294425,24,25.0,332.53173828125,0.42080000042915344,0,0.0,0.0,,,,,0,,6,,
Raw,8916346,9149881000000,,,-1287378671552264960,0.0,50.25853533879854,-1.8724926265456587,17.11477781575572,7,33,0.0,7183,373421340971716,40,21.3,12.150251388549805,0.7055000066757202,0,0.0,0.0,,,,,0,,6,,
Fix,gps,22.925375,120.294618,43.687866,0.000000,9.648001,1603352604000
NMEA,$GPGSV,3,1,11,10,55,329,16,23,83,054,15,31,16,232,37,32,25,303,20*7C,1603352603426
NMEA,$GPGSV,3,2,11,12,42,097,,15,17,080,,18,27,198,,20,84,154,*7B,1603352603428
NMEA,$GPGSV,3,3,11,21,02,314,,24,31,035,,25,42,150,*49,1603352603429
NMEA,$GLGSV,2,1,05,82,07,237,33,79,07,202,31,83,09,282,19,67,47,019,17*6D,1603352603429
NMEA,$GLGSV,2,2,05,68,16,327,17*59,1603352603429
NMEA,$GAGSV,2,1,07,07,53,014,18,13,12,192,15,26,25,246,25,33,12,295,21*64,1603352603429
NMEA,$GAGSV,2,2,07,21,04,201,,27,49,170,,30,52,071,*57,1603352603430
NMEA,$PQGSV,1,1,01,194,63,108,17,0,5*6D,1603352603431
NMEA,$PQGSV,4,1,16,05,17,258,28,10,18,188,14,13,47,227,22,21,07,313,29,0,4*6B,1603352603431
NMEA,$PQGSV,4,2,16,01,51,130,,02,41,241,,03,60,202,,04,37,115,,0,4*6D,1603352603431
NMEA,$PQGSV,4,3,16,06,53,352,,07,35,165,,08,35,196,,09,45,312,,0,4*64,1603352603432
NMEA,$PQGSV,4,4,16,16,52,344,,19,54,088,,20,09,119,,22,52,343,,0,4*67,1603352603432
NMEA,$GNGSA,A,2,10,31,32,,,,,,,,,,1.6,1.3,0.9,1*3E,1603352603433
NMEA,$GNGSA,A,3,67,79,82,83,,,,,,,,,1.6,1.3,0.9,2*30,1603352603434
NMEA,$GNGSA,A,2,01,13,26,,,,,,,,,,1.6,1.3,0.9,3*39,1603352603434
NMEA,$PQGSA,A,2,05,13,,,,,,,,,,,1.6,1.3,0.9,4*36,1603352603434
NMEA,$GNVTG,,T,,M,0.0,N,0.0,K,A*3D,1603352603435
NMEA,$GNRMC,074324.00,A,2255.522498,N,12017.677055,E,0.0,,221020,2.8,W,A*1B,1603352603439
NMEA,$GNGGA,074324.00,2255.522498,N,12017.677055,E,1,12,1.3,26.2,M,17.5,M,,*43,1603352603442
Raw,8917452,9150881000000,,,-1287378671552264960,0.0,50.6008327647578,-1.7713556328429716,18.056445146806272,7,18,0.0,207,38604353725986,12,32.5,511.4309387207031,0.24340000748634338,0,0.0,0.0,,,,,0,,3,,
Raw,8917452,9150881000000,,,-1287378671552264960,0.0,50.6008327647578,-1.7713556328429716,18.056445146806272,7,15,0.0,207,38604354100534,12,32.0,-806.6106567382812,0.24490001797676086,0,0.0,0.0,,,,,0,,3,,
Raw,8917453,9150881000000,,,-1287378671552264960,0.0,50.6008327647578,-1.7713556328429716,18.056445146806272,7,19,0.0,207,38604354150416,46,20.3,261.7152404785156,1.0674999952316284,0,0.0,0.0,,,,,0,,3,,
Raw,8917454,9150881000000,,,-1287378671552264960,0.0,50.6008327647578,-1.7713556328429716,18.056445146806272,7,3,0.0,207,38604365186848,61,18.0,-262.49383544921875,1.2040001153945923,0,0.0,0.0,,,,,0,,3,,
Raw,8917454,9150881000000,,,-1287378671552264960,0.0,50.6008327647578,-1.7713556328429716,18.056445146806272,7,4,0.0,207,38604357093720,90,16.5,-535.1212768554688,2.9070000648498535,0,0.0,0.0,,,,,0,,3,,
Raw,8917455,9150881000000,,,-1287378671552264960,0.0,50.6008327647578,-1.7713556328429716,18.056445146806272,7,10,0.0,15,373422362635623,110,15.9,-412.36639404296875,3.509500026702881,0,0.0,0.0,,,,,0,,1,,
Raw,8917455,9150881000000,,,-1287378671552264960,0.0,50.6008327647578,-1.7713556328429716,18.056445146806272,7,23,0.0,15,373422366025934,170,15.4,-20.40899658203125,6.615500450134277,0,0.0,0.0,,,,,0,,1,,
Raw,8917456,9150881000000,,,-1287378671552264960,0.0,50.6008327647578,-1.7713556328429716,18.056445146806272,7,31,0.0,15,373422353818600,8,36.2,-573.5703735351562,0.04070000350475311,0,0.0,0.0,,,,,0,,1,,
Raw,8917457,9150881000000,,,-1287378671552264960,0.0,50.6008327647578,-1.7713556328429716,18.056445146806272,7,32,0.0,15,373422356029926,27,24.5,-304.08929443359375,0.640500009059906,0,0.0,0.0,,,,,0,,1,,
Raw,8917457,9150881000000,,,-1287378671552264960,0.0,50.6008327647578,-1.7713556328429716,18.056445146806272,7,5,0.0,783,373408300589655,19,28.1,3.763974189758301,1.2085000276565552,0,0.0,0.0,,,,,0,,5,,
Raw,8917458,9150881000000,,,-1287378671552264960,0.0,50.6008327647578,-1.7713556328429716,18.056445146806272,7,10,0.0,15,373408301061657,253,14.3,-236.40060424804688,8.758000373840332,0,0.0,0.0,,,,,0,,5,,
Raw,8917458,9150881000000,,,-1287378671552264960,0.0,50.6008327647578,-1.7713556328429716,18.056445146806272,7,13,0.0,15,373408310383141,35,22.1,283.1622314453125,0.6814999580383301,0,0.0,0.0,,,,,0,,5,,
Raw,8917459,9150881000000,,,-1287378671552264960,0.0,50.6008327647578,-1.7713556328429716,18.056445146806272,7,21,0.0,15,373408344777054,17,28.2,-505.82098388671875,0.03930000215768814,0,0.0,0.0,,,,,0,,5,,
Raw,8917460,9150881000000,,,-1287378671552264960,0.0,50.6008327647578,-1.7713556328429716,18.056445146806272,7,7,0.0,7183,373422351975512,493,18.3,-83.37716674804688,14.369000434875488,0,0.0,0.0,,,,,0,,6,,
Raw,8917461,9150881000000,,,-1287378671552264960,0.0,50.6008327647578,-1.7713556328429716,18.056445146806272,7,13,0.0,7183,373422341979458,148,14.9,456.55255126953125,4.957000255584717,0,0.0,0.0,,,,,0,,6,,
Raw,8917461,9150881000000,,,-1287378671552264960,0.0,50.6008327647578,-1.7713556328429716,18.056445146806272,7,26,0.0,7183,373422348293320,27,24.6,333.63238525390625,0.565500020980835,0,0.0,0.0,,,,,0,,6,,
Raw,8917462,9150881000000,,,-1287378671552264960,0.0,50.6008327647578,-1.7713556328429716,18.056445146806272,7,33,0.0,7183,373422340971657,40,21.1,11.90286922454834,0.6904999613761902,0,0.0,0.0,,,,,0,,6,,
Fix,gps,22.925375,120.294628,43.082520,0.000000,10.720000,1603352605000
NMEA,$GPGSV,3,1,11,10,55,329,16,23,83,054,15,31,16,232,36,32,25,303,25*78,1603352604424
NMEA,$GPGSV,3,2,11,12,42,097,,15,17,080,,18,27,198,,20,84,154,*7B,1603352604424
NMEA,$GPGSV,3,3,11,21,02,314,,24,31,035,,25,42,150,*49,1603352604425
NMEA,$GLGSV,2,1,05,82,07,237,33,79,07,202,32,83,09,282,20,67,47,019,18*6B,1603352604426
NMEA,$GLGSV,2,2,05,68,16,327,17*59,1603352604427
NMEA,$GAGSV,2,1,07,07,53,014,18,13,12,192,15,26,25,246,25,33,12,295,21*64,1603352604427
NMEA,$GAGSV,2,2,07,21,04,201,,27,49,170,,30,52,071,*57,1603352604427
NMEA,$PQGSV,1,1,01,194,63,108,17,0,5*6D,1603352604427
NMEA,$PQGSV,4,1,16,05,17,258,28,10,18,188,14,13,47,227,22,21,07,313,28,0,4*6A,1603352604427
NMEA,$PQGSV,4,2,16,01,51,130,,02,41,241,,03,60,202,,04,37,115,,0,4*6D,1603352604428
NMEA,$PQGSV,4,3,16,06,53,352,,07,35,165,,08,35,196,,09,45,312,,0,4*64,1603352604428
NMEA,$PQGSV,4,4,16,16,52,344,,19,54,088,,20,09,119,,22,52,343,,0,4*67,1603352604428
NMEA,$GNGSA,A,2,31,32,,,,,,,,,,,1.6,1.3,0.9,1*3F,1603352604429
NMEA,$GNGSA,A,3,67,79,82,83,,,,,,,,,1.6,1.3,0.9,2*30,1603352604429
NMEA,$GNGSA,A,2,01,26,,,,,,,,,,,1.6,1.3,0.9,3*3B,1603352604429
NMEA,$PQGSA,A,2,05,13,,,,,,,,,,,1.6,1.3,0.9,4*36,1603352604429
NMEA,$GNVTG,,T,,M,0.0,N,0.0,K,A*3D,1603352604429
NMEA,$GNRMC,074325.00,A,2255.522502,N,12017.677698,E,0.0,,221020,2.8,W,A*1F,1603352604429
NMEA,$GNGGA,074325.00,2255.522502,N,12017.677698,E,1,10,1.3,25.6,M,17.5,M,,*42,1603352604430
Fix,gps,22.925376,120.294637,42.902893,0.000000,10.720000,1603352606000
NMEA,$GPGSV,3,1,11,10,55,329,17,23,83,054,13,31,16,232,37,32,25,303,28*73,1603352605425
NMEA,$GPGSV,3,2,11,12,42,097,,15,17,080,,18,27,198,,20,84,154,*7B,1603352605425
Raw,8918330,9151881000000,,,-1287378671552264960,0.0,55.01014311448671,-1.2400391276032972,18.077590018906932,7,18,0.0,207,38605353724247,13,31.6,508.90728759765625,0.24469999969005585,0,0.0,0.0,,,,,0,,3,,
Raw,8918330,9151881000000,,,-1287378671552264960,0.0,55.01014311448671,-1.2400391276032972,18.077590018906932,7,15,0.0,207,38605354103221,12,32.7,-809.1231689453125,0.24490001797676086,0,0.0,0.0,,,,,0,,3,,
Raw,8918331,9151881000000,,,-1287378671552264960,0.0,55.01014311448671,-1.2400391276032972,18.077590018906932,7,19,0.0,207,38605354149481,35,22.3,259.6775817871094,0.9624999761581421,0,0.0,0.0,,,,,0,,3,,
Raw,8918331,9151881000000,,,-1287378671552264960,0.0,55.01014311448671,-1.2400391276032972,18.077590018906932,7,3,0.0,207,38605365187735,40,21.2,-264.203125,0.9939999580383301,0,0.0,0.0,,,,,0,,3,,
Raw,8918332,9151881000000,,,-1287378671552264960,0.0,55.01014311448671,-1.2400391276032972,18.077590018906932,7,4,0.0,207,38605357095586,84,16.1,-534.673095703125,2.1419999599456787,0,0.0,0.0,,,,,0,,3,,
Raw,8918333,9151881000000,,,-1287378671552264960,0.0,55.01014311448671,-1.2400391276032972,18.077590018906932,7,10,0.0,15,373423362636991,84,16.7,-415.3445129394531,1.9194999933242798,0,0.0,0.0,,,,,0,,1,,
Raw,8918333,9151881000000,,,-1287378671552264960,0.0,55.01014311448671,-1.2400391276032972,18.077590018906932,7,23,0.0,15,373423366026098,159,12.5,-21.798139572143555,3.8555002212524414,0,0.0,0.0,,,,,0,,1,,
Raw,8918334,9151881000000,,,-1287378671552264960,0.0,55.01014311448671,-1.2400391276032972,18.077590018906932,7,31,0.0,15,373423353820517,8,36.9,-576.0491943359375,0.04070000350475311,0,0.0,0.0,,,,,0,,1,,
Raw,8918334,9151881000000,,,-1287378671552264960,0.0,55.01014311448671,-1.2400391276032972,18.077590018906932,7,32,0.0,15,373423356030938,19,27.6,-307.0673828125,0.5354999899864197,0,0.0,0.0,,,,,0,,1,,
Raw,8918335,9151881000000,,,-1287378671552264960,0.0,55.01014311448671,-1.2400391276032972,18.077590018906932,7,5,0.0,783,373409300589660,17,28.7,-2.0836286544799805,0.4584999978542328,0,0.0,0.0,,,,,0,,5,,
Raw,8918335,9151881000000,,,-1287378671552264960,0.0,55.01014311448671,-1.2400391276032972,18.077590018906932,7,10,0.0,15,373409301062446,312,14.3,-236.40060424804688,10.258000373840332,0,0.0,0.0,,,,,0,,5,,
Raw,8918336,9151881000000,,,-1287378671552264960,0.0,55.01014311448671,-1.2400391276032972,18.077590018906932,7,13,0.0,15,373409310382225,40,21.7,280.1087951660156,0.7414999604225159,0,0.0,0.0,,,,,0,,5,,
Raw,8918336,9151881000000,,,-1287378671552264960,0.0,55.01014311448671,-1.2400391276032972,18.077590018906932,7,21,0.0,15,373409344778709,21,26.8,-508.72222900390625,0.4625000059604645,0,0.0,0.0,,,,,0,,5,,
Raw,8918337,9151881000000,,,-1287378671552264960,0.0,55.01014311448671,-1.2400391276032972,18.077590018906932,7,7,0.0,7183,373423351975790,591,18.3,-83.37716674804688,15.869000434875488,0,0.0,0.0,,,,,0,,6,,
Raw,8918337,9151881000000,,,-1287378671552264960,0.0,55.01014311448671,-1.2400391276032972,18.077590018906932,7,13,0.0,7183,373423341977938,84,16.9,454.4688415527344,1.787000060081482,0,0.0,0.0,,,,,0,,6,,
Raw,8918338,9151881000000,,,-1287378671552264960,0.0,55.01014311448671,-1.2400391276032972,18.077590018906932,7,26,0.0,7183,373423348292210,31,23.2,330.7969970703125,0.6155000329017639,0,0.0,0.0,,,,,0,,6,,
Raw,8918338,9151881000000,,,-1287378671552264960,0.0,55.01014311448671,-1.2400391276032972,18.077590018906932,7,33,0.0,7183,373423340971643,53,19.4,9.457595825195312,0.8255000114440918,0,0.0,0.0,,,,,0,,6,,
NMEA,$GPGSV,3,3,11,21,02,314,,24,31,035,,25,42,150,*49,1603352605425
NMEA,$GLGSV,2,1,05,82,07,237,32,79,07,202,33,83,09,282,22,67,47,019,21*63,1603352605427
NMEA,$GLGSV,2,2,05,68,16,327,16*58,1603352605427
NMEA,$GAGSV,2,1,07,07,53,014,18,13,12,192,17,26,25,246,23,33,12,295,19*6B,1603352605427
NMEA,$GAGSV,2,2,07,21,04,201,,27,49,170,,30,52,071,*57,1603352605428
NMEA,$PQGSV,1,1,01,194,63,108,17,0,5*6D,1603352605429
NMEA,$PQGSV,4,1,16,05,17,258,29,10,18,188,14,13,47,227,22,21,07,313,27,0,4*64,1603352605429
NMEA,$PQGSV,4,2,16,01,51,130,,02,41,241,,03,60,202,,04,37,115,,0,4*6D,1603352605429
NMEA,$PQGSV,4,3,16,06,53,352,,07,35,165,,08,35,196,,09,45,312,,0,4*64,1603352605429
NMEA,$PQGSV,4,4,16,16,52,344,,19,54,088,,20,09,119,,22,52,343,,0,4*67,1603352605430
NMEA,$GNGSA,A,2,31,32,,,,,,,,,,,1.6,1.3,0.9,1*3F,1603352605431
NMEA,$GNGSA,A,3,67,79,82,83,,,,,,,,,1.6,1.3,0.9,2*30,1603352605431
NMEA,$GNGSA,A,2,01,26,,,,,,,,,,,1.6,1.3,0.9,3*3B,1603352605431
NMEA,$PQGSA,A,2,05,13,,,,,,,,,,,1.6,1.3,0.9,4*36,1603352605431
NMEA,$GNVTG,,T,,M,0.0,N,0.0,K,A*3D,1603352605431
NMEA,$GNRMC,074326.00,A,2255.522534,N,12017.678219,E,0.0,,221020,2.8,W,A*1B,1603352605432
NMEA,$GNGGA,074326.00,2255.522534,N,12017.678219,E,1,10,1.3,25.4,M,17.5,M,,*44,1603352605432
Fix,gps,22.925376,120.294643,42.875183,0.000000,10.720000,1603352607000
Raw,8919331,9152881000000,,,-1287378671552264960,0.0,55.36215758183971,-11.803180854285877,16.263081963210198,7,18,0.0,207,38606353722567,12,32.0,507.5130615234375,0.24340000748634338,0,0.0,0.0,,,,,0,,3,,
Raw,8919332,9152881000000,,,-1287378671552264960,0.0,55.36215758183971,-11.803180854285877,16.263081963210198,7,15,0.0,207,38606354105930,12,32.5,-810.5061645507812,0.24490001797676086,0,0.0,0.0,,,,,0,,3,,
Raw,8919332,9152881000000,,,-1287378671552264960,0.0,55.36215758183971,-11.803180854285877,16.263081963210198,7,19,0.0,207,38606354148588,31,23.3,257.70538330078125,0.887499988079071,0,0.0,0.0,,,,,0,,3,,
Raw,8919333,9152881000000,,,-1287378671552264960,0.0,55.36215758183971,-11.803180854285877,16.263081963210198,7,3,0.0,207,38606365188485,40,21.0,-265.56683349609375,0.9939999580383301,0,0.0,0.0,,,,,0,,3,,
Raw,8919334,9152881000000,,,-1287378671552264960,0.0,55.36215758183971,-11.803180854285877,16.263081963210198,7,4,0.0,207,38606357097369,99,16.1,-534.673095703125,3.642000198364258,0,0.0,0.0,,,,,0,,3,,
Raw,8919334,9152881000000,,,-1287378671552264960,0.0,55.36215758183971,-11.803180854285877,16.263081963210198,7,10,0.0,15,373424362638467,53,19.3,-416.98101806640625,0.999500036239624,0,0.0,0.0,,,,,0,,1,,
Raw,8919335,9152881000000,,,-1287378671552264960,0.0,55.36215758183971,-11.803180854285877,16.263081963210198,7,23,0.0,15,373424366026094,46,20.3,-25.242456436157227,0.9254999756813049,0,0.0,0.0,,,,,0,,1,,
Raw,8919336,9152881000000,,,-1287378671552264960,0.0,55.36215758183971,-11.803180854285877,16.263081963210198,7,31,0.0,15,373424353822434,8,36.2,-577.4095458984375,0.04070000350475311,0,0.0,0.0,,,,,0,,1,,
Raw,8919336,9152881000000,,,-1287378671552264960,0.0,55.36215758183971,-11.803180854285877,16.263081963210198,7,32,0.0,15,373424356031933,19,27.4,-308.0652770996094,0.06530000269412994,0,0.0,0.0,,,,,0,,1,,
Raw,8919337,9152881000000,,,-1287378671552264960,0.0,55.36215758183971,-11.803180854285877,16.263081963210198,7,5,0.0,783,373410300589671,17,28.8,-0.2688552737236023,0.4284999966621399,0,0.0,0.0,,,,,0,,5,,
Raw,8919337,9152881000000,,,-1287378671552264960,0.0,55.36215758183971,-11.803180854285877,16.263081963210198,7,10,0.0,15,373410301063234,381,14.3,-236.40060424804688,11.758000373840332,0,0.0,0.0,,,,,0,,5,,
Raw,8919338,9152881000000,,,-1287378671552264960,0.0,55.36215758183971,-11.803180854285877,16.263081963210198,7,13,0.0,15,373410310381289,31,23.6,278.7453308105469,0.6315000057220459,0,0.0,0.0,,,,,0,,5,,
Raw,8919338,9152881000000,,,-1287378671552264960,0.0,55.36215758183971,-11.803180854285877,16.263081963210198,7,21,0.0,15,373410344780385,24,25.5,-509.6990051269531,0.387800008058548,0,0.0,0.0,,,,,0,,5,,
Raw,8919338,9152881000000,,,-1287378671552264960,0.0,55.36215758183971,-11.803180854285877,16.263081963210198,7,7,0.0,7183,373424351976068,699,18.3,-83.37716674804688,17.369001388549805,0,0.0,0.0,,,,,0,,6,,
Raw,8919339,9152881000000,,,-1287378671552264960,0.0,55.36215758183971,-11.803180854285877,16.263081963210198,7,13,0.0,7183,373424341976462,40,21.1,452.6134948730469,0.7069999575614929,0,0.0,0.0,,,,,0,,6,,
Raw,8919339,9152881000000,,,-1287378671552264960,0.0,55.36215758183971,-11.803180854285877,16.263081963210198,7,26,0.0,7183,373424348291144,46,20.6,329.4934997558594,0.765500009059906,0,0.0,0.0,,,,,0,,6,,
Raw,8919340,9152881000000,,,-1287378671552264960,0.0,55.36215758183971,-11.803180854285877,16.263081963210198,7,33,0.0,7183,373424340971615,46,20.7,8.57273006439209,0.750499963760376,0,0.0,0.0,,,,,0,,6,,
NMEA,$GPGSV,3,1,11,10,55,329,19,23,83,054,20,31,16,232,36,32,25,303,27*73,1603352606425
NMEA,$GPGSV,3,2,11,12,42,097,,15,17,080,,18,27,198,,20,84,154,*7B,1603352606425
NMEA,$GPGSV,3,3,11,21,02,314,,24,31,035,,25,42,150,*49,1603352606425
NMEA,$GLGSV,2,1,05,82,07,237,32,79,07,202,33,83,09,282,23,67,47,019,21*62,1603352606425
NMEA,$GLGSV,2,2,05,68,16,327,16*58,1603352606427
NMEA,$GAGSV,2,1,07,07,53,014,18,13,12,192,21,26,25,246,21,33,12,295,21*67,1603352606427
NMEA,$GAGSV,2,2,07,21,04,201,,27,49,170,,30,52,071,*57,1603352606428
NMEA,$PQGSV,1,1,01,194,63,108,17,0,5*6D,1603352606428
NMEA,$PQGSV,4,1,16,05,17,258,29,10,18,188,14,13,47,227,24,21,07,313,26,0,4*63,1603352606429
NMEA,$PQGSV,4,2,16,01,51,130,,02,41,241,,03,60,202,,04,37,115,,0,4*6D,1603352606429
NMEA,$PQGSV,4,3,16,06,53,352,,07,35,165,,08,35,196,,09,45,312,,0,4*64,1603352606429
NMEA,$PQGSV,4,4,16,16,52,344,,19,54,088,,20,09,119,,22,52,343,,0,4*67,1603352606430
NMEA,$GNGSA,A,2,31,32,,,,,,,,,,,1.4,1.1,0.9,1*3F,1603352606431
NMEA,$GNGSA,A,3,67,79,82,83,,,,,,,,,1.4,1.1,0.9,2*30,1603352606431
NMEA,$GNGSA,A,2,01,26,,,,,,,,,,,1.4,1.1,0.9,3*3B,1603352606431
NMEA,$PQGSA,A,2,05,13,,,,,,,,,,,1.4,1.1,0.9,4*36,1603352606431
NMEA,$GNVTG,,T,,M,0.0,N,0.0,K,A*3D,1603352606432
NMEA,$GNRMC,074327.00,A,2255.522555,N,12017.678588,E,0.0,,221020,2.8,W,A*12,1603352606432
NMEA,$GNGGA,074327.00,2255.522555,N,12017.678588,E,1,10,1.1,25.4,M,17.5,M,,*4F,1603352606432
Raw,8920329,9153881000000,,,-1287378671552264960,0.0,60.413014580262825,-15.744380468147584,17.966723385836953,7,18,0.0,207,38607353720874,12,32.7,506.3977966308594,0.24340000748634338,0,0.0,0.0,,,,,0,,3,,
Raw,8920329,9153881000000,,,-1287378671552264960,0.0,60.413014580262825,-15.744380468147584,17.966723385836953,7,15,0.0,207,38607354108605,14,30.2,-811.5558471679688,0.2468000054359436,0,0.0,0.0,,,,,0,,3,,
Raw,8920330,9153881000000,,,-1287378671552264960,0.0,60.413014580262825,-15.744380468147584,17.966723385836953,7,19,0.0,207,38607354147769,31,23.8,256.9482727050781,0.9024999737739563,0,0.0,0.0,,,,,0,,3,,
Raw,8920330,9153881000000,,,-1287378671552264960,0.0,60.413014580262825,-15.744380468147584,17.966723385836953,7,3,0.0,207,38607365189499,40,21.4,-266.2673645019531,0.9939999580383301,0,0.0,0.0,,,,,0,,3,,
Raw,8920330,9153881000000,,,-1287378671552264960,0.0,60.413014580262825,-15.744380468147584,17.966723385836953,7,4,0.0,207,38607357099235,96,15.7,-538.1744995117188,2.246999979019165,0,0.0,0.0,,,,,0,,3,,
Raw,8920330,9153881000000,,,-1287378671552264960,0.0,60.413014580262825,-15.744380468147584,17.966723385836953,7,10,0.0,15,373425362639937,70,17.7,-418.16082763671875,1.0794999599456787,0,0.0,0.0,,,,,0,,1,,
Raw,8920330,9153881000000,,,-1287378671552264960,0.0,60.413014580262825,-15.744380468147584,17.966723385836953,7,23,0.0,15,373425366026167,53,19.3,-25.623044967651367,1.005500078201294,0,0.0,0.0,,,,,0,,1,,
Raw,8920330,9153881000000,,,-1287378671552264960,0.0,60.413014580262825,-15.744380468147584,17.966723385836953,7,31,0.0,15,373425353824357,8,36.6,-578.4493408203125,0.04070000350475311,0,0.0,0.0,,,,,0,,1,,
Raw,8920331,9153881000000,,,-1287378671552264960,0.0,60.413014580262825,-15.744380468147584,17.966723385836953,7,32,0.0,15,373425356032976,24,25.5,-309.1729431152344,0.42080000042915344,0,0.0,0.0,,,,,0,,1,,
Raw,8920331,9153881000000,,,-1287378671552264960,0.0,60.413014580262825,-15.744380468147584,17.966723385836953,7,5,0.0,783,373411300589662,16,29.0,-3.1974573135375977,0.4284999966621399,0,0.0,0.0,,,,,0,,5,,
Raw,8920331,9153881000000,,,-1287378671552264960,0.0,60.413014580262825,-15.744380468147584,17.966723385836953,7,10,0.0,15,373411301064023,460,14.3,-236.40060424804688,13.258000373840332,0,0.0,0.0,,,,,0,,5,,
Raw,8920331,9153881000000,,,-1287378671552264960,0.0,60.413014580262825,-15.744380468147584,17.966723385836953,7,13,0.0,15,373411310380312,46,20.6,278.27484130859375,0.8014999628067017,0,0.0,0.0,,,,,0,,5,,
Raw,8920331,9153881000000,,,-1287378671552264960,0.0,60.413014580262825,-15.744380468147584,17.966723385836953,7,21,0.0,15,373411344782132,21,26.6,-510.9392395019531,0.11720000207424164,0,0.0,0.0,,,,,0,,5,,
Raw,8920332,9153881000000,,,-1287378671552264960,0.0,60.413014580262825,-15.744380468147584,17.966723385836953,7,7,0.0,7183,373425351976346,818,18.3,-83.37716674804688,18.869001388549805,0,0.0,0.0,,,,,0,,6,,
Raw,8920332,9153881000000,,,-1287378671552264960,0.0,60.413014580262825,-15.744380468147584,17.966723385836953,7,13,0.0,7183,373425341974952,48,21.1,452.6134948730469,2.2070000171661377,0,0.0,0.0,,,,,0,,6,,
Raw,8920332,9153881000000,,,-1287378671552264960,0.0,60.413014580262825,-15.744380468147584,17.966723385836953,7,26,0.0,7183,373425348289999,24,25.2,328.4754333496094,0.5354999899864197,0,0.0,0.0,,,,,0,,6,,
Raw,8920332,9153881000000,,,-1287378671552264960,0.0,60.413014580262825,-15.744380468147584,17.966723385836953,7,33,0.0,7183,373425340971571,53,19.5,7.906702041625977,0.8255000114440918,0,0.0,0.0,,,,,0,,6,,
Fix,gps,22.925376,120.294647,42.889587,0.000000,10.720000,1603352608000
NMEA,$GPGSV,3,1,11,10,55,329,18,23,83,054,19,31,16,232,37,32,25,303,26*78,1603352607429
NMEA,$GPGSV,3,2,11,12,42,097,,15,17,080,,18,27,198,,20,84,154,*7B,1603352607429
NMEA,$GPGSV,3,3,11,21,02,314,,24,31,035,,25,42,150,*49,1603352607429
NMEA,$GLGSV,2,1,05,82,07,237,33,79,07,202,30,83,09,282,24,67,47,019,21*67,1603352607429
NMEA,$GLGSV,2,2,05,68,16,327,16*58,1603352607429
NMEA,$GAGSV,2,1,07,07,53,014,18,13,12,192,21,26,25,246,25,33,12,295,20*62,1603352607430
NMEA,$GAGSV,2,2,07,21,04,201,,27,49,170,,30,52,071,*57,1603352607430
NMEA,$PQGSV,1,1,01,194,63,108,13,0,5*69,1603352607430
NMEA,$PQGSV,4,1,16,05,17,258,29,10,18,188,14,13,47,227,21,21,07,313,27,0,4*67,1603352607431
NMEA,$PQGSV,4,2,16,01,51,130,,02,41,241,,03,60,202,,04,37,115,,0,4*6D,1603352607431
NMEA,$PQGSV,4,3,16,06,53,352,,07,35,165,,08,35,196,,09,45,312,,0,4*64,1603352607431
NMEA,$PQGSV,4,4,16,16,52,344,,19,54,088,,20,09,119,,22,52,343,,0,4*67,1603352607432
NMEA,$GNGSA,A,2,23,31,32,,,,,,,,,,1.4,1.1,0.9,1*3E,1603352607433
NMEA,$GNGSA,A,3,67,79,82,83,,,,,,,,,1.4,1.1,0.9,2*30,1603352607434
NMEA,$GNGSA,A,2,01,13,26,,,,,,,,,,1.4,1.1,0.9,3*39,1603352607434
NMEA,$PQGSA,A,2,05,13,,,,,,,,,,,1.4,1.1,0.9,4*36,1603352607434
NMEA,$GNVTG,,T,,M,0.0,N,0.0,K,A*3D,1603352607435
NMEA,$GNRMC,074328.00,A,2255.522566,N,12017.678804,E,0.0,,221020,2.8,W,A*14,1603352607435
NMEA,$GNGGA,074328.00,2255.522566,N,12017.678804,E,1,12,1.1,25.4,M,17.5,M,,*4B,1603352607435
Fix,gps,22.925376,120.294649,42.878784,0.000000,10.720000,1603352609000
Raw,8921742,9154881000000,,,-1287378671552264960,0.0,58.69493543286808,-18.966011845335725,15.620229498400557,7,18,0.0,207,38608353719208,10,34.3,507.5993347167969,0.24160000681877136,0,0.0,0.0,,,,,0,,3,,
Raw,8921743,9154881000000,,,-1287378671552264960,0.0,58.69493543286808,-18.966011845335725,15.620229498400557,7,15,0.0,207,38608354111326,14,30.5,-810.3756713867188,0.2468000054359436,0,0.0,0.0,,,,,0,,3,,
Raw,8921743,9154881000000,,,-1287378671552264960,0.0,58.69493543286808,-18.966011845335725,15.620229498400557,7,19,0.0,207,38608354146879,27,24.8,258.0231628417969,0.8375000357627869,0,0.0,0.0,,,,,0,,3,,
Raw,8921743,9154881000000,,,-1287378671552264960,0.0,58.69493543286808,-18.966011845335725,15.620229498400557,7,3,0.0,207,38608365190315,40,21.4,-265.4267272949219,0.9939999580383301,0,0.0,0.0,,,,,0,,3,,
Raw,8921744,9154881000000,,,-1287378671552264960,0.0,58.69493543286808,-18.966011845335725,15.620229498400557,7,4,0.0,207,38608357101030,112,15.7,-538.1744995117188,3.747000217437744,0,0.0,0.0,,,,,0,,3,,
Raw,8921744,9154881000000,,,-1287378671552264960,0.0,58.69493543286808,-18.966011845335725,15.620229498400557,7,10,0.0,15,373426362641390,53,19.4,-416.72412109375,0.999500036239624,0,0.0,0.0,,,,,0,,1,,
Raw,8921744,9154881000000,,,-1287378671552264960,0.0,58.69493543286808,-18.966011845335725,15.620229498400557,7,23,0.0,15,373426366026350,53,19.5,-24.443222045898438,0.9254999756813049,0,0.0,0.0,,,,,0,,1,,
Raw,8921745,9154881000000,,,-1287378671552264960,0.0,58.69493543286808,-18.966011845335725,15.620229498400557,7,31,0.0,15,373426353826292,7,37.2,-577.2117309570312,0.04010000079870224,0,0.0,0.0,,,,,0,,1,,
Raw,8921745,9154881000000,,,-1287378671552264960,0.0,58.69493543286808,-18.966011845335725,15.620229498400557,7,32,0.0,15,373426356034037,21,26.7,-308.261962890625,0.1502000093460083,0,0.0,0.0,,,,,0,,1,,
Raw,8921746,9154881000000,,,-1287378671552264960,0.0,58.69493543286808,-18.966011845335725,15.620229498400557,7,5,0.0,783,373412300589667,14,30.4,-1.670743465423584,0.40849998593330383,0,0.0,0.0,,,,,0,,5,,
Raw,8921746,9154881000000,,,-1287378671552264960,0.0,58.69493543286808,-18.966011845335725,15.620229498400557,7,10,0.0,15,373412301064811,550,14.3,-236.40060424804688,14.758000373840332,0,0.0,0.0,,,,,0,,5,,
Raw,8921746,9154881000000,,,-1287378671552264960,0.0,58.69493543286808,-18.966011845335725,15.620229498400557,7,13,0.0,15,373412310379393,35,22.8,279.18701171875,0.6315000057220459,0,0.0,0.0,,,,,0,,5,,
Raw,8921747,9154881000000,,,-1287378671552264960,0.0,58.69493543286808,-18.966011845335725,15.620229498400557,7,21,0.0,15,373412344783848,19,27.6,-509.8398132324219,0.047300003468990326,0,0.0,0.0,,,,,0,,5,,
Raw,8921747,9154881000000,,,-1287378671552264960,0.0,58.69493543286808,-18.966011845335725,15.620229498400557,7,7,0.0,7183,373426351976624,946,18.3,-83.37716674804688,20.369001388549805,0,0.0,0.0,,,,,0,,6,,
Raw,8921747,9154881000000,,,-1287378671552264960,0.0,58.69493543286808,-18.966011845335725,15.620229498400557,7,13,0.0,7183,373426341973442,65,21.1,452.6134948730469,3.7070000171661377,0,0.0,0.0,,,,,0,,6,,
Raw,8921748,9154881000000,,,-1287378671552264960,0.0,58.69493543286808,-18.966011845335725,15.620229498400557,7,26,0.0,7183,373426348288903,19,27.0,328.4768981933594,0.08030000329017639,0,0.0,0.0,,,,,0,,6,,
Raw,8921748,9154881000000,,,-1287378671552264960,0.0,58.69493543286808,-18.966011845335725,15.620229498400557,7,33,0.0,7183,373426340971527,46,20.9,8.74399471282959,0.765500009059906,0,0.0,0.0,,,,,0,,6,,
NMEA,$GPGSV,3,1,11,10,55,329,19,23,83,054,20,31,16,232,37,32,25,303,27*72,1603352608434
NMEA,$GPGSV,3,2,11,12,42,097,,15,17,080,,18,27,198,,20,84,154,*7B,1603352608434
NMEA,$GPGSV,3,3,11,21,02,314,,24,31,035,,25,42,150,*49,1603352608435
NMEA,$GLGSV,2,1,05,82,07,237,34,79,07,202,31,83,09,282,25,67,47,019,21*60,1603352608435
NMEA,$GLGSV,2,2,05,68,16,327,16*58,1603352608435
NMEA,$GAGSV,2,1,07,07,53,014,18,13,12,192,21,26,25,246,27,33,12,295,21*61,1603352608435
NMEA,$GAGSV,2,2,07,21,04,201,,27,49,170,,30,52,071,*57,1603352608435
NMEA,$PQGSV,1,1,01,194,63,108,19,0,5*63,1603352608435
NMEA,$PQGSV,4,1,16,05,17,258,30,10,18,188,14,13,47,227,23,21,07,313,28,0,4*62,1603352608436
NMEA,$PQGSV,4,2,16,01,51,130,,02,41,241,,03,60,202,,04,37,115,,0,4*6D,1603352608436
NMEA,$PQGSV,4,3,16,06,53,352,,07,35,165,,08,35,196,,09,45,312,,0,4*64,1603352608436
NMEA,$PQGSV,4,4,16,16,52,344,,19,54,088,,20,09,119,,22,52,343,,0,4*67,1603352608436
NMEA,$GNGSA,A,2,23,31,32,,,,,,,,,,1.4,1.1,0.9,1*3E,1603352608437
NMEA,$GNGSA,A,3,67,79,82,83,,,,,,,,,1.4,1.1,0.9,2*30,1603352608437
NMEA,$GNGSA,A,2,01,13,26,,,,,,,,,,1.4,1.1,0.9,3*39,1603352608437
NMEA,$PQGSA,A,2,05,13,,,,,,,,,,,1.4,1.1,0.9,4*36,1603352608437
NMEA,$GNVTG,,T,,M,0.0,N,0.0,K,A*3D,1603352608437
NMEA,$GNRMC,074329.00,A,2255.522571,N,12017.678930,E,0.0,,221020,2.8,W,A*15,1603352608438
NMEA,$GNGGA,074329.00,2255.522571,N,12017.678930,E,1,12,1.1,25.4,M,17.5,M,,*4A,1603352608438
Raw,8922399,9155881000000,,,-1287378671552264960,0.0,59.93431113893166,-16.735133995820558,17.11853471269432,7,18,0.0,207,38609353717528,10,34.9,508.07574462890625,0.24160000681877136,0,0.0,0.0,,,,,0,,3,,
Raw,8922400,9155881000000,,,-1287378671552264960,0.0,59.93431113893166,-16.735133995820558,17.11853471269432,7,15,0.0,207,38609354114010,14,30.4,-809.8642578125,0.2468000054359436,0,0.0,0.0,,,,,0,,3,,
Raw,8922400,9155881000000,,,-1287378671552264960,0.0,59.93431113893166,-16.735133995820558,17.11853471269432,7,19,0.0,207,38609354146178,31,23.1,258.2848815917969,0.887499988079071,0,0.0,0.0,,,,,0,,3,,
Raw,8922401,9155881000000,,,-1287378671552264960,0.0,59.93431113893166,-16.735133995820558,17.11853471269432,7,3,0.0,207,38609365191233,46,20.4,-264.12841796875,1.0540000200271606,0,0.0,0.0,,,,,0,,3,,
Raw,8922401,9155881000000,,,-1287378671552264960,0.0,59.93431113893166,-16.735133995820558,17.11853471269432,7,4,0.0,207,38609357102915,110,14.1,-537.7543334960938,2.3470001220703125,0,0.0,0.0,,,,,0,,3,,
Raw,8922401,9155881000000,,,-1287378671552264960,0.0,59.93431113893166,-16.735133995820558,17.11853471269432,7,10,0.0,15,373427362642780,61,19.4,-416.72412109375,2.499500036239624,0,0.0,0.0,,,,,0,,1,,
Raw,8922402,9155881000000,,,-1287378671552264960,0.0,59.93431113893166,-16.735133995820558,17.11853471269432,7,23,0.0,15,373427366026412,40,21.6,-24.04360580444336,0.7954999804496765,0,0.0,0.0,,,,,0,,1,,
Raw,8922402,9155881000000,,,-1287378671552264960,0.0,59.93431113893166,-16.735133995820558,17.11853471269432,7,31,0.0,15,373427353828217,8,36.8,-576.6591186523438,0.04070000350475311,0,0.0,0.0,,,,,0,,1,,
Raw,8922402,9155881000000,,,-1287378671552264960,0.0,59.93431113893166,-16.735133995820558,17.11853471269432,7,32,0.0,15,373427356035036,24,25.2,-307.5982666015625,0.4058000147342682,0,0.0,0.0,,,,,0,,1,,
Raw,8922403,9155881000000,,,-1287378671552264960,0.0,59.93431113893166,-16.735133995820558,17.11853471269432,7,5,0.0,783,373413300589677,14,30.0,2.3140759468078613,0.40849998593330383,0,0.0,0.0,,,,,0,,5,,
Raw,8922403,9155881000000,,,-1287378671552264960,0.0,59.93431113893166,-16.735133995820558,17.11853471269432,7,10,0.0,15,373413301065600,649,14.3,-236.40060424804688,16.25800132751465,0,0.0,0.0,,,,,0,,5,,
Raw,8922404,9155881000000,,,-1287378671552264960,0.0,59.93431113893166,-16.735133995820558,17.11853471269432,7,13,0.0,15,373413310378457,35,22.2,279.6191101074219,0.6814999580383301,0,0.0,0.0,,,,,0,,5,,
Raw,8922404,9155881000000,,,-1287378671552264960,0.0,59.93431113893166,-16.735133995820558,17.11853471269432,7,21,0.0,15,373413344785549,21,26.8,-509.25164794921875,0.11720000207424164,0,0.0,0.0,,,,,0,,5,,
Raw,8922405,9155881000000,,,-1287378671552264960,0.0,59.93431113893166,-16.735133995820558,17.11853471269432,7,7,0.0,7183,373427351976902,1084,18.3,-83.37716674804688,21.869001388549805,0,0.0,0.0,,,,,0,,6,,
Raw,8922405,9155881000000,,,-1287378671552264960,0.0,59.93431113893166,-16.735133995820558,17.11853471269432,7,13,0.0,7183,373427341971915,102,15.8,452.5849609375,2.617000102996826,0,0.0,0.0,,,,,0,,6,,
Raw,8922405,9155881000000,,,-1287378671552264960,0.0,59.93431113893166,-16.735133995820558,17.11853471269432,7,26,0.0,7183,373427348287818,19,27.5,329.1158447265625,0.08030000329017639,0,0.0,0.0,,,,,0,,6,,
Raw,8922406,9155881000000,,,-1287378671552264960,0.0,59.93431113893166,-16.735133995820558,17.11853471269432,7,33,0.0,7183,373427340971531,53,19.6,9.115067481994629,0.8255000114440918,0,0.0,0.0,,,,,0,,6,,
Fix,gps,22.925376,120.294650,42.875671,0.000000,10.720000,1603352610000
NMEA,$GPGSV,3,1,11,10,55,329,19,23,83,054,22,31,16,232,37,32,25,303,25*72,1603352609425
NMEA,$GPGSV,3,2,11,12,42,097,,15,17,080,,18,27,198,,20,84,154,*7B,1603352609426
NMEA,$GPGSV,3,3,11,21,02,314,,24,31,035,,25,42,150,*49,1603352609426
NMEA,$GLGSV,2,1,05,82,07,237,35,79,07,202,30,83,09,282,23,67,47,019,20*67,1603352609426
NMEA,$GLGSV,2,2,05,68,16,327,14*5A,1603352609428
NMEA,$GAGSV,2,1,07,07,53,014,18,13,12,192,16,26,25,246,28,33,12,295,20*6B,1603352609428
NMEA,$GAGSV,2,2,07,21,04,201,,27,49,170,,30,52,071,*57,1603352609428
NMEA,$PQGSV,1,1,01,194,63,108,19,0,5*63,1603352609429
NMEA,$PQGSV,4,1,16,05,17,258,30,10,18,188,14,13,47,227,22,21,07,313,27,0,4*6C,1603352609429
NMEA,$PQGSV,4,2,16,01,51,130,,02,41,241,,03,60,202,,04,37,115,,0,4*6D,1603352609429
NMEA,$PQGSV,4,3,16,06,53,352,,07,35,165,,08,35,196,,09,45,312,,0,4*64,1603352609430
NMEA,$PQGSV,4,4,16,16,52,344,,19,54,088,,20,09,119,,22,52,343,,0,4*67,1603352609431
NMEA,$GNGSA,A,2,23,31,32,,,,,,,,,,1.4,1.1,0.9,1*3E,1603352609432
NMEA,$GNGSA,A,3,67,79,82,83,,,,,,,,,1.4,1.1,0.9,2*30,1603352609432
NMEA,$GNGSA,A,2,01,13,26,,,,,,,,,,1.4,1.1,0.9,3*39,1603352609433
NMEA,$PQGSA,A,2,05,13,,,,,,,,,,,1.4,1.1,0.9,4*36,1603352609433
NMEA,$GNVTG,,T,,M,0.0,N,0.0,K,A*3D,1603352609433
NMEA,$GNRMC,074330.00,A,2255.522574,N,12017.678996,E,0.0,,221020,2.8,W,A*14,1603352609434
NMEA,$GNGGA,074330.00,2255.522574,N,12017.678996,E,1,12,1.1,25.4,M,17.5,M,,*4B,1603352609434
Fix,gps,22.925376,120.294651,42.874695,0.000000,10.720000,1603352611000
NMEA,$GPGSV,3,1,11,10,55,329,19,23,83,054,23,31,16,232,37,32,25,303,28*7E,1603352610429
NMEA,$GPGSV,3,2,11,12,42,097,,15,17,080,,18,27,198,,20,84,154,*7B,1603352610429
Raw,8923341,9156881000000,,,-1287378671552265216,0.0,60.54067125660367,-16.02787667460202,19.684576440193773,7,18,0.0,207,38610353715813,10,34.2,508.621337890625,0.24160000681877136,0,0.0,0.0,,,,,0,,3,,
Raw,8923342,9156881000000,,,-1287378671552265216,0.0,60.54067125660367,-16.02787667460202,19.684576440193773,7,15,0.0,207,38610354116767,16,29.5,-809.3130493164062,0.24770000576972961,0,0.0,0.0,,,,,0,,3,,
Raw,8923342,9156881000000,,,-1287378671552265216,0.0,60.54067125660367,-16.02787667460202,19.684576440193773,7,19,0.0,207,38610354145159,31,23.3,258.9205017089844,0.887499988079071,0,0.0,0.0,,,,,0,,3,,
Raw,8923343,9156881000000,,,-1287378671552265216,0.0,60.54067125660367,-16.02787667460202,19.684576440193773,7,3,0.0,207,38610365192188,40,21.2,-263.54931640625,0.9939999580383301,0,0.0,0.0,,,,,0,,3,,
Raw,8923344,9156881000000,,,-1287378671552265216,0.0,60.54067125660367,-16.02787667460202,19.684576440193773,7,4,0.0,207,38610357104454,81,16.8,-533.9727783203125,1.3920000791549683,0,0.0,0.0,,,,,0,,3,,
Raw,8923344,9156881000000,,,-1287378671552265216,0.0,60.54067125660367,-16.02787667460202,19.684576440193773,7,10,0.0,15,373428362644176,56,19.2,-416.2293395996094,1.749500036239624,0,0.0,0.0,,,,,0,,1,,
Raw,8923345,9156881000000,,,-1287378671552265216,0.0,60.54067125660367,-16.02787667460202,19.684576440193773,7,23,0.0,15,373428366026495,31,23.0,-22.949417114257812,0.7354999780654907,0,0.0,0.0,,,,,0,,1,,
Raw,8923345,9156881000000,,,-1287378671552265216,0.0,60.54067125660367,-16.02787667460202,19.684576440193773,7,31,0.0,15,373428353830145,7,37.3,-576.086181640625,0.04010000079870224,0,0.0,0.0,,,,,0,,1,,
Raw,8923346,9156881000000,,,-1287378671552265216,0.0,60.54067125660367,-16.02787667460202,19.684576440193773,7,32,0.0,15,373428356036044,19,27.8,-307.17822265625,0.06530000269412994,0,0.0,0.0,,,,,0,,1,,
Raw,8923347,9156881000000,,,-1287378671552265216,0.0,60.54067125660367,-16.02787667460202,19.684576440193773,7,5,0.0,783,373414300589683,14,30.5,0.7969639301300049,0.40849998593330383,0,0.0,0.0,,,,,0,,5,,
Raw,8923347,9156881000000,,,-1287378671552265216,0.0,60.54067125660367,-16.02787667460202,19.684576440193773,7,10,0.0,15,373414301066388,758,14.3,-236.40060424804688,17.75800132751465,0,0.0,0.0,,,,,0,,5,,
Raw,8923348,9156881000000,,,-1287378671552265216,0.0,60.54067125660367,-16.02787667460202,19.684576440193773,7,13,0.0,15,373414310377519,35,22.1,280.08001708984375,0.6814999580383301,0,0.0,0.0,,,,,0,,5,,
Raw,8923349,9156881000000,,,-1287378671552265216,0.0,60.54067125660367,-16.02787667460202,19.684576440193773,7,21,0.0,15,373414344787233,21,26.8,-508.8008117675781,0.11720000207424164,0,0.0,0.0,,,,,0,,5,,
Raw,8923349,9156881000000,,,-1287378671552265216,0.0,60.54067125660367,-16.02787667460202,19.684576440193773,7,7,0.0,7183,373428351977434,101,15.2,-88.96228790283203,2.614000082015991,0,0.0,0.0,,,,,0,,6,,
Raw,8923350,9156881000000,,,-1287378671552265216,0.0,60.54067125660367,-16.02787667460202,19.684576440193773,7,13,0.0,7183,373428341970405,120,15.8,452.5849609375,4.117000102996826,0,0.0,0.0,,,,,0,,6,,
Raw,8923350,9156881000000,,,-1287378671552265216,0.0,60.54067125660367,-16.02787667460202,19.684576440193773,7,26,0.0,7183,373428348286724,17,28.3,330.9181213378906,0.0723000019788742,0,0.0,0.0,,,,,0,,6,,
Raw,8923351,9156881000000,,,-1287378671552265216,0.0,60.54067125660367,-16.02787667460202,19.684576440193773,7,33,0.0,7183,373428340971515,40,21.2,10.323431968688965,0.6904999613761902,0,0.0,0.0,,,,,0,,6,,
NMEA,$GPGSV,3,3,11,21,02,314,,24,31,035,,25,42,150,*49,1603352610430
NMEA,$GLGSV,2,1,05,82,07,237,34,79,07,202,30,83,09,282,23,67,47,019,21*67,1603352610430
NMEA,$GLGSV,2,2,05,68,16,327,17*59,1603352610431
NMEA,$GAGSV,2,1,07,07,53,014,15,13,12,192,16,26,25,246,28,33,12,295,21*67,1603352610432
NMEA,$GAGSV,2,2,07,21,04,201,,27,49,170,,30,52,071,*57,1603352610432
NMEA,$PQGSV,1,1,01,194,63,108,19,0,5*63,1603352610433
NMEA,$PQGSV,4,1,16,05,17,258,31,10,18,188,14,13,47,227,22,21,07,313,27,0,4*6D,1603352610433
NMEA,$PQGSV,4,2,16,01,51,130,,02,41,241,,03,60,202,,04,37,115,,0,4*6D,1603352610433
NMEA,$PQGSV,4,3,16,06,53,352,,07,35,165,,08,35,196,,09,45,312,,0,4*64,1603352610433
NMEA,$PQGSV,4,4,16,16,52,344,,19,54,088,,20,09,119,,22,52,343,,0,4*67,1603352610434
NMEA,$GNGSA,A,2,23,31,32,,,,,,,,,,1.4,1.1,0.9,1*3E,1603352610435
NMEA,$GNGSA,A,3,67,79,82,83,,,,,,,,,1.4,1.1,0.9,2*30,1603352610435
NMEA,$GNGSA,A,2,01,13,26,,,,,,,,,,1.4,1.1,0.9,3*39,1603352610436
NMEA,$PQGSA,A,2,05,13,,,,,,,,,,,1.4,1.1,0.9,4*36,1603352610436
NMEA,$GNVTG,,T,,M,0.0,N,0.0,K,A*3D,1603352610439
NMEA,$GNRMC,074331.00,A,2255.522574,N,12017.679034,E,0.0,,221020,2.8,W,A*15,1603352610440
NMEA,$GNGGA,074331.00,2255.522574,N,12017.679034,E,1,12,1.1,25.4,M,17.5,M,,*4A,1603352610440
Fix,gps,22.925390,120.294670,42.480957,1.870000,10.720000,1603352612000
NMEA,$GPGSV,3,1,11,10,55,329,19,23,83,054,22,31,16,232,37,32,25,303,27*70,1603352611430
Raw,8924336,9157881000000,,,-1287378671552265216,0.0,66.87639688607305,-13.837128592132107,20.575627458256566,7,18,0.0,207,38611353714111,10,34.6,508.54400634765625,0.24160000681877136,0,0.0,0.0,,,,,0,,3,,
Raw,8924337,9157881000000,,,-1287378671552265216,0.0,66.87639688607305,-13.837128592132107,20.575627458256566,7,15,0.0,207,38611354119429,14,30.0,-809.3448486328125,0.2468000054359436,0,0.0,0.0,,,,,0,,3,,
Raw,8924338,9157881000000,,,-1287378671552265216,0.0,66.87639688607305,-13.837128592132107,20.575627458256566,7,19,0.0,207,38611354144387,31,23.5,259.2850036621094,0.887499988079071,0,0.0,0.0,,,,,0,,3,,
Raw,8924338,9157881000000,,,-1287378671552265216,0.0,66.87639688607305,-13.837128592132107,20.575627458256566,7,3,0.0,207,38611365193067,46,20.3,-264.1190490722656,1.0540000200271606,0,0.0,0.0,,,,,0,,3,,
Raw,8924339,9157881000000,,,-1287378671552265216,0.0,66.87639688607305,-13.837128592132107,20.575627458256566,7,4,0.0,207,38611357106492,81,16.6,-536.120361328125,1.4070000648498535,0,0.0,0.0,,,,,0,,3,,
Raw,8924339,9157881000000,,,-1287378671552265216,0.0,66.87639688607305,-13.837128592132107,20.575627458256566,7,10,0.0,15,373429362645564,69,19.2,-416.2293395996094,3.249500036239624,0,0.0,0.0,,,,,0,,1,,
Raw,8924340,9157881000000,,,-1287378671552265216,0.0,66.87639688607305,-13.837128592132107,20.575627458256566,7,23,0.0,15,373429366026545,40,21.6,-23.120681762695312,0.7954999804496765,0,0.0,0.0,,,,,0,,1,,
Raw,8924340,9157881000000,,,-1287378671552265216,0.0,66.87639688607305,-13.837128592132107,20.575627458256566,7,31,0.0,15,373429353832052,8,36.7,-576.0855712890625,0.04070000350475311,0,0.0,0.0,,,,,0,,1,,
Raw,8924341,9157881000000,,,-1287378671552265216,0.0,66.87639688607305,-13.837128592132107,20.575627458256566,7,32,0.0,15,373429356037075,21,26.9,-307.24957275390625,0.13520000874996185,0,0.0,0.0,,,,,0,,1,,
Raw,8924341,9157881000000,,,-1287378671552265216,0.0,66.87639688607305,-13.837128592132107,20.575627458256566,7,5,0.0,783,373415300589678,14,30.4,-1.6419377326965332,0.40849998593330383,0,0.0,0.0,,,,,0,,5,,
Raw,8924342,9157881000000,,,-1287378671552265216,0.0,66.87639688607305,-13.837128592132107,20.575627458256566,7,10,0.0,15,373415301067177,878,14.3,-236.40060424804688,19.25800132751465,0,0.0,0.0,,,,,0,,5,,
Raw,8924342,9157881000000,,,-1287378671552265216,0.0,66.87639688607305,-13.837128592132107,20.575627458256566,7,13,0.0,15,373415310376576,35,22.2,280.147216796875,0.6814999580383301,0,0.0,0.0,,,,,0,,5,,
Raw,8924343,9157881000000,,,-1287378671552265216,0.0,66.87639688607305,-13.837128592132107,20.575627458256566,7,21,0.0,15,373415344788915,19,27.3,-508.77313232421875,0.047300003468990326,0,0.0,0.0,,,,,0,,5,,
Raw,8924343,9157881000000,,,-1287378671552265216,0.0,66.87639688607305,-13.837128592132107,20.575627458256566,7,7,0.0,7183,373429351977730,120,15.2,-88.96228790283203,4.11400032043457,0,0.0,0.0,,,,,0,,6,,
Raw,8924344,9157881000000,,,-1287378671552265216,0.0,66.87639688607305,-13.837128592132107,20.575627458256566,7,13,0.0,7183,373429341968884,84,16.5,453.0606994628906,1.787000060081482,0,0.0,0.0,,,,,0,,6,,
Raw,8924344,9157881000000,,,-1287378671552265216,0.0,66.87639688607305,-13.837128592132107,20.575627458256566,7,26,0.0,7183,373429348285612,19,27.4,332.44036865234375,0.08030000329017639,0,0.0,0.0,,,,,0,,6,,
Raw,8924345,9157881000000,,,-1287378671552265216,0.0,66.87639688607305,-13.837128592132107,20.575627458256566,7,33,0.0,7183,373429340971477,61,18.7,10.55178451538086,0.8704999685287476,0,0.0,0.0,,,,,0,,6,,
NMEA,$GPGSV,3,2,11,12,42,097,,15,17,080,,18,27,198,,20,84,154,*7B,1603352611431
NMEA,$GPGSV,3,3,11,21,02,314,,24,31,035,,25,42,150,*49,1603352611431
NMEA,$GLGSV,2,1,05,82,07,237,35,79,07,202,30,83,09,282,24,67,47,019,20*60,1603352611431
NMEA,$GLGSV,2,2,05,68,16,327,17*59,1603352611432
NMEA,$GAGSV,2,1,07,07,53,014,15,13,12,192,17,26,25,246,27,33,12,295,19*62,1603352611433
NMEA,$GAGSV,2,2,07,21,04,201,,27,49,170,,30,52,071,*57,1603352611433
NMEA,$PQGSV,1,1,01,194,63,108,20,0,5*69,1603352611433
NMEA,$PQGSV,4,1,16,05,17,258,30,10,18,188,14,13,47,227,22,21,07,313,27,0,4*6C,1603352611434
NMEA,$PQGSV,4,2,16,01,51,130,,02,41,241,,03,60,202,,04,37,115,,0,4*6D,1603352611434
NMEA,$PQGSV,4,3,16,06,53,352,,07,35,165,,08,35,196,,09,45,312,,0,4*64,1603352611435
NMEA,$PQGSV,4,4,16,16,52,344,,19,54,088,,20,09,119,,22,52,343,,0,4*67,1603352611436
NMEA,$GNGSA,A,2,23,31,32,,,,,,,,,,1.4,1.1,0.9,1*3E,1603352611438
NMEA,$GNGSA,A,3,67,79,82,83,,,,,,,,,1.4,1.1,0.9,2*30,1603352611438
NMEA,$GNGSA,A,2,01,13,26,,,,,,,,,,1.4,1.1,0.9,3*39,1603352611439
NMEA,$PQGSA,A,2,05,13,,,,,,,,,,,1.4,1.1,0.9,4*36,1603352611442
NMEA,$GNVTG,41.1,T,41.1,M,3.6,N,6.7,K,A*39,1603352611443
NMEA,$GNRMC,074332.00,A,2255.523417,N,12017.680212,E,3.6,41.1,221020,2.8,W,A*0C,1603352611443
NMEA,$GNGGA,074332.00,2255.523417,N,12017.680212,E,1,12,1.1,25.0,M,17.5,M,,*48,1603352611443
Fix,gps,22.925426,120.294707,42.381958,4.490000,10.720000,1603352613000
Raw,8925356,9158881000000,,,-1287378671552265216,0.0,68.05062730563805,-18.238043874228314,19.836100905416377,7,18,0.0,207,38612353712410,10,34.4,509.3874206542969,0.24160000681877136,0,0.0,0.0,,,,,0,,3,,
Raw,8925356,9158881000000,,,-1287378671552265216,0.0,68.05062730563805,-18.238043874228314,19.836100905416377,7,15,0.0,207,38612354122089,13,31.2,-808.4783325195312,0.24620001018047333,0,0.0,0.0,,,,,0,,3,,
Raw,8925357,9158881000000,,,-1287378671552265216,0.0,68.05062730563805,-18.238043874228314,19.836100905416377,7,19,0.0,207,38612354143506,27,24.1,260.2851257324219,0.8375000357627869,0,0.0,0.0,,,,,0,,3,,
Raw,8925357,9158881000000,,,-1287378671552265216,0.0,68.05062730563805,-18.238043874228314,19.836100905416377,7,3,0.0,207,38612365193929,40,21.3,-262.4097900390625,0.9939999580383301,0,0.0,0.0,,,,,0,,3,,
Raw,8925357,9158881000000,,,-1287378671552265216,0.0,68.05062730563805,-18.238043874228314,19.836100905416377,7,4,0.0,207,38612357108119,81,16.3,-532.9550170898438,1.3920000791549683,0,0.0,0.0,,,,,0,,3,,
Raw,8925358,9158881000000,,,-1287378671552265216,0.0,68.05062730563805,-18.238043874228314,19.836100905416377,7,10,0.0,15,373430362647019,84,16.6,-414.98291015625,1.9194999933242798,0,0.0,0.0,,,,,0,,1,,
Raw,8925358,9158881000000,,,-1287378671552265216,0.0,68.05062730563805,-18.238043874228314,19.836100905416377,7,23,0.0,15,373430366026749,61,18.1,-21.788625717163086,1.0855000019073486,0,0.0,0.0,,,,,0,,1,,
Raw,8925359,9158881000000,,,-1287378671552265216,0.0,68.05062730563805,-18.238043874228314,19.836100905416377,7,31,0.0,15,373430353833974,8,36.6,-575.1864624023438,0.04070000350475311,0,0.0,0.0,,,,,0,,1,,
Raw,8925359,9158881000000,,,-1287378671552265216,0.0,68.05062730563805,-18.238043874228314,19.836100905416377,7,32,0.0,15,373430356038065,21,26.0,-306.389404296875,0.13520000874996185,0,0.0,0.0,,,,,0,,1,,
Raw,8925360,9158881000000,,,-1287378671552265216,0.0,68.05062730563805,-18.238043874228314,19.836100905416377,7,5,0.0,783,373416300589687,14,30.1,-1.85318124294281,0.40849998593330383,0,0.0,0.0,,,,,0,,5,,
Raw,8925360,9158881000000,,,-1287378671552265216,0.0,68.05062730563805,-18.238043874228314,19.836100905416377,7,10,0.0,15,373416301068142,340,11.2,-242.17140197753906,9.848000526428223,0,0.0,0.0,,,,,0,,5,,
Raw,8925360,9158881000000,,,-1287378671552265216,0.0,68.05062730563805,-18.238043874228314,19.836100905416377,7,13,0.0,15,373416310375638,31,23.1,280.96337890625,0.6315000057220459,0,0.0,0.0,,,,,0,,5,,
Raw,8925361,9158881000000,,,-1287378671552265216,0.0,68.05062730563805,-18.238043874228314,19.836100905416377,7,21,0.0,15,373416344790642,17,28.6,-508.0578308105469,0.03930000215768814,0,0.0,0.0,,,,,0,,5,,
Raw,8925361,9158881000000,,,-1287378671552265216,0.0,68.05062730563805,-18.238043874228314,19.836100905416377,7,7,0.0,7183,373430351977928,73,17.7,-89.21918487548828,1.6890000104904175,0,0.0,0.0,,,,,0,,6,,
Raw,8925362,9158881000000,,,-1287378671552265216,0.0,68.05062730563805,-18.238043874228314,19.836100905416377,7,13,0.0,7183,373430341967357,53,19.3,454.37371826171875,0.8269999623298645,0,0.0,0.0,,,,,0,,6,,
Raw,8925362,9158881000000,,,-1287378671552265216,0.0,68.05062730563805,-18.238043874228314,19.836100905416377,7,26,0.0,7183,373430348284497,17,28.0,330.7489013671875,0.0723000019788742,0,0.0,0.0,,,,,0,,6,,
Raw,8925363,9158881000000,,,-1287378671552265216,0.0,68.05062730563805,-18.238043874228314,19.836100905416377,7,33,0.0,7183,373430340971482,61,18.8,10.913342475891113,0.8704999685287476,0,0.0,0.0,,,,,0,,6,,
NMEA,$GPGSV,3,1,11,10,55,329,17,23,83,054,18,31,16,232,37,32,25,303,26*76,1603352612438
NMEA,$GPGSV,3,2,11,12,42,097,,15,17,080,,18,27,198,,20,84,154,*7B,1603352612439
NMEA,$GPGSV,3,3,11,21,02,314,,24,31,035,,25,42,150,*49,1603352612440
NMEA,$GLGSV,2,1,05,82,07,237,34,79,07,202,31,83,09,282,24,67,47,019,21*61,1603352612440
NMEA,$GLGSV,2,2,05,68,16,327,16*58,1603352612441
NMEA,$GAGSV,2,1,07,07,53,014,18,13,12,192,19,26,25,246,28,33,12,295,19*6E,1603352612441
NMEA,$GAGSV,2,2,07,21,04,201,,27,49,170,,30,52,071,*57,1603352612443
NMEA,$PQGSV,1,1,01,194,63,108,17,0,5*6D,1603352612448
NMEA,$PQGSV,4,1,16,05,17,258,30,10,18,188,11,13,47,227,23,21,07,313,29,0,4*66,1603352612451
NMEA,$PQGSV,4,2,16,01,51,130,,02,41,241,,03,60,202,,04,37,115,,0,4*6D,1603352612451
NMEA,$PQGSV,4,3,16,06,53,352,,07,35,165,,08,35,196,,09,45,312,,0,4*64,1603352612452
NMEA,$PQGSV,4,4,16,16,52,344,,19,54,088,,20,09,119,,22,52,343,,0,4*67,1603352612453
NMEA,$GNGSA,A,2,23,31,32,,,,,,,,,,1.5,1.2,0.9,1*3C,1603352612455
NMEA,$GNGSA,A,3,67,79,82,83,,,,,,,,,1.5,1.2,0.9,2*32,1603352612455
NMEA,$GNGSA,A,2,01,13,26,,,,,,,,,,1.5,1.2,0.9,3*3B,1603352612455
NMEA,$PQGSA,A,2,05,13,,,,,,,,,,,1.5,1.2,0.9,4*34,1603352612456
NMEA,$GNVTG,35.1,T,35.1,M,8.7,N,16.2,K,A*07,1603352612456
NMEA,$GNRMC,074333.00,A,2255.525588,N,12017.682414,E,8.7,35.1,221020,2.8,W,A*07,1603352612456
NMEA,$GNGGA,074333.00,2255.525588,N,12017.682414,E,1,12,1.2,24.9,M,17.5,M,,*41,1603352612456
Fix,gps,22.925465,120.294753,41.869385,4.400000,10.720000,1603352614000
Raw,8926356,9159881000000,,,-1287378671552265216,0.0,62.75001214817166,-23.269460941740327,17.38634006889503,7,18,0.0,207,38613353710697,8,36.1,509.6464538574219,0.24070000648498535,0,0.0,0.0,,,,,0,,3,,
Raw,8926357,9159881000000,,,-1287378671552265216,0.0,62.75001214817166,-23.269460941740327,17.38634006889503,7,15,0.0,207,38613354124853,14,30.7,-808.2054443359375,0.2468000054359436,0,0.0,0.0,,,,,0,,3,,
Raw,8926357,9159881000000,,,-1287378671552265216,0.0,62.75001214817166,-23.269460941740327,17.38634006889503,7,19,0.0,207,38613354142573,27,24.7,260.49078369140625,0.8375000357627869,0,0.0,0.0,,,,,0,,3,,
Raw,8926358,9159881000000,,,-1287378671552265216,0.0,62.75001214817166,-23.269460941740327,17.38634006889503,7,3,0.0,207,38613365195114,61,18.6,-263.5306396484375,1.2040001153945923,0,0.0,0.0,,,,,0,,3,,
Raw,8926359,9159881000000,,,-1287378671552265216,0.0,62.75001214817166,-23.269460941740327,17.38634006889503,7,4,0.0,207,38613357109897,90,16.3,-532.9550170898438,2.892000198364258,0,0.0,0.0,,,,,0,,3,,
Raw,8926359,9159881000000,,,-1287378671552265216,0.0,62.75001214817166,-23.269460941740327,17.38634006889503,7,10,0.0,15,373431362648392,70,17.8,-413.7840576171875,1.0794999599456787,0,0.0,0.0,,,,,0,,1,,
Raw,8926360,9159881000000,,,-1287378671552265216,0.0,62.75001214817166,-23.269460941740327,17.38634006889503,7,23,0.0,15,373431366026659,40,21.1,-22.606887817382812,0.8554999828338623,0,0.0,0.0,,,,,0,,1,,
Raw,8926360,9159881000000,,,-1287378671552265216,0.0,62.75001214817166,-23.269460941740327,17.38634006889503,7,31,0.0,15,373431353835895,7,37.5,-574.8838500976562,0.04010000079870224,0,0.0,0.0,,,,,0,,1,,
Raw,8926361,9159881000000,,,-1287378671552265216,0.0,62.75001214817166,-23.269460941740327,17.38634006889503,7,32,0.0,15,373431356039124,21,26.8,-306.1468811035156,0.13520000874996185,0,0.0,0.0,,,,,0,,1,,
Raw,8926361,9159881000000,,,-1287378671552265216,0.0,62.75001214817166,-23.269460941740327,17.38634006889503,7,5,0.0,783,373417300589678,16,29.7,2.0932304859161377,0.4284999966621399,0,0.0,0.0,,,,,0,,5,,
Raw,8926362,9159881000000,,,-1287378671552265216,0.0,62.75001214817166,-23.269460941740327,17.38634006889503,7,10,0.0,15,373417301068950,405,11.2,-242.17140197753906,11.348000526428223,0,0.0,0.0,,,,,0,,5,,
Raw,8926362,9159881000000,,,-1287378671552265216,0.0,62.75001214817166,-23.269460941740327,17.38634006889503,7,13,0.0,15,373417310374707,31,23.9,281.4434814453125,0.5914999842643738,0,0.0,0.0,,,,,0,,5,,
Raw,8926363,9159881000000,,,-1287378671552265216,0.0,62.75001214817166,-23.269460941740327,17.38634006889503,7,21,0.0,15,373417344792305,16,29.0,-507.8175354003906,0.03270000219345093,0,0.0,0.0,,,,,0,,5,,
Raw,8926363,9159881000000,,,-1287378671552265216,0.0,62.75001214817166,-23.269460941740327,17.38634006889503,7,7,0.0,7183,373431351978226,86,17.7,-89.21918487548828,3.189000129699707,0,0.0,0.0,,,,,0,,6,,
Raw,8926364,9159881000000,,,-1287378671552265216,0.0,62.75001214817166,-23.269460941740327,17.38634006889503,7,13,0.0,7183,373431341965797,61,18.6,454.7923583984375,0.8869999647140503,0,0.0,0.0,,,,,0,,6,,
Raw,8926365,9159881000000,,,-1287378671552265216,0.0,62.75001214817166,-23.269460941740327,17.38634006889503,7,26,0.0,7183,373431348283397,17,28.6,331.5212707519531,0.0723000019788742,0,0.0,0.0,,,,,0,,6,,
Raw,8926365,9159881000000,,,-1287378671552265216,0.0,62.75001214817166,-23.269460941740327,17.38634006889503,7,33,0.0,7183,373431340971394,53,19.7,11.588884353637695,0.8255000114440918,0,0.0,0.0,,,,,0,,6,,
NMEA,$GPGSV,3,1,11,10,55,329,18,23,83,054,21,31,16,232,38,32,25,303,27*7D,1603352613437
NMEA,$GPGSV,3,2,11,12,42,097,,15,17,080,,18,27,198,,20,84,154,*7B,1603352613437
NMEA,$GPGSV,3,3,11,21,02,314,,24,31,035,,25,42,150,*49,1603352613438
NMEA,$GLGSV,2,1,05,82,07,237,36,79,07,202,31,83,09,282,25,67,47,021,19*62,1603352613439
NMEA,$GLGSV,2,2,05,68,16,327,16*58,1603352613439
NMEA,$GAGSV,2,1,07,07,53,014,18,13,12,192,19,26,25,246,29,33,12,295,20*65,1603352613440
NMEA,$GAGSV,2,2,07,21,04,201,,27,49,170,,30,52,071,*57,1603352613445
NMEA,$PQGSV,1,1,01,194,63,108,19,0,5*63,1603352613449
NMEA,$PQGSV,4,1,16,05,17,258,30,10,18,188,11,13,47,227,24,21,07,313,29,0,4*61,1603352613449
NMEA,$PQGSV,4,2,16,01,51,130,,02,41,241,,03,60,202,,04,37,115,,0,4*6D,1603352613450
NMEA,$PQGSV,4,3,16,06,53,352,,07,35,165,,08,35,196,,09,45,312,,0,4*64,1603352613451
NMEA,$PQGSV,4,4,16,16,52,344,,19,54,088,,20,09,119,,22,52,343,,0,4*67,1603352613452
NMEA,$GNGSA,A,2,23,31,32,,,,,,,,,,1.5,1.2,0.9,1*3C,1603352613455
NMEA,$GNGSA,A,3,67,79,82,83,,,,,,,,,1.5,1.2,0.9,2*32,1603352613455
NMEA,$GNGSA,A,2,01,26,,,,,,,,,,,1.5,1.2,0.9,3*39,1603352613456
NMEA,$PQGSA,A,2,05,13,,,,,,,,,,,1.5,1.2,0.9,4*34,1603352613456
NMEA,$GNVTG,38.1,T,38.1,M,8.6,N,15.8,K,A*0F,1603352613456
NMEA,$GNRMC,074334.00,A,2255.527899,N,12017.685183,E,8.6,38.1,221020,2.8,W,A*0F,1603352613456
NMEA,$GNGGA,074334.00,2255.527899,N,12017.685183,E,1,11,1.2,24.4,M,17.5,M,,*4B,1603352613456
Raw,8927502,9160881000000,,,-1287378671552265216,0.0,72.52102659549564,-22.384051631315643,17.915295888497507,7,18,0.0,207,38614353709010,9,35.6,509.9444885253906,0.2410999983549118,0,0.0,0.0,,,,,0,,3,,
Raw,8927505,9160881000000,,,-1287378671552265216,0.0,72.52102659549564,-22.384051631315643,17.915295888497507,7,15,0.0,207,38614354127525,14,30.4,-807.865234375,0.2468000054359436,0,0.0,0.0,,,,,0,,3,,
Raw,8927507,9160881000000,,,-1287378671552265216,0.0,72.52102659549564,-22.384051631315643,17.915295888497507,7,19,0.0,207,38614354141797,27,24.2,260.7244567871094,0.8375000357627869,0,0.0,0.0,,,,,0,,3,,
Raw,8927510,9160881000000,,,-1287378671552265216,0.0,72.52102659549564,-22.384051631315643,17.915295888497507,7,3,0.0,207,38614365195561,53,19.4,-262.20428466796875,1.124000072479248,0,0.0,0.0,,,,,0,,3,,
Raw,8927512,9160881000000,,,-1287378671552265216,0.0,72.52102659549564,-22.384051631315643,17.915295888497507,7,4,0.0,207,38614357111493,96,15.1,-532.927001953125,2.246999979019165,0,0.0,0.0,,,,,0,,3,,
Raw,8927514,9160881000000,,,-1287378671552265216,0.0,72.52102659549564,-22.384051631315643,17.915295888497507,7,10,0.0,15,373432362649772,79,17.8,-413.7840576171875,2.5794999599456787,0,0.0,0.0,,,,,0,,1,,
Raw,8927517,9160881000000,,,-1287378671552265216,0.0,72.52102659549564,-22.384051631315643,17.915295888497507,7,23,0.0,15,373432366026747,53,19.2,-21.236772537231445,1.005500078201294,0,0.0,0.0,,,,,0,,1,,
Raw,8927521,9160881000000,,,-1287378671552265216,0.0,72.52102659549564,-22.384051631315643,17.915295888497507,7,31,0.0,15,373432353837808,7,37.4,-574.5281982421875,0.04010000079870224,0,0.0,0.0,,,,,0,,1,,
Raw,8927523,9160881000000,,,-1287378671552265216,0.0,72.52102659549564,-22.384051631315643,17.915295888497507,7,32,0.0,15,373432356040180,19,27.1,-305.8611755371094,0.08030000329017639,0,0.0,0.0,,,,,0,,1,,
Raw,8927527,9160881000000,,,-1287378671552265216,0.0,72.52102659549564,-22.384051631315643,17.915295888497507,7,5,0.0,783,373418300589694,16,29.0,0.27845728397369385,0.4284999966621399,0,0.0,0.0,,,,,0,,5,,
Raw,8927530,9160881000000,,,-1287378671552265216,0.0,72.52102659549564,-22.384051631315643,17.915295888497507,7,10,0.0,15,373418301069758,481,11.2,-242.17140197753906,12.848000526428223,0,0.0,0.0,,,,,0,,5,,
Raw,8927532,9160881000000,,,-1287378671552265216,0.0,72.52102659549564,-22.384051631315643,17.915295888497507,7,13,0.0,15,373418310373777,31,23.2,282.16363525390625,0.6315000057220459,0,0.0,0.0,,,,,0,,5,,
Raw,8927534,9160881000000,,,-1287378671552265216,0.0,72.52102659549564,-22.384051631315643,17.915295888497507,7,21,0.0,15,373418344794003,16,29.3,-507.5225830078125,0.03270000219345093,0,0.0,0.0,,,,,0,,5,,
Raw,8927536,9160881000000,,,-1287378671552265216,0.0,72.52102659549564,-22.384051631315643,17.915295888497507,7,7,0.0,7183,373432351978504,64,18.0,-87.53508758544922,1.6340000629425049,0,0.0,0.0,,,,,0,,6,,
Raw,8927537,9160881000000,,,-1287378671552265216,0.0,72.52102659549564,-22.384051631315643,17.915295888497507,7,13,0.0,7183,373432341964374,61,18.7,454.0882568359375,0.8869999647140503,0,0.0,0.0,,,,,0,,6,,
Raw,8927537,9160881000000,,,-1287378671552265216,0.0,72.52102659549564,-22.384051631315643,17.915295888497507,7,26,0.0,7183,373432348282296,19,27.9,331.3887634277344,0.08030000329017639,0,0.0,0.0,,,,,0,,6,,
Raw,8927538,9160881000000,,,-1287378671552265216,0.0,72.52102659549564,-22.384051631315643,17.915295888497507,7,33,0.0,7183,373432340971326,53,19.9,10.247314453125,0.8255000114440918,0,0.0,0.0,,,,,0,,6,,
Fix,gps,22.925500,120.294802,42.047729,4.410000,10.720000,1603352615000
NMEA,$GPGSV,3,1,11,10,55,329,18,23,83,054,19,31,16,232,37,32,25,303,27*79,1603352614436
NMEA,$GPGSV,3,2,11,12,42,097,,15,17,080,,18,27,198,,20,84,154,*7B,1603352614437
NMEA,$GPGSV,3,3,11,21,02,314,,24,31,035,,25,42,150,*49,1603352614438
NMEA,$GLGSV,2,1,05,82,07,237,36,79,07,202,30,83,09,282,24,67,47,021,19*62,1603352614444
NMEA,$GLGSV,2,2,05,68,16,327,15*5B,1603352614445
NMEA,$GAGSV,2,1,07,07,53,014,18,13,12,192,19,26,25,246,28,33,12,295,20*64,1603352614447
NMEA,$GAGSV,2,2,07,21,04,201,,27,49,170,,30,52,071,*57,1603352614447
NMEA,$PQGSV,1,1,01,194,63,108,19,0,5*63,1603352614448
NMEA,$PQGSV,4,1,16,05,17,258,29,10,18,188,11,13,47,227,23,21,07,313,29,0,4*6E,1603352614448
NMEA,$PQGSV,4,2,16,01,51,130,,02,41,241,,03,60,202,,04,37,115,,0,4*6D,1603352614449
NMEA,$PQGSV,4,3,16,06,53,352,,07,35,165,,08,35,196,,09,45,312,,0,4*64,1603352614450
