# 
# Header Description:
# 
# Version: v2.0.0.1 Platform: 8.0.0 Manufacturer: Sony Model: G8142
# 
# Raw,ElapsedRealtimeMillis,TimeNanos,LeapSecond,TimeUncertaintyNanos,FullBiasNanos,BiasNanos,BiasUncertaintyNanos,DriftNanosPerSecond,DriftUncertaintyNanosPerSecond,HardwareClockDiscontinuityCount,Svid,TimeOffsetNanos,State,ReceivedSvTimeNanos,ReceivedSvTimeUncertaintyNanos,Cn0DbHz,PseudorangeRateMetersPerSecond,PseudorangeRateUncertaintyMetersPerSecond,AccumulatedDeltaRangeState,AccumulatedDeltaRangeMeters,AccumulatedDeltaRangeUncertaintyMeters,CarrierFrequencyHz,CarrierCycles,CarrierPhase,CarrierPhaseUncertainty,MultipathIndicator,SnrInDb,ConstellationType,AgcDb,CarrierFrequencyHz
# 
# Fix,Provider,Latitude,Longitude,Altitude,Speed,Accuracy,(UTC)TimeInMs
# 
# Nav,Svid,Type,Status,MessageId,Sub-messageId,Data(Bytes)
# 
Raw,9184461,9417881000000,,,-1287378671552264704,0.0,104.8450285452418,-6.901054643251242,17.787768165066886,7,18,0.0,207,38871353269469,12,32.3,508.6148376464844,0.258400022983551,0,0.0,0.0,,,,,0,,3,,
Raw,9184461,9417881000000,,,-1287378671552264704,0.0,104.8450285452418,-6.901054643251242,17.787768165066886,7,15,0.0,207,38871354814728,117,14.9,-801.046630859375,3.0925002098083496,0,0.0,0.0,,,,,0,,3,,
Raw,9184461,9417881000000,,,-1287378671552264704,0.0,104.8450285452418,-6.901054643251242,17.787768165066886,7,19,0.0,207,38871353905480,70,18.8,285.0172424316406,2.7310001850128174,0,0.0,0.0,,,,,0,,3,,
Raw,9184461,9417881000000,,,-1287378671552264704,0.0,104.8450285452418,-6.901054643251242,17.787768165066886,7,3,0.0,207,38871365413556,111,15.7,-249.6974639892578,3.7290000915527344,0,0.0,0.0,,,,,0,,3,,
Raw,9184462,9417881000000,,,-1287378671552264704,0.0,104.8450285452418,-6.901054643251242,17.787768165066886,7,4,0.0,207,38871357570085,112,15.2,-538.0437622070312,3.747000217437744,0,0.0,0.0,,,,,0,,3,,
Raw,9184462,9417881000000,,,-1287378671552264704,0.0,104.8450285452418,-6.901054643251242,17.787768165066886,7,10,0.0,15,373689362993763,554,14.6,-391.1201171875,14.874500274658203,0,0.0,0.0,,,,,0,,1,,
Raw,9184462,9417881000000,,,-1287378671552264704,0.0,104.8450285452418,-6.901054643251242,17.787768165066886,7,31,0.0,15,373689354321643,12,32.3,-560.781005859375,0.05990000069141388,0,0.0,0.0,,,,,0,,1,,
Raw,9184462,9417881000000,,,-1287378671552264704,0.0,104.8450285452418,-6.901054643251242,17.787768165066886,7,32,0.0,15,373689356300506,35,22.9,-307.99029541015625,0.765500009059906,0,0.0,0.0,,,,,0,,1,,
Raw,9184462,9417881000000,,,-1287378671552264704,0.0,104.8450285452418,-6.901054643251242,17.787768165066886,7,5,0.0,783,373675300586513,38,23.1,-3.111039876937866,2.1585001945495605,0,0.0,0.0,,,,,0,,5,,
Raw,9184462,9417881000000,,,-1287378671552264704,0.0,104.8450285452418,-6.901054643251242,17.787768165066886,7,13,0.0,15,373675310126809,552,14.4,292.37054443359375,14.786500930786133,0,0.0,0.0,,,,,0,,5,,
Raw,9184463,9417881000000,,,-1287378671552264704,0.0,104.8450285452418,-6.901054643251242,17.787768165066886,7,21,0.0,15,373675345228859,79,19.2,-509.75921630859375,3.869000196456909,0,0.0,0.0,,,,,0,,5,,
Raw,9184463,9417881000000,,,-1287378671552264704,0.0,104.8450285452418,-6.901054643251242,17.787768165066886,7,7,0.0,7183,373689352050643,164,14.7,-83.4818344116211,5.70550012588501,0,0.0,0.0,,,,,0,,6,,
Raw,9184463,9417881000000,,,-1287378671552264704,0.0,104.8450285452418,-6.901054643251242,17.787768165066886,7,13,0.0,7183,373689341575775,108,16.2,448.07501220703125,4.0370001792907715,0,0.0,0.0,,,,,0,,6,,
Raw,9184463,9417881000000,,,-1287378671552264704,0.0,104.8450285452418,-6.901054643251242,17.787768165066886,7,26,0.0,7183,373689347991256,14,30.3,340.0643005371094,0.3739999830722809,0,0.0,0.0,,,,,0,,6,,
Raw,9184463,9417881000000,,,-1287378671552264704,0.0,104.8450285452418,-6.901054643251242,17.787768165066886,7,33,0.0,7183,373689340950721,73,17.1,30.07591438293457,1.7055000066757202,0,0.0,0.0,,,,,0,,6,,
Fix,gps,22.925359,120.294884,23.236633,0.300000,13.936001,1603352872000
NMEA,$GPGSV,3,1,11,10,56,329,15,31,16,233,32,32,26,305,23,12,42,094,*79,1603352871424
NMEA,$GPGSV,3,2,11,15,16,081,,18,26,196,,20,82,157,,21,02,314,*7D,1603352871424
NMEA,$GPGSV,3,3,11,23,84,073,,24,30,036,,25,43,149,*4C,1603352871424
NMEA,$GLGSV,2,1,05,82,06,236,32,79,09,202,15,83,08,279,19,67,49,023,16*67,1603352871425
NMEA,$GLGSV,2,2,05,68,18,329,15*5B,1603352871425
NMEA,$GAGSV,2,1,07,07,53,015,15,13,11,192,16,26,24,244,30,33,12,293,17*6C,1603352871425
NMEA,$GAGSV,2,2,07,21,06,201,,27,50,170,,30,52,068,*55,1603352871425
NMEA,$PQGSV,1,1,01,194,64,108,20,0,5*6E,1603352871425
NMEA,$PQGSV,4,1,16,05,17,258,23,13,46,227,14,21,08,314,19,01,51,130,,0,4*64,1603352871425
NMEA,$PQGSV,4,2,16,02,41,241,,03,60,202,,04,37,115,,06,53,354,,0,4*68,1603352871426
NMEA,$PQGSV,4,3,16,07,37,165,,08,35,196,,09,45,312,,10,19,188,,0,4*6A,1603352871426
NMEA,$PQGSV,4,4,16,16,52,344,,19,53,092,,20,09,120,,22,54,344,,0,4*60,1603352871426
NMEA,$GNGSA,A,2,31,32,,,,,,,,,,,1.4,1.0,0.9,1*3E,1603352871427
NMEA,$GNGSA,A,3,67,68,79,82,83,,,,,,,,1.4,1.0,0.9,2*3F,1603352871427
NMEA,$GNGSA,A,3,01,07,13,26,,,,,,,,,1.4,1.0,0.9,3*3E,1603352871427
NMEA,$PQGSA,A,2,05,,,,,,,,,,,,1.4,1.0,0.9,4*35,1603352871428
NMEA,$GNVTG,124.2,T,124.2,M,0.6,N,1.1,K,A*3B,1603352871428
NMEA,$GNRMC,074752.00,A,2255.521568,N,12017.693069,E,0.6,124.2,221020,2.8,W,A*3B,1603352871428
NMEA,$GNGGA,074752.00,2255.521568,N,12017.693069,E,1,12,1.0,5.8,M,17.5,M,,*76,1603352871428
Fix,gps,22.925359,120.294872,25.139282,0.000000,13.936001,1603352873000
Raw,9185329,9418881000000,,,-1287378671552264704,0.0,113.34611917845905,-11.25150232949083,18.589440982591665,7,18,0.0,207,38872353267786,13,31.9,507.8069763183594,0.2597000002861023,0,0.0,0.0,,,,,0,,3,,
Raw,9185330,9418881000000,,,-1287378671552264704,0.0,113.34611917845905,-11.25150232949083,18.589440982591665,7,15,0.0,207,38872354817400,137,14.9,-801.046630859375,4.59250020980835,0,0.0,0.0,,,,,0,,3,,
Raw,9185330,9418881000000,,,-1287378671552264704,0.0,113.34611917845905,-11.25150232949083,18.589440982591665,7,19,0.0,207,38872353904241,49,20.5,283.2786865234375,1.8309999704360962,0,0.0,0.0,,,,,0,,3,,
Raw,9185331,9418881000000,,,-1287378671552264704,0.0,113.34611917845905,-11.25150232949083,18.589440982591665,7,3,0.0,207,38872365414389,137,15.7,-249.6974639892578,5.229000091552734,0,0.0,0.0,,,,,0,,3,,
Raw,9185331,9418881000000,,,-1287378671552264704,0.0,113.34611917845905,-11.25150232949083,18.589440982591665,7,4,0.0,207,38872357571865,84,16.2,-541.8346557617188,2.1570000648498535,0,0.0,0.0,,,,,0,,3,,
Raw,9185331,9418881000000,,,-1287378671552264704,0.0,113.34611917845905,-11.25150232949083,18.589440982591665,7,10,0.0,15,373690362995067,654,14.6,-391.1201171875,16.374500274658203,0,0.0,0.0,,,,,0,,1,,
Raw,9185332,9418881000000,,,-1287378671552264704,0.0,113.34611917845905,-11.25150232949083,18.589440982591665,7,31,0.0,15,373690354323544,14,30.8,-561.5325927734375,0.06180000305175781,0,0.0,0.0,,,,,0,,1,,
Raw,9185332,9418881000000,,,-1287378671552264704,0.0,113.34611917845905,-11.25150232949083,18.589440982591665,7,32,0.0,15,373690356301521,35,22.4,-308.6087646484375,0.8255000114440918,0,0.0,0.0,,,,,0,,1,,
Raw,9185333,9418881000000,,,-1287378671552264704,0.0,113.34611917845905,-11.25150232949083,18.589440982591665,7,5,0.0,783,373676300586524,56,23.1,-3.111039876937866,3.6585001945495605,0,0.0,0.0,,,,,0,,5,,
Raw,9185333,9418881000000,,,-1287378671552264704,0.0,113.34611917845905,-11.25150232949083,18.589440982591665,7,13,0.0,15,373676310125834,651,14.4,292.37054443359375,16.286500930786133,0,0.0,0.0,,,,,0,,5,,
Raw,9185334,9418881000000,,,-1287378671552264704,0.0,113.34611917845905,-11.25150232949083,18.589440982591665,7,21,0.0,15,373676345230654,89,16.1,-513.667236328125,2.5989999771118164,0,0.0,0.0,,,,,0,,5,,
Raw,9185334,9418881000000,,,-1287378671552264704,0.0,113.34611917845905,-11.25150232949083,18.589440982591665,7,7,0.0,7183,373690352050922,203,14.7,-83.4818344116211,7.20550012588501,0,0.0,0.0,,,,,0,,6,,
Raw,9185335,9418881000000,,,-1287378671552264704,0.0,113.34611917845905,-11.25150232949083,18.589440982591665,7,13,0.0,7183,373690341574281,137,16.2,448.07501220703125,5.5370001792907715,0,0.0,0.0,,,,,0,,6,,
Raw,9185335,9418881000000,,,-1287378671552264704,0.0,113.34611917845905,-11.25150232949083,18.589440982591665,7,26,0.0,7183,373690347990119,13,31.7,339.2079772949219,0.343999981880188,0,0.0,0.0,,,,,0,,6,,
Raw,9185336,9418881000000,,,-1287378671552264704,0.0,113.34611917845905,-11.25150232949083,18.589440982591665,7,33,0.0,7183,373690340950620,46,20.6,28.648712158203125,0.765500009059906,0,0.0,0.0,,,,,0,,6,,
NMEA,$GPGSV,3,1,11,10,56,329,15,31,16,233,31,32,26,305,22,12,42,094,*7B,1603352872424
NMEA,$GPGSV,3,2,11,15,16,081,,18,26,196,,20,82,157,,21,02,314,*7D,1603352872424
NMEA,$GPGSV,3,3,11,23,84,073,,24,30,036,,25,43,149,*4C,1603352872424
NMEA,$GLGSV,2,1,05,82,06,236,32,79,09,202,15,83,08,279,21,67,49,023,16*6C,1603352872424
NMEA,$GLGSV,2,2,05,68,18,329,16*58,1603352872425
NMEA,$GAGSV,2,1,07,07,53,015,15,13,11,192,16,26,24,244,32,33,12,293,21*6B,1603352872425
NMEA,$GAGSV,2,2,07,21,06,201,,27,50,170,,30,52,068,*55,1603352872425
NMEA,$PQGSV,1,1,01,194,64,108,20,0,5*6E,1603352872425
NMEA,$PQGSV,4,1,16,05,17,258,23,13,46,227,14,21,08,314,16,01,51,130,,0,4*6B,1603352872426
NMEA,$PQGSV,4,2,16,02,41,241,,03,60,202,,04,37,115,,06,53,354,,0,4*68,1603352872426
NMEA,$PQGSV,4,3,16,07,37,165,,08,35,196,,09,45,312,,10,19,188,,0,4*6A,1603352872426
NMEA,$PQGSV,4,4,16,16,52,344,,19,53,092,,20,09,120,,22,54,344,,0,4*60,1603352872426
NMEA,$GNGSA,A,2,31,32,,,,,,,,,,,1.4,1.0,0.9,1*3E,1603352872427
NMEA,$GNGSA,A,3,67,68,79,82,83,,,,,,,,1.4,1.0,0.9,2*3F,1603352872427
NMEA,$GNGSA,A,3,01,07,13,26,,,,,,,,,1.4,1.0,0.9,3*3E,1603352872428
NMEA,$PQGSA,A,2,05,,,,,,,,,,,,1.4,1.0,0.9,4*35,1603352872428
NMEA,$GNVTG,,T,,M,0.0,N,0.0,K,A*3D,1603352872429
NMEA,$GNRMC,074753.00,A,2255.521555,N,12017.692326,E,0.0,,221020,2.8,W,A*10,1603352872429
NMEA,$GNGGA,074753.00,2255.521555,N,12017.692326,E,1,12,1.0,7.7,M,17.5,M,,*7D,1603352872429
Raw,9186431,9419881000000,,,-1287378671552264704,0.0,119.04412531293929,-12.615297272699246,20.85041695266955,7,18,0.0,207,38873353266108,10,34.4,507.1299743652344,0.256600022315979,0,0.0,0.0,,,,,0,,3,,
Raw,9186432,9419881000000,,,-1287378671552264704,0.0,119.04412531293929,-12.615297272699246,20.85041695266955,7,15,0.0,207,38873354820072,168,14.9,-801.046630859375,6.09250020980835,0,0.0,0.0,,,,,0,,3,,
Raw,9186433,9419881000000,,,-1287378671552264704,0.0,119.04412531293929,-12.615297272699246,20.85041695266955,7,19,0.0,207,38873353903383,31,23.2,282.26922607421875,0.9009999632835388,0,0.0,0.0,,,,,0,,3,,
Raw,9186433,9419881000000,,,-1287378671552264704,0.0,119.04412531293929,-12.615297272699246,20.85041695266955,7,3,0.0,207,38873365415221,172,15.7,-249.6974639892578,6.729000091552734,0,0.0,0.0,,,,,0,,3,,
Raw,9186434,9419881000000,,,-1287378671552264704,0.0,119.04412531293929,-12.615297272699246,20.85041695266955,7,4,0.0,207,38873357573754,61,18.5,-543.71142578125,1.2370001077651978,0,0.0,0.0,,,,,0,,3,,
Raw,9186434,9419881000000,,,-1287378671552264704,0.0,119.04412531293929,-12.615297272699246,20.85041695266955,7,10,0.0,15,373691362996372,763,14.6,-391.1201171875,17.874500274658203,0,0.0,0.0,,,,,0,,1,,
Raw,9186435,9419881000000,,,-1287378671552264704,0.0,119.04412531293929,-12.615297272699246,20.85041695266955,7,31,0.0,15,373691354325396,11,33.3,-562.1383056640625,0.058900002390146255,0,0.0,0.0,,,,,0,,1,,
Raw,9186436,9419881000000,,,-1287378671552264704,0.0,119.04412531293929,-12.615297272699246,20.85041695266955,7,32,0.0,15,373691356302510,53,19.6,-309.3889465332031,0.9555000066757202,0,0.0,0.0,,,,,0,,1,,
Raw,9186437,9419881000000,,,-1287378671552264704,0.0,119.04412531293929,-12.615297272699246,20.85041695266955,7,5,0.0,783,373677300586534,83,23.1,-3.111039876937866,5.1585001945495605,0,0.0,0.0,,,,,0,,5,,
Raw,9186437,9419881000000,,,-1287378671552264704,0.0,119.04412531293929,-12.615297272699246,20.85041695266955,7,13,0.0,15,373677310124858,761,14.4,292.37054443359375,17.786500930786133,0,0.0,0.0,,,,,0,,5,,
Raw,9186438,9419881000000,,,-1287378671552264704,0.0,119.04412531293929,-12.615297272699246,20.85041695266955,7,21,0.0,15,373677345232377,61,18.5,-515.2515869140625,0.9389999508857727,0,0.0,0.0,,,,,0,,5,,
Raw,9186438,9419881000000,,,-1287378671552264704,0.0,119.04412531293929,-12.615297272699246,20.85041695266955,7,7,0.0,7183,373691352051248,124,14.6,-87.82052612304688,3.4555001258850098,0,0.0,0.0,,,,,0,,6,,
Raw,9186439,9419881000000,,,-1287378671552264704,0.0,119.04412531293929,-12.615297272699246,20.85041695266955,7,13,0.0,7183,373691341572786,175,16.2,448.07501220703125,7.0370001792907715,0,0.0,0.0,,,,,0,,6,,
Raw,9186440,9419881000000,,,-1287378671552264704,0.0,119.04412531293929,-12.615297272699246,20.85041695266955,7,26,0.0,7183,373691347988985,13,31.5,340.21429443359375,0.06270000338554382,0,0.0,0.0,,,,,0,,6,,
Raw,9186440,9419881000000,,,-1287378671552264704,0.0,119.04412531293929,-12.615297272699246,20.85041695266955,7,33,0.0,7183,373691340950546,70,17.7,28.38230323791504,0.9555000066757202,0,0.0,0.0,,,,,0,,6,,
Fix,gps,22.925354,120.294871,24.311707,0.820000,13.936001,1603352874000
NMEA,$GPGSV,3,1,11,10,56,329,15,31,16,233,33,32,26,305,20,12,42,094,*7B,1603352873422
NMEA,$GPGSV,3,2,11,15,16,081,,18,26,196,,20,82,157,,21,02,314,*7D,1603352873422
NMEA,$GPGSV,3,3,11,23,84,073,,24,30,036,,25,43,149,*4C,1603352873423
NMEA,$GLGSV,2,1,05,82,06,236,34,79,09,202,15,83,08,279,23,67,49,023,16*68,1603352873425
NMEA,$GLGSV,2,2,05,68,18,329,19*57,1603352873425
NMEA,$GAGSV,2,1,07,07,53,015,15,13,11,192,16,26,24,244,32,33,12,293,18*61,1603352873426
NMEA,$GAGSV,2,2,07,21,06,201,,27,50,170,,30,52,068,*55,1603352873426
NMEA,$PQGSV,1,1,01,194,64,108,20,0,5*6E,1603352873426
NMEA,$PQGSV,4,1,16,05,17,258,23,13,46,227,14,21,08,314,19,01,51,130,,0,4*64,1603352873426
NMEA,$PQGSV,4,2,16,02,41,241,,03,60,202,,04,37,115,,06,53,354,,0,4*68,1603352873426
NMEA,$PQGSV,4,3,16,07,37,165,,08,35,196,,09,45,312,,10,19,188,,0,4*6A,1603352873427
NMEA,$PQGSV,4,4,16,16,52,344,,19,53,092,,20,09,120,,22,54,344,,0,4*60,1603352873427
NMEA,$GNGSA,A,2,31,32,,,,,,,,,,,1.4,1.0,0.9,1*3E,1603352873428
NMEA,$GNGSA,A,3,67,68,79,82,83,,,,,,,,1.4,1.0,0.9,2*3F,1603352873428
NMEA,$GNGSA,A,3,01,07,13,26,,,,,,,,,1.4,1.0,0.9,3*3E,1603352873428
NMEA,$PQGSA,A,2,05,,,,,,,,,,,,1.4,1.0,0.9,4*35,1603352873431
NMEA,$GNVTG,141.2,T,141.2,M,1.6,N,3.0,K,A*39,1603352873431
NMEA,$GNRMC,074754.00,A,2255.521245,N,12017.692243,E,1.6,141.2,221020,2.8,W,A*3C,1603352873432
NMEA,$GNGGA,074754.00,2255.521245,N,12017.692243,E,1,12,1.0,6.8,M,17.5,M,,*70,1603352873434
Fix,gps,22.925345,120.294869,25.476929,0.940000,13.936001,1603352875000
NMEA,$GPGSV,3,1,11,10,56,329,15,31,16,233,33,32,26,305,22,12,42,094,*79,1603352874424
Raw,9187330,9420881000000,,,-1287378671552264704,0.0,121.40321632614359,-13.823667703566748,21.23045364032014,7,18,0.0,207,38874353264399,11,33.6,507.4997253417969,0.2574000060558319,0,0.0,0.0,,,,,0,,3,,
Raw,9187331,9420881000000,,,-1287378671552264704,0.0,121.40321632614359,-13.823667703566748,21.23045364032014,7,15,0.0,207,38874354822744,208,14.9,-801.046630859375,7.59250020980835,0,0.0,0.0,,,,,0,,3,,
Raw,9187332,9420881000000,,,-1287378671552264704,0.0,121.40321632614359,-13.823667703566748,21.23045364032014,7,19,0.0,207,38874353902414,27,24.0,283.2319641113281,0.8510000109672546,0,0.0,0.0,,,,,0,,3,,
Raw,9187333,9420881000000,,,-1287378671552264704,0.0,121.40321632614359,-13.823667703566748,21.23045364032014,7,3,0.0,207,38874365416061,160,12.1,-252.7237548828125,4.069000244140625,0,0.0,0.0,,,,,0,,3,,
Raw,9187334,9420881000000,,,-1287378671552264704,0.0,121.40321632614359,-13.823667703566748,21.23045364032014,7,4,0.0,207,38874357575669,70,17.1,-543.56201171875,1.3170000314712524,0,0.0,0.0,,,,,0,,3,,
Raw,9187334,9420881000000,,,-1287378671552264704,0.0,121.40321632614359,-13.823667703566748,21.23045364032014,7,10,0.0,15,373692362997676,883,14.6,-391.1201171875,19.374500274658203,0,0.0,0.0,,,,,0,,1,,
Raw,9187335,9420881000000,,,-1287378671552264704,0.0,121.40321632614359,-13.823667703566748,21.23045364032014,7,31,0.0,15,373692354327291,11,33.0,-561.6967163085938,0.058900002390146255,0,0.0,0.0,,,,,0,,1,,
Raw,9187335,9420881000000,,,-1287378671552264704,0.0,121.40321632614359,-13.823667703566748,21.23045364032014,7,32,0.0,15,373692356303574,40,21.7,-310.2072448730469,0.8255000114440918,0,0.0,0.0,,,,,0,,1,,
Raw,9187336,9420881000000,,,-1287378671552264704,0.0,121.40321632614359,-13.823667703566748,21.23045364032014,7,5,0.0,783,373678300586504,34,24.8,2.8805923461914062,2.06850004196167,0,0.0,0.0,,,,,0,,5,,
Raw,9187337,9420881000000,,,-1287378671552264704,0.0,121.40321632614359,-13.823667703566748,21.23045364032014,7,13,0.0,15,373678310123883,880,14.4,292.37054443359375,19.286500930786133,0,0.0,0.0,,,,,0,,5,,
Raw,9187338,9420881000000,,,-1287378671552264704,0.0,121.40321632614359,-13.823667703566748,21.23045364032014,7,21,0.0,15,373678345234126,53,19.9,-514.6754150390625,0.8089999556541443,0,0.0,0.0,,,,,0,,5,,
Raw,9187339,9420881000000,,,-1287378671552264704,0.0,121.40321632614359,-13.823667703566748,21.23045364032014,7,7,0.0,7183,373692352051541,148,14.6,-87.82052612304688,4.95550012588501,0,0.0,0.0,,,,,0,,6,,
Raw,9187339,9420881000000,,,-1287378671552264704,0.0,121.40321632614359,-13.823667703566748,21.23045364032014,7,13,0.0,7183,373692341571349,124,14.7,444.2215576171875,3.4570000171661377,0,0.0,0.0,,,,,0,,6,,
Raw,9187340,9420881000000,,,-1287378671552264704,0.0,121.40321632614359,-13.823667703566748,21.23045364032014,7,26,0.0,7183,373692347987853,14,30.5,339.628173828125,0.0633000060915947,0,0.0,0.0,,,,,0,,6,,
Raw,9187340,9420881000000,,,-1287378671552264704,0.0,121.40321632614359,-13.823667703566748,21.23045364032014,7,33,0.0,7183,373692340950454,53,19.7,29.77144432067871,0.8255000114440918,0,0.0,0.0,,,,,0,,6,,
NMEA,$GPGSV,3,2,11,15,16,081,,18,26,196,,20,82,157,,21,02,314,*7D,1603352874424
NMEA,$GPGSV,3,3,11,23,84,073,,24,30,036,,25,43,149,*4C,1603352874424
NMEA,$GLGSV,2,1,05,82,06,236,34,79,09,202,15,83,08,279,24,67,49,023,12*6B,1603352874424
NMEA,$GLGSV,2,2,05,68,18,329,17*59,1603352874424
NMEA,$GAGSV,2,1,07,07,53,015,15,13,11,192,15,26,24,244,31,33,12,293,20*6A,1603352874425
NMEA,$GAGSV,2,2,07,21,06,201,,27,50,170,,30,52,068,*55,1603352874425
NMEA,$PQGSV,1,1,01,194,64,108,20,0,5*6E,1603352874425
NMEA,$PQGSV,4,1,16,05,17,258,25,13,46,227,14,21,08,314,20,01,51,130,,0,4*68,1603352874425
NMEA,$PQGSV,4,2,16,02,41,241,,03,60,202,,04,37,115,,06,53,354,,0,4*68,1603352874426
NMEA,$PQGSV,4,3,16,07,37,165,,08,35,196,,09,45,312,,10,19,188,,0,4*6A,1603352874426
NMEA,$PQGSV,4,4,16,16,52,344,,19,53,092,,20,09,120,,22,54,344,,0,4*60,1603352874427
NMEA,$GNGSA,A,2,31,32,,,,,,,,,,,1.4,1.0,0.9,1*3E,1603352874429
NMEA,$GNGSA,A,3,67,68,79,82,83,,,,,,,,1.4,1.0,0.9,2*3F,1603352874429
NMEA,$GNGSA,A,3,01,07,13,26,,,,,,,,,1.4,1.0,0.9,3*3E,1603352874429
NMEA,$PQGSA,A,2,05,,,,,,,,,,,,1.4,1.0,0.9,4*35,1603352874430
NMEA,$GNVTG,164.0,T,164.0,M,1.8,N,3.4,K,A*33,1603352874430
NMEA,$GNRMC,074755.00,A,2255.520684,N,12017.692158,E,1.8,164.0,221020,2.8,W,A*37,1603352874430
NMEA,$GNGGA,074755.00,2255.520684,N,12017.692158,E,1,12,1.0,8.0,M,17.5,M,,*76,1603352874430
Raw,9188502,9421881000000,,,-1287378671552264960,0.0,118.09768329840153,-13.847487893470424,21.865649161072866,7,18,0.0,207,38875353262710,10,34.3,507.59466552734375,0.256600022315979,0,0.0,0.0,,,,,0,,3,,
Raw,9188504,9421881000000,,,-1287378671552264960,0.0,118.09768329840153,-13.847487893470424,21.865649161072866,7,15,0.0,207,38875354825311,142,13.4,-802.3284301757812,3.9625000953674316,0,0.0,0.0,,,,,0,,3,,
Raw,9188507,9421881000000,,,-1287378671552264960,0.0,118.09768329840153,-13.847487893470424,21.865649161072866,7,19,0.0,207,38875353901503,35,22.4,283.2132568359375,0.9609999656677246,0,0.0,0.0,,,,,0,,3,,
Raw,9188509,9421881000000,,,-1287378671552264960,0.0,118.09768329840153,-13.847487893470424,21.865649161072866,7,3,0.0,207,38875365416904,186,12.1,-252.7237548828125,5.569000244140625,0,0.0,0.0,,,,,0,,3,,
Raw,9188511,9421881000000,,,-1287378671552264960,0.0,118.09768329840153,-13.847487893470424,21.865649161072866,7,4,0.0,207,38875357577540,61,18.9,-542.8804321289062,1.2370001077651978,0,0.0,0.0,,,,,0,,3,,
Raw,9188514,9421881000000,,,-1287378671552264960,0.0,118.09768329840153,-13.847487893470424,21.865649161072866,7,10,0.0,15,373693362998981,1013,14.6,-391.1201171875,20.874500274658203,0,0.0,0.0,,,,,0,,1,,
Raw,9188517,9421881000000,,,-1287378671552264960,0.0,118.09768329840153,-13.847487893470424,21.865649161072866,7,31,0.0,15,373693354329148,11,33.0,-561.5408325195312,0.058900002390146255,0,0.0,0.0,,,,,0,,1,,
Raw,9188520,9421881000000,,,-1287378671552264960,0.0,118.09768329840153,-13.847487893470424,21.865649161072866,7,32,0.0,15,373693356304609,48,21.7,-310.2072448730469,2.325500011444092,0,0.0,0.0,,,,,0,,1,,
Raw,9188523,9421881000000,,,-1287378671552264960,0.0,118.09768329840153,-13.847487893470424,21.865649161072866,7,5,0.0,783,373679300586494,51,24.8,2.8805923461914062,3.56850004196167,0,0.0,0.0,,,,,0,,5,,
Raw,9188525,9421881000000,,,-1287378671552264960,0.0,118.09768329840153,-13.847487893470424,21.865649161072866,7,13,0.0,15,373679310122908,1010,14.4,292.37054443359375,20.786500930786133,0,0.0,0.0,,,,,0,,5,,
Raw,9188528,9421881000000,,,-1287378671552264960,0.0,118.09768329840153,-13.847487893470424,21.865649161072866,7,21,0.0,15,373679345235843,31,23.2,-513.9649047851562,0.6389999985694885,0,0.0,0.0,,,,,0,,5,,
Raw,9188531,9421881000000,,,-1287378671552264960,0.0,118.09768329840153,-13.847487893470424,21.865649161072866,7,7,0.0,7183,373693352051834,182,14.6,-87.82052612304688,6.45550012588501,0,0.0,0.0,,,,,0,,6,,
Raw,9188534,9421881000000,,,-1287378671552264960,0.0,118.09768329840153,-13.847487893470424,21.865649161072866,7,13,0.0,7183,373693341569868,148,14.7,444.2215576171875,4.957000255584717,0,0.0,0.0,,,,,0,,6,,
Raw,9188537,9421881000000,,,-1287378671552264960,0.0,118.09768329840153,-13.847487893470424,21.865649161072866,7,26,0.0,7183,373693347986719,13,31.5,339.4627685546875,0.06270000338554382,0,0.0,0.0,,,,,0,,6,,
Raw,9188539,9421881000000,,,-1287378671552264960,0.0,118.09768329840153,-13.847487893470424,21.865649161072866,7,33,0.0,7183,373693340950353,81,16.1,31.4174861907959,1.0355000495910645,0,0.0,0.0,,,,,0,,6,,
Fix,gps,22.925337,120.294869,25.563049,0.880000,12.864000,1603352876000
NMEA,$GPGSV,3,1,11,10,56,329,15,31,16,233,33,32,26,305,22,12,42,094,*79,1603352875434
NMEA,$GPGSV,3,2,11,15,16,081,,18,26,196,,20,82,157,,21,02,314,*7D,1603352875434
NMEA,$GPGSV,3,3,11,23,84,073,,24,30,036,,25,43,149,*4C,1603352875442
NMEA,$GLGSV,2,1,05,82,06,236,34,79,09,202,13,83,08,279,22,67,49,023,12*6B,1603352875444
NMEA,$GLGSV,2,2,05,68,18,329,19*57,1603352875445
NMEA,$GAGSV,2,1,07,07,53,015,15,13,11,192,15,26,24,244,32,33,12,293,16*6C,1603352875448
NMEA,$GAGSV,2,2,07,21,06,201,,27,50,170,,30,52,068,*55,1603352875453
NMEA,$PQGSV,1,1,01,194,64,108,20,0,5*6E,1603352875454
NMEA,$PQGSV,4,1,16,05,17,258,25,13,46,227,14,21,08,314,23,01,51,130,,0,4*6B,1603352875454
NMEA,$PQGSV,4,2,16,02,41,241,,03,60,202,,04,37,115,,06,53,354,,0,4*68,1603352875454
NMEA,$PQGSV,4,3,16,07,37,165,,08,35,196,,09,45,312,,10,19,188,,0,4*6A,1603352875455
NMEA,$PQGSV,4,4,16,16,52,344,,19,53,092,,20,09,120,,22,54,344,,0,4*60,1603352875455
NMEA,$GNGSA,A,2,31,32,,,,,,,,,,,1.4,1.0,0.9,1*3E,1603352875455
NMEA,$GNGSA,A,3,67,68,79,82,83,,,,,,,,1.4,1.0,0.9,2*3F,1603352875456
NMEA,$GNGSA,A,3,01,07,13,26,,,,,,,,,1.4,1.0,0.9,3*3E,1603352875456
NMEA,$PQGSA,A,2,05,,,,,,,,,,,,1.4,1.0,0.9,4*35,1603352875456
NMEA,$GNVTG,158.9,T,158.9,M,1.7,N,3.2,K,A*3A,1603352875456
NMEA,$GNRMC,074756.00,A,2255.520246,N,12017.692150,E,1.7,158.9,221020,2.8,W,A*3F,1603352875458
NMEA,$GNGGA,074756.00,2255.520246,N,12017.692150,E,1,12,1.0,8.1,M,17.5,M,,*76,1603352875458
NMEA,$GPGSV,3,1,11,10,56,329,19,31,16,233,33,32,26,305,16,12,42,094,*72,1603352876440
Raw,9189405,9422881000000,,,-1287378671552264960,0.0,108.46797522390261,-14.604563067785456,20.40717150788942,7,18,0.0,207,38876353260997,10,34.6,508.58392333984375,0.256600022315979,0,0.0,0.0,,,,,0,,3,,
Raw,9189408,9422881000000,,,-1287378671552264960,0.0,108.46797522390261,-14.604563067785456,20.40717150788942,7,15,0.0,207,38876354827987,168,13.4,-802.3284301757812,5.462500095367432,0,0.0,0.0,,,,,0,,3,,
Raw,9189410,9422881000000,,,-1287378671552264960,0.0,108.46797522390261,-14.604563067785456,20.40717150788942,7,19,0.0,207,38876353900505,35,22.9,284.6433410644531,0.9609999656677246,0,0.0,0.0,,,,,0,,3,,
Raw,9189414,9422881000000,,,-1287378671552264960,0.0,108.46797522390261,-14.604563067785456,20.40717150788942,7,3,0.0,207,38876365417747,222,12.1,-252.7237548828125,7.069000244140625,0,0.0,0.0,,,,,0,,3,,
Raw,9189417,9422881000000,,,-1287378671552264960,0.0,108.46797522390261,-14.604563067785456,20.40717150788942,7,4,0.0,207,38876357579355,81,16.1,-542.5069580078125,1.4070000648498535,0,0.0,0.0,,,,,0,,3,,
Raw,9189418,9422881000000,,,-1287378671552264960,0.0,108.46797522390261,-14.604563067785456,20.40717150788942,7,10,0.0,15,373694363000284,61,18.8,-394.0220947265625,1.0160000324249268,0,0.0,0.0,,,,,0,,1,,
Raw,9189418,9422881000000,,,-1287378671552264960,0.0,108.46797522390261,-14.604563067785456,20.40717150788942,7,31,0.0,15,373694354331038,11,33.0,-560.4844970703125,0.058900002390146255,0,0.0,0.0,,,,,0,,1,,
Raw,9189419,9422881000000,,,-1287378671552264960,0.0,108.46797522390261,-14.604563067785456,20.40717150788942,7,32,0.0,15,373694356305488,84,16.0,-307.4384460449219,2.0455000400543213,0,0.0,0.0,,,,,0,,1,,
Raw,9189419,9422881000000,,,-1287378671552264960,0.0,108.46797522390261,-14.604563067785456,20.40717150788942,7,5,0.0,783,373680300586498,26,25.5,-2.9190001487731934,1.31850004196167,0,0.0,0.0,,,,,0,,5,,
Raw,9189420,9422881000000,,,-1287378671552264960,0.0,108.46797522390261,-14.604563067785456,20.40717150788942,7,13,0.0,15,373680310121933,1149,14.4,292.37054443359375,22.286500930786133,0,0.0,0.0,,,,,0,,5,,
Raw,9189420,9422881000000,,,-1287378671552264960,0.0,108.46797522390261,-14.604563067785456,20.40717150788942,7,21,0.0,15,373680345237556,35,22.9,-513.1871337890625,0.6389999985694885,0,0.0,0.0,,,,,0,,5,,
Raw,9189421,9422881000000,,,-1287378671552264960,0.0,108.46797522390261,-14.604563067785456,20.40717150788942,7,7,0.0,7183,373694352052081,89,16.3,-88.04888153076172,2.5355000495910645,0,0.0,0.0,,,,,0,,6,,
Raw,9189421,9422881000000,,,-1287378671552264960,0.0,108.46797522390261,-14.604563067785456,20.40717150788942,7,13,0.0,7183,373694341568386,182,14.7,444.2215576171875,6.457000255584717,0,0.0,0.0,,,,,0,,6,,
Raw,9189422,9422881000000,,,-1287378671552264960,0.0,108.46797522390261,-14.604563067785456,20.40717150788942,7,26,0.0,7183,373694347985579,12,32.5,340.3877868652344,0.3240000009536743,0,0.0,0.0,,,,,0,,6,,
Raw,9189423,9422881000000,,,-1287378671552264960,0.0,108.46797522390261,-14.604563067785456,20.40717150788942,7,33,0.0,7183,373694340950234,70,17.1,30.44698715209961,0.9555000066757202,0,0.0,0.0,,,,,0,,6,,
Fix,gps,22.925333,120.294863,25.824097,0.200000,12.864000,1603352877000
NMEA,$GPGSV,3,2,11,15,16,081,,18,26,196,,20,82,157,,21,02,314,*7D,1603352876440
NMEA,$GPGSV,3,3,11,23,84,073,,24,30,036,,25,43,149,*4C,1603352876442
NMEA,$GLGSV,2,1,05,82,06,236,35,79,09,202,13,83,08,279,23,67,49,023,12*6B,1603352876449
NMEA,$GLGSV,2,2,05,68,18,329,16*58,1603352876451
NMEA,$GAGSV,2,1,07,07,53,015,16,13,11,192,15,26,24,244,33,33,12,293,17*6F,1603352876452
NMEA,$GAGSV,2,2,07,21,06,201,,27,50,170,,30,52,068,*55,1603352876453
NMEA,$PQGSV,1,1,01,194,64,108,20,0,5*6E,1603352876455
NMEA,$PQGSV,4,1,16,05,17,258,26,13,46,227,14,21,08,314,23,01,51,130,,0,4*68,1603352876456
NMEA,$PQGSV,4,2,16,02,41,241,,03,60,202,,04,37,115,,06,53,354,,0,4*68,1603352876457
NMEA,$PQGSV,4,3,16,07,37,165,,08,35,196,,09,45,312,,10,19,188,,0,4*6A,1603352876458
NMEA,$PQGSV,4,4,16,16,52,344,,19,53,092,,20,09,120,,22,54,344,,0,4*60,1603352876458
NMEA,$GNGSA,A,2,31,32,,,,,,,,,,,1.3,1.0,0.9,1*39,1603352876467
NMEA,$GNGSA,A,3,67,68,79,82,83,,,,,,,,1.3,1.0,0.9,2*38,1603352876468
NMEA,$GNGSA,A,3,01,07,13,26,,,,,,,,,1.3,1.0,0.9,3*39,1603352876469
NMEA,$PQGSA,A,2,05,,,,,,,,,,,,1.3,1.0,0.9,4*32,1603352876472
NMEA,$GNVTG,155.0,T,155.0,M,0.4,N,0.7,K,A*3E,1603352876473
NMEA,$GNRMC,074757.00,A,2255.519969,N,12017.691808,E,0.4,155.0,221020,2.8,W,A*33,1603352876474
NMEA,$GNGGA,074757.00,2255.519969,N,12017.691808,E,1,12,1.0,8.4,M,17.5,M,,*79,1603352876474
Raw,9190428,9423881000000,,,-1287378671552264960,0.0,98.99823635350913,-11.269104234643676,17.66852883704145,7,18,0.0,207,38877353259325,11,33.4,509.50732421875,0.2574000060558319,0,0.0,0.0,,,,,0,,3,,
Raw,9190429,9423881000000,,,-1287378671552264960,0.0,98.99823635350913,-11.269104234643676,17.66852883704145,7,15,0.0,207,38877354830663,204,13.4,-802.3284301757812,6.96250057220459,0,0.0,0.0,,,,,0,,3,,
Raw,9190429,9423881000000,,,-1287378671552264960,0.0,98.99823635350913,-11.269104234643676,17.66852883704145,7,19,0.0,207,38877353899798,35,22.1,285.32568359375,0.9609999656677246,0,0.0,0.0,,,,,0,,3,,
Raw,9190430,9423881000000,,,-1287378671552264960,0.0,98.99823635350913,-11.269104234643676,17.66852883704145,7,3,0.0,207,38877365418590,269,12.1,-252.7237548828125,8.569000244140625,0,0.0,0.0,,,,,0,,3,,
Raw,9190430,9423881000000,,,-1287378671552264960,0.0,98.99823635350913,-11.269104234643676,17.66852883704145,7,4,0.0,207,38877357581035,81,16.3,-541.041015625,1.4070000648498535,0,0.0,0.0,,,,,0,,3,,
Raw,9190431,9423881000000,,,-1287378671552264960,0.0,98.99823635350913,-11.269104234643676,17.66852883704145,7,10,0.0,15,373695363001599,61,18.2,-394.0030517578125,1.0959999561309814,0,0.0,0.0,,,,,0,,1,,
Raw,9190432,9423881000000,,,-1287378671552264960,0.0,98.99823635350913,-11.269104234643676,17.66852883704145,7,31,0.0,15,373695354332895,11,33.7,-559.4885864257812,0.058900002390146255,0,0.0,0.0,,,,,0,,1,,
Raw,9190432,9423881000000,,,-1287378671552264960,0.0,98.99823635350913,-11.269104234643676,17.66852883704145,7,32,0.0,15,373695356306513,99,16.0,-307.4384460449219,3.5455000400543213,0,0.0,0.0,,,,,0,,1,,
Raw,9190433,9423881000000,,,-1287378671552264960,0.0,98.99823635350913,-11.269104234643676,17.66852883704145,7,5,0.0,783,373681300586508,38,25.5,-2.9190001487731934,2.81850004196167,0,0.0,0.0,,,,,0,,5,,
Raw,9190433,9423881000000,,,-1287378671552264960,0.0,98.99823635350913,-11.269104234643676,17.66852883704145,7,13,0.0,15,373681310120957,1299,14.4,292.37054443359375,23.786500930786133,0,0.0,0.0,,,,,0,,5,,
Raw,9190434,9423881000000,,,-1287378671552264960,0.0,98.99823635350913,-11.269104234643676,17.66852883704145,7,21,0.0,15,373681345239198,46,20.1,-512.2845458984375,0.8089999556541443,0,0.0,0.0,,,,,0,,5,,
Raw,9190435,9423881000000,,,-1287378671552264960,0.0,98.99823635350913,-11.269104234643676,17.66852883704145,7,7,0.0,7183,373695352052375,108,16.3,-88.04888153076172,4.0355000495910645,0,0.0,0.0,,,,,0,,6,,
Raw,9190435,9423881000000,,,-1287378671552264960,0.0,98.99823635350913,-11.269104234643676,17.66852883704145,7,13,0.0,7183,373695341566904,227,14.7,444.2215576171875,7.957000255584717,0,0.0,0.0,,,,,0,,6,,
Raw,9190436,9423881000000,,,-1287378671552264960,0.0,98.99823635350913,-11.269104234643676,17.66852883704145,7,26,0.0,7183,373695347984442,12,32.7,340.7171325683594,0.06140000373125076,0,0.0,0.0,,,,,0,,6,,
Raw,9190437,9423881000000,,,-1287378671552264960,0.0,98.99823635350913,-11.269104234643676,17.66852883704145,7,33,0.0,7183,373695340950120,61,18.0,31.0749568939209,0.8855000138282776,0,0.0,0.0,,,,,0,,6,,
Fix,gps,22.925333,120.294845,24.465942,0.660000,13.936001,1603352878000
NMEA,$GPGSV,3,1,11,10,56,329,18,31,16,233,34,32,26,305,16,12,42,094,*74,1603352877425
NMEA,$GPGSV,3,2,11,15,16,081,,18,26,196,,20,82,157,,21,02,314,*7D,1603352877425
NMEA,$GPGSV,3,3,11,23,84,073,,24,30,036,,25,43,149,*4C,1603352877426
NMEA,$GLGSV,2,1,05,82,06,236,33,79,09,202,13,83,08,279,22,67,49,023,12*6C,1603352877426
NMEA,$GLGSV,2,2,05,68,18,329,16*58,1603352877426
NMEA,$GAGSV,2,1,07,07,53,015,16,13,11,192,15,26,24,244,33,33,12,293,18*60,1603352877426
NMEA,$GAGSV,2,2,07,21,06,201,,27,50,170,,30,52,068,*55,1603352877427
NMEA,$PQGSV,1,1,01,194,64,108,20,0,5*6E,1603352877427
NMEA,$PQGSV,4,1,16,05,17,258,26,13,46,227,14,21,08,314,20,01,51,130,,0,4*6B,1603352877428
NMEA,$PQGSV,4,2,16,02,41,241,,03,60,202,,04,37,115,,06,53,354,,0,4*68,1603352877428
NMEA,$PQGSV,4,3,16,07,37,165,,08,35,196,,09,45,312,,10,19,188,,0,4*6A,1603352877428
NMEA,$PQGSV,4,4,16,16,52,344,,19,53,092,,20,09,120,,22,54,344,,0,4*60,1603352877428
NMEA,$GNGSA,A,2,10,31,32,,,,,,,,,,1.3,1.0,0.9,1*38,1603352877429
NMEA,$GNGSA,A,3,67,68,79,82,83,,,,,,,,1.3,1.0,0.9,2*38,1603352877430
NMEA,$GNGSA,A,3,01,07,13,26,,,,,,,,,1.3,1.0,0.9,3*39,1603352877431
NMEA,$PQGSA,A,2,05,,,,,,,,,,,,1.3,1.0,0.9,4*32,1603352877431
NMEA,$GNVTG,165.7,T,165.7,M,1.3,N,2.4,K,A*39,1603352877432
NMEA,$GNRMC,074758.00,A,2255.520006,N,12017.690703,E,1.3,165.7,221020,2.8,W,A*31,1603352877433
NMEA,$GNGGA,074758.00,2255.520006,N,12017.690703,E,1,12,1.0,7.0,M,17.5,M,,*72,1603352877433
Fix,gps,22.925336,120.294827,24.080994,0.230000,13.936001,1603352879000
NMEA,$GPGSV,3,1,11,10,56,329,19,31,16,233,32,32,26,305,16,12,42,094,*73,1603352878423
Raw,9191329,9424881000000,,,-1287378671552264960,0.0,108.6900447262451,-8.217497097569277,17.49856185699959,7,18,0.0,207,38878353257601,9,35.2,509.8274230957031,0.25609999895095825,0,0.0,0.0,,,,,0,,3,,
Raw,9191329,9424881000000,,,-1287378671552264960,0.0,108.6900447262451,-8.217497097569277,17.49856185699959,7,15,0.0,207,38878354833557,117,14.3,-801.8980712890625,3.0925002098083496,0,0.0,0.0,,,,,0,,3,,
Raw,9191330,9424881000000,,,-1287378671552264960,0.0,108.6900447262451,-8.217497097569277,17.49856185699959,7,19,0.0,207,38878353898707,35,22.9,285.3537292480469,0.9609999656677246,0,0.0,0.0,,,,,0,,3,,
Raw,9191330,9424881000000,,,-1287378671552264960,0.0,108.6900447262451,-8.217497097569277,17.49856185699959,7,3,0.0,207,38878365419433,325,12.1,-252.7237548828125,10.069000244140625,0,0.0,0.0,,,,,0,,3,,
Raw,9191331,9424881000000,,,-1287378671552264960,0.0,108.6900447262451,-8.217497097569277,17.49856185699959,7,4,0.0,207,38878357582820,53,19.1,-539.9298706054688,1.1570000648498535,0,0.0,0.0,,,,,0,,3,,
Raw,9191331,9424881000000,,,-1287378671552264960,0.0,108.6900447262451,-8.217497097569277,17.49856185699959,7,10,0.0,15,373696363002892,53,19.2,-393.0230407714844,1.0160000324249268,0,0.0,0.0,,,,,0,,1,,
Raw,9191331,9424881000000,,,-1287378671552264960,0.0,108.6900447262451,-8.217497097569277,17.49856185699959,7,31,0.0,15,373696354334761,12,32.1,-559.1107177734375,0.05990000069141388,0,0.0,0.0,,,,,0,,1,,
Raw,9191332,9424881000000,,,-1287378671552264960,0.0,108.6900447262451,-8.217497097569277,17.49856185699959,7,32,0.0,15,373696356307539,123,16.0,-307.4384460449219,5.0455002784729,0,0.0,0.0,,,,,0,,1,,
Raw,9191333,9424881000000,,,-1287378671552264960,0.0,108.6900447262451,-8.217497097569277,17.49856185699959,7,5,0.0,783,373682300586514,26,25.9,2.9862141609191895,1.2885000705718994,0,0.0,0.0,,,,,0,,5,,
Raw,9191333,9424881000000,,,-1287378671552264960,0.0,108.6900447262451,-8.217497097569277,17.49856185699959,7,13,0.0,15,373682310119982,1458,14.4,292.37054443359375,25.286500930786133,0,0.0,0.0,,,,,0,,5,,
Raw,9191334,9424881000000,,,-1287378671552264960,0.0,108.6900447262451,-8.217497097569277,17.49856185699959,7,21,0.0,15,373682345240993,35,22.6,-512.44775390625,0.6889999508857727,0,0.0,0.0,,,,,0,,5,,
Raw,9191334,9424881000000,,,-1287378671552264960,0.0,108.6900447262451,-8.217497097569277,17.49856185699959,7,7,0.0,7183,373696352052668,136,16.3,-88.04888153076172,5.5355000495910645,0,0.0,0.0,,,,,0,,6,,
Raw,9191335,9424881000000,,,-1287378671552264960,0.0,108.6900447262451,-8.217497097569277,17.49856185699959,7,13,0.0,7183,373696341565422,281,14.7,444.2215576171875,9.457000732421875,0,0.0,0.0,,,,,0,,6,,
Raw,9191335,9424881000000,,,-1287378671552264960,0.0,108.6900447262451,-8.217497097569277,17.49856185699959,7,26,0.0,7183,373696347983304,12,32.9,342.07684326171875,0.06140000373125076,0,0.0,0.0,,,,,0,,6,,
Raw,9191336,9424881000000,,,-1287378671552264960,0.0,108.6900447262451,-8.217497097569277,17.49856185699959,7,33,0.0,7183,373696340950017,69,18.0,31.0749568939209,2.385499954223633,0,0.0,0.0,,,,,0,,6,,
NMEA,$GPGSV,3,2,11,15,16,081,,18,26,196,,20,82,157,,21,02,314,*7D,1603352878425
NMEA,$GPGSV,3,3,11,23,84,073,,24,30,036,,25,43,149,*4C,1603352878425
NMEA,$GLGSV,2,1,05,82,06,236,35,79,09,202,14,83,08,279,23,67,49,023,12*6C,1603352878425
NMEA,$GLGSV,2,2,05,68,18,329,19*57,1603352878426
NMEA,$GAGSV,2,1,07,07,53,015,16,13,11,192,15,26,24,244,33,33,12,293,18*60,1603352878426
NMEA,$GAGSV,2,2,07,21,06,201,,27,50,170,,30,52,068,*55,1603352878426
NMEA,$PQGSV,1,1,01,194,64,108,13,0,5*6E,1603352878426
NMEA,$PQGSV,4,1,16,05,17,258,26,13,46,227,14,21,08,314,23,01,51,130,,0,4*68,1603352878427
NMEA,$PQGSV,4,2,16,02,41,241,,03,60,202,,04,37,115,,06,53,354,,0,4*68,1603352878427
NMEA,$PQGSV,4,3,16,07,37,165,,08,35,196,,09,45,312,,10,19,188,,0,4*6A,1603352878427
NMEA,$PQGSV,4,4,16,16,52,344,,19,53,092,,20,09,120,,22,54,344,,0,4*60,1603352878428
NMEA,$GNGSA,A,2,10,31,32,,,,,,,,,,1.3,1.0,0.9,1*38,1603352878428
NMEA,$GNGSA,A,3,67,68,79,82,83,,,,,,,,1.3,1.0,0.9,2*38,1603352878429
NMEA,$GNGSA,A,3,01,07,13,26,,,,,,,,,1.3,1.0,0.9,3*39,1603352878429
NMEA,$PQGSA,A,2,05,,,,,,,,,,,,1.3,1.0,0.9,4*32,1603352878429
NMEA,$GNVTG,300.0,T,300.0,M,0.4,N,0.8,K,A*31,1603352878429
NMEA,$GNRMC,074759.00,A,2255.520189,N,12017.689591,E,0.4,300.0,221020,2.8,W,A*37,1603352878430
NMEA,$GNGGA,074759.00,2255.520189,N,12017.689591,E,1,12,1.0,6.6,M,17.5,M,,*73,1603352878430
Raw,9192430,9425881000000,,,-1287378671552264960,0.0,119.12646004930139,-6.160586480340076,20.86303643628973,7,18,0.0,207,38879353255906,9,35.0,510.4685974121094,0.25609999895095825,0,0.0,0.0,,,,,0,,3,,
Raw,9192430,9425881000000,,,-1287378671552264960,0.0,119.12646004930139,-6.160586480340076,20.86303643628973,7,15,0.0,207,38879354836232,137,14.3,-801.8980712890625,4.59250020980835,0,0.0,0.0,,,,,0,,3,,
Raw,9192431,9425881000000,,,-1287378671552264960,0.0,119.12646004930139,-6.160586480340076,20.86303643628973,7,19,0.0,207,38879353897596,35,22.5,286.20428466796875,0.9609999656677246,0,0.0,0.0,,,,,0,,3,,
Raw,9192431,9425881000000,,,-1287378671552264960,0.0,119.12646004930139,-6.160586480340076,20.86303643628973,7,3,0.0,207,38879365420400,172,12.0,-249.03428649902344,4.819000244140625,0,0.0,0.0,,,,,0,,3,,
Raw,9192432,9425881000000,,,-1287378671552264960,0.0,119.12646004930139,-6.160586480340076,20.86303643628973,7,4,0.0,207,38879357584687,70,17.5,-540.3220825195312,1.3170000314712524,0,0.0,0.0,,,,,0,,3,,
Raw,9192433,9425881000000,,,-1287378671552264960,0.0,119.12646004930139,-6.160586480340076,20.86303643628973,7,10,0.0,15,373697363004154,61,18.5,-393.41314697265625,1.0160000324249268,0,0.0,0.0,,,,,0,,1,,
Raw,9192433,9425881000000,,,-1287378671552264960,0.0,119.12646004930139,-6.160586480340076,20.86303643628973,7,31,0.0,15,373697354336641,13,31.4,-558.4059448242188,0.06120000407099724,0,0.0,0.0,,,,,0,,1,,
Raw,9192434,9425881000000,,,-1287378671552264960,0.0,119.12646004930139,-6.160586480340076,20.86303643628973,7,32,0.0,15,373697356308643,90,16.1,-306.4584655761719,2.7955000400543213,0,0.0,0.0,,,,,0,,1,,
Raw,9192434,9425881000000,,,-1287378671552264960,0.0,119.12646004930139,-6.160586480340076,20.86303643628973,7,5,0.0,783,373683300586504,38,25.9,2.9862141609191895,2.7885000705718994,0,0.0,0.0,,,,,0,,5,,
Raw,9192435,9425881000000,,,-1287378671552264960,0.0,119.12646004930139,-6.160586480340076,20.86303643628973,7,13,0.0,15,373683310119007,1628,14.4,292.37054443359375,26.786500930786133,0,0.0,0.0,,,,,0,,5,,
Raw,9192436,9425881000000,,,-1287378671552264960,0.0,119.12646004930139,-6.160586480340076,20.86303643628973,7,21,0.0,15,373683345242715,31,23.2,-511.76605224609375,0.6389999985694885,0,0.0,0.0,,,,,0,,5,,
Raw,9192436,9425881000000,,,-1287378671552264960,0.0,119.12646004930139,-6.160586480340076,20.86303643628973,7,7,0.0,7183,373697352052962,175,16.3,-88.04888153076172,7.035500526428223,0,0.0,0.0,,,,,0,,6,,
Raw,9192437,9425881000000,,,-1287378671552264960,0.0,119.12646004930139,-6.160586480340076,20.86303643628973,7,13,0.0,7183,373697341563918,151,13.4,445.1920471191406,4.296999931335449,0,0.0,0.0,,,,,0,,6,,
Raw,9192437,9425881000000,,,-1287378671552264960,0.0,119.12646004930139,-6.160586480340076,20.86303643628973,7,26,0.0,7183,373697347982165,12,32.1,341.14068603515625,0.06140000373125076,0,0.0,0.0,,,,,0,,6,,
Raw,9192438,9425881000000,,,-1287378671552264960,0.0,119.12646004930139,-6.160586480340076,20.86303643628973,7,33,0.0,7183,373697340949907,96,15.8,31.95030975341797,1.8654999732971191,0,0.0,0.0,,,,,0,,6,,
Fix,gps,22.925339,120.294809,25.350342,0.280000,13.936001,1603352880000
NMEA,$GPGSV,3,1,11,10,56,329,19,31,16,233,31,32,26,305,16,12,42,094,*70,1603352879424
NMEA,$GPGSV,3,2,11,15,16,081,,18,26,196,,20,82,157,,21,02,314,*7D,1603352879424
NMEA,$GPGSV,3,3,11,23,84,073,,24,30,036,,25,43,149,*4C,1603352879424
NMEA,$GLGSV,2,1,05,82,06,236,35,79,09,202,14,83,08,279,23,67,49,023,12*6C,1603352879426
NMEA,$GLGSV,2,2,05,68,18,329,18*56,1603352879426
NMEA,$GAGSV,2,1,07,07,53,015,16,13,11,192,13,26,24,244,32,33,12,293,16*69,1603352879427
NMEA,$GAGSV,2,2,07,21,06,201,,27,50,170,,30,52,068,*55,1603352879427
NMEA,$PQGSV,1,1,01,194,64,108,13,0,5*6E,1603352879427
NMEA,$PQGSV,4,1,16,05,17,258,26,13,46,227,14,21,08,314,23,01,51,130,,0,4*68,1603352879427
NMEA,$PQGSV,4,2,16,02,41,241,,03,60,202,,04,37,115,,06,53,354,,0,4*68,1603352879428
NMEA,$PQGSV,4,3,16,07,37,165,,08,35,196,,09,45,312,,10,19,188,,0,4*6A,1603352879428
NMEA,$PQGSV,4,4,16,16,52,344,,19,53,092,,20,09,120,,22,54,344,,0,4*60,1603352879428
NMEA,$GNGSA,A,2,10,31,32,,,,,,,,,,1.3,1.0,0.9,1*38,1603352879429
NMEA,$GNGSA,A,3,67,68,79,82,83,,,,,,,,1.3,1.0,0.9,2*38,1603352879429
NMEA,$GNGSA,A,3,01,07,13,26,,,,,,,,,1.3,1.0,0.9,3*39,1603352879429
NMEA,$PQGSA,A,2,05,,,,,,,,,,,,1.3,1.0,0.9,4*32,1603352879429
NMEA,$GNVTG,294.8,T,294.8,M,0.5,N,1.0,K,A*39,1603352879430
NMEA,$GNRMC,074800.00,A,2255.520329,N,12017.688553,E,0.5,294.8,221020,2.8,W,A*36,1603352879430
NMEA,$GNGGA,074800.00,2255.520329,N,12017.688553,E,1,12,1.0,7.9,M,17.5,M,,*79,1603352879432
Raw,9193349,9426881000000,,,-1287378671552264960,0.0,121.15323625039309,-5.737347863731911,21.586853052185564,7,18,0.0,207,38880353254219,10,34.8,510.6615295410156,0.256600022315979,0,0.0,0.0,,,,,0,,3,,
Raw,9193350,9426881000000,,,-1287378671552264960,0.0,121.15323625039309,-5.737347863731911,21.586853052185564,7,15,0.0,207,38880354838908,84,16.5,-799.4559936523438,2.1525001525878906,0,0.0,0.0,,,,,0,,3,,
Raw,9193350,9426881000000,,,-1287378671552264960,0.0,121.15323625039309,-5.737347863731911,21.586853052185564,7,19,0.0,207,38880353896715,35,22.7,286.6996765136719,0.9609999656677246,0,0.0,0.0,,,,,0,,3,,
Raw,9193351,9426881000000,,,-1287378671552264960,0.0,121.15323625039309,-5.737347863731911,21.586853052185564,7,3,0.0,207,38880365420879,70,17.2,-248.88485717773438,1.2990000247955322,0,0.0,0.0,,,,,0,,3,,
Raw,9193351,9426881000000,,,-1287378671552264960,0.0,121.15323625039309,-5.737347863731911,21.586853052185564,7,4,0.0,207,38880357586489,80,17.5,-540.3220825195312,2.817000150680542,0,0.0,0.0,,,,,0,,3,,
Raw,9193352,9426881000000,,,-1287378671552264960,0.0,121.15323625039309,-5.737347863731911,21.586853052185564,7,10,0.0,15,373698363005466,69,18.5,-393.41314697265625,2.5160000324249268,0,0.0,0.0,,,,,0,,1,,
Raw,9193352,9426881000000,,,-1287378671552264960,0.0,121.15323625039309,-5.737347863731911,21.586853052185564,7,31,0.0,15,373698354338502,13,31.2,-558.1599731445312,0.06120000407099724,0,0.0,0.0,,,,,0,,1,,
Raw,9193353,9426881000000,,,-1287378671552264960,0.0,121.15323625039309,-5.737347863731911,21.586853052185564,7,32,0.0,15,373698356309699,53,19.7,-305.97320556640625,0.9555000066757202,0,0.0,0.0,,,,,0,,1,,
Raw,9193353,9426881000000,,,-1287378671552264960,0.0,121.15323625039309,-5.737347863731911,21.586853052185564,7,5,0.0,783,373684300586486,21,27.1,2.3812897205352783,1.2484999895095825,0,0.0,0.0,,,,,0,,5,,
Raw,9193354,9426881000000,,,-1287378671552264960,0.0,121.15323625039309,-5.737347863731911,21.586853052185564,7,13,0.0,15,373684310118032,1807,14.4,292.37054443359375,28.286500930786133,0,0.0,0.0,,,,,0,,5,,
Raw,9193354,9426881000000,,,-1287378671552264960,0.0,121.15323625039309,-5.737347863731911,21.586853052185564,7,21,0.0,15,373684345244401,31,23.5,-511.3051452636719,0.6389999985694885,0,0.0,0.0,,,,,0,,5,,
Raw,9193354,9426881000000,,,-1287378671552264960,0.0,121.15323625039309,-5.737347863731911,21.586853052185564,7,7,0.0,7183,373698352053256,224,16.3,-88.04888153076172,8.535500526428223,0,0.0,0.0,,,,,0,,6,,
Raw,9193355,9426881000000,,,-1287378671552264960,0.0,121.15323625039309,-5.737347863731911,21.586853052185564,7,13,0.0,7183,373698341562433,180,13.4,445.1920471191406,5.797000408172607,0,0.0,0.0,,,,,0,,6,,
Raw,9193356,9426881000000,,,-1287378671552264960,0.0,121.15323625039309,-5.737347863731911,21.586853052185564,7,26,0.0,7183,373698347981023,12,32.3,343.2265625,0.06140000373125076,0,0.0,0.0,,,,,0,,6,,
Raw,9193356,9426881000000,,,-1287378671552264960,0.0,121.15323625039309,-5.737347863731911,21.586853052185564,7,33,0.0,7183,373698340949800,110,15.8,31.95030975341797,3.365499973297119,0,0.0,0.0,,,,,0,,6,,
Fix,gps,22.925329,120.294798,25.340820,1.220000,13.936001,1603352881000
NMEA,$GPGSV,3,1,11,10,56,329,19,31,16,233,31,32,26,305,20,12,42,094,*75,1603352880433
NMEA,$GPGSV,3,2,11,15,16,081,,18,26,196,,20,82,157,,21,02,314,*7D,1603352880434
NMEA,$GPGSV,3,3,11,23,84,073,,24,30,036,,25,43,149,*4C,1603352880435
NMEA,$GLGSV,2,1,05,82,06,236,35,79,09,202,17,83,08,279,23,67,49,023,17*6A,1603352880436
NMEA,$GLGSV,2,2,05,68,18,329,18*56,1603352880436
NMEA,$GAGSV,2,1,07,07,53,015,16,13,11,192,13,26,24,244,32,33,12,293,16*69,1603352880437
NMEA,$GAGSV,2,2,07,21,06,201,,27,50,170,,30,52,068,*55,1603352880437
NMEA,$PQGSV,1,1,01,194,64,108,13,0,5*6E,1603352880441
NMEA,$PQGSV,4,1,16,05,17,258,27,13,46,227,14,21,08,314,24,01,51,130,,0,4*6E,1603352880442
NMEA,$PQGSV,4,2,16,02,41,241,,03,60,202,,04,37,115,,06,53,354,,0,4*68,1603352880443
NMEA,$PQGSV,4,3,16,07,37,165,,08,35,196,,09,45,312,,10,19,188,,0,4*6A,1603352880443
NMEA,$PQGSV,4,4,16,16,52,344,,19,53,092,,20,09,120,,22,54,344,,0,4*60,1603352880445
NMEA,$GNGSA,A,2,10,31,32,,,,,,,,,,1.3,1.0,0.9,1*38,1603352880447
NMEA,$GNGSA,A,3,67,68,79,82,83,,,,,,,,1.3,1.0,0.9,2*38,1603352880448
NMEA,$GNGSA,A,3,01,07,13,26,,,,,,,,,1.3,1.0,0.9,3*39,1603352880448
NMEA,$PQGSA,A,2,05,,,,,,,,,,,,1.3,1.0,0.9,4*32,1603352880449
NMEA,$GNVTG,187.4,T,187.4,M,2.4,N,4.4,K,A*3B,1603352880450
NMEA,$GNRMC,074801.00,A,2255.519747,N,12017.687878,E,2.4,187.4,221020,2.8,W,A*34,1603352880451
NMEA,$GNGGA,074801.00,2255.519747,N,12017.687878,E,1,12,1.0,7.9,M,17.5,M,,*75,1603352880451
Fix,gps,22.925324,120.294787,25.308838,0.360000,15.008000,1603352882000
Raw,9194459,9427881000000,,,-1287378671552264960,0.0,121.97597970953211,-2.4568034277236723,21.13297473016811,7,18,0.0,207,38881353252493,10,34.6,511.47430419921875,0.256600022315979,0,0.0,0.0,,,,,0,,3,,
Raw,9194461,9427881000000,,,-1287378671552264960,0.0,121.97597970953211,-2.4568034277236723,21.13297473016811,7,15,0.0,207,38881354841609,93,15.7,-798.43603515625,1.4925000667572021,0,0.0,0.0,,,,,0,,3,,
Raw,9194464,9427881000000,,,-1287378671552264960,0.0,121.97597970953211,-2.4568034277236723,21.13297473016811,7,19,0.0,207,38881353895874,35,22.4,287.6997985839844,0.9609999656677246,0,0.0,0.0,,,,,0,,3,,
Raw,9194467,9427881000000,,,-1287378671552264960,0.0,121.97597970953211,-2.4568034277236723,21.13297473016811,7,3,0.0,207,38881365421710,79,17.2,-248.88485717773438,2.7990000247955322,0,0.0,0.0,,,,,0,,3,,
Raw,9194469,9427881000000,,,-1287378671552264960,0.0,121.97597970953211,-2.4568034277236723,21.13297473016811,7,4,0.0,207,38881357588141,84,16.8,-539.3883666992188,2.1570000648498535,0,0.0,0.0,,,,,0,,3,,
Raw,9194471,9427881000000,,,-1287378671552264960,0.0,121.97597970953211,-2.4568034277236723,21.13297473016811,7,10,0.0,15,373699363006964,96,15.8,-393.4512023925781,2.0260000228881836,0,0.0,0.0,,,,,0,,1,,
Raw,9194473,9427881000000,,,-1287378671552264960,0.0,121.97597970953211,-2.4568034277236723,21.13297473016811,7,31,0.0,15,373699354340377,13,31.1,-557.2855834960938,0.06120000407099724,0,0.0,0.0,,,,,0,,1,,
Raw,9194477,9427881000000,,,-1287378671552264960,0.0,121.97597970953211,-2.4568034277236723,21.13297473016811,7,32,0.0,15,373699356310733,46,20.8,-304.7743225097656,0.8855000138282776,0,0.0,0.0,,,,,0,,1,,
Raw,9194479,9427881000000,,,-1287378671552264960,0.0,121.97597970953211,-2.4568034277236723,21.13297473016811,7,5,0.0,783,373685300586478,33,27.1,2.3812897205352783,2.748500108718872,0,0.0,0.0,,,,,0,,5,,
Raw,9194482,9427881000000,,,-1287378671552264960,0.0,121.97597970953211,-2.4568034277236723,21.13297473016811,7,13,0.0,15,373685310117056,1997,14.4,292.37054443359375,29.786500930786133,0,0.0,0.0,,,,,0,,5,,
Raw,9194484,9427881000000,,,-1287378671552264960,0.0,121.97597970953211,-2.4568034277236723,21.13297473016811,7,21,0.0,15,373685345246094,31,23.7,-510.9306640625,0.6389999985694885,0,0.0,0.0,,,,,0,,5,,
Raw,9194488,9427881000000,,,-1287378671552264960,0.0,121.97597970953211,-2.4568034277236723,21.13297473016811,7,7,0.0,7183,373699352053549,282,16.3,-88.04888153076172,10.035500526428223,0,0.0,0.0,,,,,0,,6,,
Raw,9194490,9427881000000,,,-1287378671552264960,0.0,121.97597970953211,-2.4568034277236723,21.13297473016811,7,13,0.0,7183,373699341560948,220,13.4,445.1920471191406,7.297000408172607,0,0.0,0.0,,,,,0,,6,,
Raw,9194494,9427881000000,,,-1287378671552264960,0.0,121.97597970953211,-2.4568034277236723,21.13297473016811,7,26,0.0,7183,373699347979880,12,32.7,342.6286926269531,0.06140000373125076,0,0.0,0.0,,,,,0,,6,,
Raw,9194497,9427881000000,,,-1287378671552264960,0.0,121.97597970953211,-2.4568034277236723,21.13297473016811,7,33,0.0,7183,373699340949681,96,15.9,33.15867233276367,1.8654999732971191,0,0.0,0.0,,,,,0,,6,,
NMEA,$GPGSV,3,1,11,10,56,329,16,31,16,233,31,32,26,305,21,12,42,094,*7B,1603352881424
NMEA,$GPGSV,3,2,11,15,16,081,,18,26,196,,20,82,157,,21,02,314,*7D,1603352881428
NMEA,$GPGSV,3,3,11,23,84,073,,24,30,036,,25,43,149,*4C,1603352881430
NMEA,$GLGSV,2,1,05,82,06,236,35,79,09,202,16,83,08,279,22,67,49,023,17*6A,1603352881430
NMEA,$GLGSV,2,2,05,68,18,329,17*59,1603352881431
NMEA,$GAGSV,2,1,07,07,53,015,16,13,11,192,13,26,24,244,33,33,12,293,16*68,1603352881432
NMEA,$GAGSV,2,2,07,21,06,201,,27,50,170,,30,52,068,*55,1603352881434
NMEA,$PQGSV,1,1,01,194,64,108,13,0,5*6E,1603352881434
NMEA,$PQGSV,4,1,16,05,17,258,27,13,46,227,14,21,08,314,24,01,51,130,,0,4*6E,1603352881434
NMEA,$PQGSV,4,2,16,02,41,241,,03,60,202,,04,37,115,,06,53,354,,0,4*68,1603352881435
NMEA,$PQGSV,4,3,16,07,37,165,,08,35,196,,09,45,312,,10,19,188,,0,4*6A,1603352881435
NMEA,$PQGSV,4,4,16,16,52,344,,19,53,092,,20,09,120,,22,54,344,,0,4*60,1603352881435
NMEA,$GNGSA,A,2,10,31,32,,,,,,,,,,1.3,1.0,0.9,1*38,1603352881436
NMEA,$GNGSA,A,3,67,68,79,82,83,,,,,,,,1.3,1.0,0.9,2*38,1603352881436
NMEA,$GNGSA,A,3,01,07,13,26,,,,,,,,,1.3,1.0,0.9,3*39,1603352881436
NMEA,$PQGSA,A,2,05,,,,,,,,,,,,1.3,1.0,0.9,4*32,1603352881437
NMEA,$GNVTG,190.5,T,190.5,M,0.7,N,1.3,K,A*38,1603352881437
NMEA,$GNRMC,074802.00,A,2255.519450,N,12017.687237,E,0.7,190.5,221020,2.8,W,A*35,1603352881437
NMEA,$GNGGA,074802.00,2255.519450,N,12017.687237,E,1,12,1.0,7.8,M,17.5,M,,*73,1603352881437
Raw,9195349,9428881000000,,,-1287378671552264960,0.0,134.65207302942872,-2.1701290884599906,20.739448523916227,7,18,0.0,207,38882353250807,10,34.2,511.66796875,0.256600022315979,0,0.0,0.0,,,,,0,,3,,
Raw,9195349,9428881000000,,,-1287378671552264960,0.0,134.65207302942872,-2.1701290884599906,20.739448523916227,7,15,0.0,207,38882354844013,53,19.4,-797.5845947265625,1.152500033378601,0,0.0,0.0,,,,,0,,3,,
Raw,9195350,9428881000000,,,-1287378671552264960,0.0,134.65207302942872,-2.1701290884599906,20.739448523916227,7,19,0.0,207,38882353894752,31,23.6,288.4569396972656,0.9009999632835388,0,0.0,0.0,,,,,0,,3,,
Raw,9195350,9428881000000,,,-1287378671552264960,0.0,134.65207302942872,-2.1701290884599906,20.739448523916227,7,3,0.0,207,38882365422540,99,17.2,-248.88485717773438,4.299000263214111,0,0.0,0.0,,,,,0,,3,,
Raw,9195351,9428881000000,,,-1287378671552264960,0.0,134.65207302942872,-2.1701290884599906,20.739448523916227,7,4,0.0,207,38882357590181,70,17.2,-539.0335083007812,1.3170000314712524,0,0.0,0.0,,,,,0,,3,,
Raw,9195351,9428881000000,,,-1287378671552264960,0.0,134.65207302942872,-2.1701290884599906,20.739448523916227,7,10,0.0,15,373700363008276,110,15.8,-393.4512023925781,3.5260000228881836,0,0.0,0.0,,,,,0,,1,,
Raw,9195352,9428881000000,,,-1287378671552264960,0.0,134.65207302942872,-2.1701290884599906,20.739448523916227,7,31,0.0,15,373700354342239,13,31.4,-557.0125122070312,0.06120000407099724,0,0.0,0.0,,,,,0,,1,,
Raw,9195352,9428881000000,,,-1287378671552264960,0.0,134.65207302942872,-2.1701290884599906,20.739448523916227,7,32,0.0,15,373700356311719,61,18.5,-304.75531005859375,1.0355000495910645,0,0.0,0.0,,,,,0,,1,,
Raw,9195353,9428881000000,,,-1287378671552264960,0.0,134.65207302942872,-2.1701290884599906,20.739448523916227,7,5,0.0,783,373686300586474,21,27.4,4.176858901977539,1.2484999895095825,0,0.0,0.0,,,,,0,,5,,
Raw,9195353,9428881000000,,,-1287378671552264960,0.0,134.65207302942872,-2.1701290884599906,20.739448523916227,7,13,0.0,15,373686310116081,2197,14.4,292.37054443359375,31.286500930786133,0,0.0,0.0,,,,,0,,5,,
Raw,9195354,9428881000000,,,-1287378671552264960,0.0,134.65207302942872,-2.1701290884599906,20.739448523916227,7,21,0.0,15,373686345247790,27,24.0,-511.19952392578125,0.5989999771118164,0,0.0,0.0,,,,,0,,5,,
Raw,9195354,9428881000000,,,-1287378671552264960,0.0,134.65207302942872,-2.1701290884599906,20.739448523916227,7,7,0.0,7183,373700352053843,351,16.3,-88.04888153076172,11.535500526428223,0,0.0,0.0,,,,,0,,6,,
Raw,9195355,9428881000000,,,-1287378671552264960,0.0,134.65207302942872,-2.1701290884599906,20.739448523916227,7,13,0.0,7183,373700341559463,270,13.4,445.1920471191406,8.79699993133545,0,0.0,0.0,,,,,0,,6,,
Raw,9195355,9428881000000,,,-1287378671552264960,0.0,134.65207302942872,-2.1701290884599906,20.739448523916227,7,26,0.0,7183,373700347978733,12,32.5,343.6385803222656,0.06140000373125076,0,0.0,0.0,,,,,0,,6,,
Raw,9195356,9428881000000,,,-1287378671552264960,0.0,134.65207302942872,-2.1701290884599906,20.739448523916227,7,33,0.0,7183,373700340949590,61,18.5,33.80567169189453,0.8855000138282776,0,0.0,0.0,,,,,0,,6,,
Fix,gps,22.925321,120.294775,26.376160,0.000000,13.936001,1603352883000
NMEA,$GPGSV,3,1,11,10,56,329,16,31,16,233,31,32,26,305,19,12,42,094,*70,1603352882433
NMEA,$GPGSV,3,2,11,15,16,081,,18,26,196,,20,82,157,,21,02,314,*7D,1603352882434
NMEA,$GPGSV,3,3,11,23,84,073,,24,30,036,,25,43,149,*4C,1603352882435
NMEA,$GLGSV,2,1,05,82,06,236,34,79,09,202,19,83,08,279,24,67,49,023,17*62,1603352882436
NMEA,$GLGSV,2,2,05,68,18,329,17*59,1603352882437
NMEA,$GAGSV,2,1,07,07,53,016,16,13,11,192,13,26,24,244,33,33,12,293,19*64,1603352882440
NMEA,$GAGSV,2,2,07,21,07,201,,27,50,170,,30,52,068,*54,1603352882440
NMEA,$PQGSV,1,1,01,194,64,108,13,0,5*6E,1603352882442
NMEA,$PQGSV,4,1,16,05,17,258,27,13,46,227,14,21,08,314,24,01,51,130,,0,4*6E,1603352882442
NMEA,$PQGSV,4,2,16,02,41,241,,03,60,202,,04,37,115,,06,53,354,,0,4*68,1603352882443
NMEA,$PQGSV,4,3,16,07,37,165,,08,35,196,,09,45,312,,10,19,188,,0,4*6A,1603352882444
NMEA,$PQGSV,4,4,16,16,52,344,,19,53,092,,20,09,120,,22,54,344,,0,4*60,1603352882445
NMEA,$GNGSA,A,2,10,31,32,,,,,,,,,,1.4,1.1,0.9,1*3E,1603352882447
NMEA,$GNGSA,A,3,67,68,79,82,83,,,,,,,,1.4,1.1,0.9,2*3E,1603352882448
NMEA,$GNGSA,A,3,01,07,13,26,,,,,,,,,1.4,1.1,0.9,3*3F,1603352882449
NMEA,$PQGSA,A,2,05,,,,,,,,,,,,1.4,1.1,0.9,4*34,1603352882450
NMEA,$GNVTG,,T,,M,0.0,N,0.0,K,A*3D,1603352882450
NMEA,$GNRMC,074803.00,A,2255.519255,N,12017.686516,E,0.0,,221020,2.8,W,A*16,1603352882451
NMEA,$GNGGA,074803.00,2255.519255,N,12017.686516,E,1,12,1.1,8.9,M,17.5,M,,*7B,1603352882452
Raw,9196468,9429881000000,,,-1287378671552264960,0.0,124.15624223649502,0.29768402952613127,17.92550885854101,7,18,0.0,207,38883353249110,10,34.6,511.8502502441406,0.256600022315979,0,0.0,0.0,,,,,0,,3,,
Raw,9196470,9429881000000,,,-1287378671552264960,0.0,124.15624223649502,0.29768402952613127,17.92550885854101,7,15,0.0,207,38883354846683,61,18.7,-798.0430297851562,1.2325000762939453,0,0.0,0.0,,,,,0,,3,,
Raw,9196473,9429881000000,,,-1287378671552264960,0.0,124.15624223649502,0.29768402952613127,17.92550885854101,7,19,0.0,207,38883353893864,31,23.0,288.2886657714844,0.9009999632835388,0,0.0,0.0,,,,,0,,3,,
Raw,9196475,9429881000000,,,-1287378671552264960,0.0,124.15624223649502,0.29768402952613127,17.92550885854101,7,3,0.0,207,38883365423670,103,15.2,-248.21234130859375,2.9790000915527344,0,0.0,0.0,,,,,0,,3,,
Raw,9196478,9429881000000,,,-1287378671552264960,0.0,124.15624223649502,0.29768402952613127,17.92550885854101,7,4,0.0,207,38883357591861,70,17.5,-539.014892578125,1.3170000314712524,0,0.0,0.0,,,,,0,,3,,
Raw,9196480,9429881000000,,,-1287378671552264960,0.0,124.15624223649502,0.29768402952613127,17.92550885854101,7,10,0.0,15,373701363009572,64,18.6,-390.9583435058594,1.7660000324249268,0,0.0,0.0,,,,,0,,1,,
Raw,9196483,9429881000000,,,-1287378671552264960,0.0,124.15624223649502,0.29768402952613127,17.92550885854101,7,31,0.0,15,373701354344074,13,31.4,-556.7772216796875,0.06120000407099724,0,0.0,0.0,,,,,0,,1,,
Raw,9196485,9429881000000,,,-1287378671552264960,0.0,124.15624223649502,0.29768402952613127,17.92550885854101,7,32,0.0,15,373701356312760,46,20.5,-304.60308837890625,0.8855000138282776,0,0.0,0.0,,,,,0,,1,,
Raw,9196488,9429881000000,,,-1287378671552264960,0.0,124.15624223649502,0.29768402952613127,17.92550885854101,7,5,0.0,783,373687300586460,33,27.4,4.176858901977539,2.748500108718872,0,0.0,0.0,,,,,0,,5,,
Raw,9196491,9429881000000,,,-1287378671552264960,0.0,124.15624223649502,0.29768402952613127,17.92550885854101,7,13,0.0,15,373687310115106,2406,14.4,292.37054443359375,32.786502838134766,0,0.0,0.0,,,,,0,,5,,
Raw,9196493,9429881000000,,,-1287378671552264960,0.0,124.15624223649502,0.29768402952613127,17.92550885854101,7,21,0.0,15,373687345249489,31,23.7,-510.229736328125,0.6389999985694885,0,0.0,0.0,,,,,0,,5,,
Raw,9196496,9429881000000,,,-1287378671552264960,0.0,124.15624223649502,0.29768402952613127,17.92550885854101,7,7,0.0,7183,373701352054137,430,16.3,-88.04888153076172,13.035500526428223,0,0.0,0.0,,,,,0,,6,,
Raw,9196497,9429881000000,,,-1287378671552264960,0.0,124.15624223649502,0.29768402952613127,17.92550885854101,7,13,0.0,7183,373701341557978,329,13.4,445.1920471191406,10.297000885009766,0,0.0,0.0,,,,,0,,6,,
Raw,9196497,9429881000000,,,-1287378671552264960,0.0,124.15624223649502,0.29768402952613127,17.92550885854101,7,26,0.0,7183,373701347977577,12,32.6,344.5616149902344,0.06140000373125076,0,0.0,0.0,,,,,0,,6,,
Raw,9196498,9429881000000,,,-1287378671552264960,0.0,124.15624223649502,0.29768402952613127,17.92550885854101,7,33,0.0,7183,373701340949493,53,19.3,34.30043411254883,0.8255000114440918,0,0.0,0.0,,,,,0,,6,,
Fix,gps,22.925318,120.294775,26.821106,0.490000,13.936001,1603352884000
NMEA,$GPGSV,3,1,11,10,56,329,19,31,16,233,31,32,26,305,21,12,42,094,*74,1603352883433
NMEA,$GPGSV,3,2,11,15,16,081,,18,26,196,,20,82,157,,21,02,314,*7D,1603352883434
NMEA,$GPGSV,3,3,11,23,84,073,,24,30,036,,25,43,149,*4C,1603352883437
NMEA,$GLGSV,2,1,05,82,06,236,35,79,09,202,19,83,08,279,23,67,49,023,15*66,1603352883438
NMEA,$GLGSV,2,2,05,68,18,329,18*56,1603352883439
NMEA,$GAGSV,2,1,07,07,53,016,16,13,11,192,13,26,24,244,33,33,12,293,19*64,1603352883439
NMEA,$GAGSV,2,2,07,21,07,201,,27,50,170,,30,52,068,*54,1603352883441
NMEA,$PQGSV,1,1,01,194,64,108,13,0,5*6E,1603352883442
NMEA,$PQGSV,4,1,16,05,17,258,27,13,46,227,14,21,08,314,24,01,51,130,,0,4*6E,1603352883443
NMEA,$PQGSV,4,2,16,02,41,241,,03,60,202,,04,37,115,,06,53,354,,0,4*68,1603352883443
NMEA,$PQGSV,4,3,16,07,37,165,,08,35,196,,09,45,312,,10,19,188,,0,4*6A,1603352883446
NMEA,$PQGSV,4,4,16,16,52,344,,19,53,092,,20,09,120,,22,54,344,,0,4*60,1603352883446
NMEA,$GNGSA,A,2,10,31,32,,,,,,,,,,1.4,1.1,0.9,1*3E,1603352883449
NMEA,$GNGSA,A,3,67,68,79,82,83,,,,,,,,1.4,1.1,0.9,2*3E,1603352883449
NMEA,$GNGSA,A,2,01,13,26,,,,,,,,,,1.4,1.1,0.9,3*39,1603352883450
