# 
# Header Description:
# 
# Version: v2.0.0.1 Platform: 8.0.0 Manufacturer: Sony Model: G8142
# 
# Raw,ElapsedRealtimeMillis,TimeNanos,LeapSecond,TimeUncertaintyNanos,FullBiasNanos,BiasNanos,BiasUncertaintyNanos,DriftNanosPerSecond,DriftUncertaintyNanosPerSecond,HardwareClockDiscontinuityCount,Svid,TimeOffsetNanos,State,ReceivedSvTimeNanos,ReceivedSvTimeUncertaintyNanos,Cn0DbHz,PseudorangeRateMetersPerSecond,PseudorangeRateUncertaintyMetersPerSecond,AccumulatedDeltaRangeState,AccumulatedDeltaRangeMeters,AccumulatedDeltaRangeUncertaintyMeters,CarrierFrequencyHz,CarrierCycles,CarrierPhase,CarrierPhaseUncertainty,MultipathIndicator,SnrInDb,ConstellationType,AgcDb,CarrierFrequencyHz
# 
# Fix,Provider,Latitude,Longitude,Altitude,Speed,Accuracy,(UTC)TimeInMs
# 
# Nav,Svid,Type,Status,MessageId,Sub-messageId,Data(Bytes)
# 
Raw,10266359,10499881000000,,,-1287378671552260096,0.0,187.5286689028144,-2.039871172990797,18.846626186015477,7,15,0.0,207,39953357614410,35,22.0,-753.392333984375,0.9669999480247498,0,0.0,0.0,,,,,0,,3,,
Raw,10266359,10499881000000,,,-1287378671552260096,0.0,187.5286689028144,-2.039871172990797,18.846626186015477,7,19,0.0,207,39953352706504,74,17.0,367.2892761230469,2.059499979019165,0,0.0,0.0,,,,,0,,3,,
Raw,10266359,10499881000000,,,-1287378671552260096,0.0,187.5286689028144,-2.039871172990797,18.846626186015477,7,31,0.0,15,374771356209242,9,35.4,-492.1970520019531,0.060600001364946365,0,0.0,0.0,,,,,0,,1,,
Raw,10266359,10499881000000,,,-1287378671552260096,0.0,187.5286689028144,-2.039871172990797,18.846626186015477,7,32,0.0,15,374771357408959,13,31.2,-314.51019287109375,0.065700002014637,0,0.0,0.0,,,,,0,,1,,
Raw,10266360,10499881000000,,,-1287378671552260096,0.0,187.5286689028144,-2.039871172990797,18.846626186015477,7,21,0.0,15,374757347099391,31,23.1,-529.654541015625,0.6420000195503235,0,0.0,0.0,,,,,0,,5,,
Raw,10266360,10499881000000,,,-1287378671552260096,0.0,187.5286689028144,-2.039871172990797,18.846626186015477,7,26,0.0,7183,374771346692047,12,32.6,369.4656066894531,0.05090000107884407,0,0.0,0.0,,,,,0,,6,,
Raw,10266360,10499881000000,,,-1287378671552260096,0.0,187.5286689028144,-2.039871172990797,18.846626186015477,7,33,0.0,7183,374771340683491,21,26.9,107.82991027832031,0.49549999833106995,0,0.0,0.0,,,,,0,,6,,
Fix,gps,22.925449,120.294803,33.435547,1.610000,25.728001,1603353954000
NMEA,$GPGSV,3,1,11,31,23,239,35,32,30,313,31,10,65,324,,12,42,081,*7C,1603353953419
NMEA,$GPGSV,3,2,11,15,13,088,,18,19,192,,20,73,164,,21,04,307,*73,1603353953419
NMEA,$GPGSV,3,3,11,23,78,136,,24,23,039,,25,50,140,*49,1603353953420
NMEA,$GLGSV,1,1,02,79,18,205,22,83,04,271,17*6A,1603353953420
NMEA,$GAGSV,2,1,07,26,20,239,33,33,11,288,27,07,55,026,,13,07,188,*62,1603353953421
NMEA,$GAGSV,2,2,07,21,11,201,,27,58,168,,30,49,059,*5A,1603353953421
NMEA,$PQGSV,1,1,0,*73,1603353953421
NMEA,$PQGSV,4,1,16,21,14,317,23,01,51,130,,02,41,241,,03,60,202,,0,4*69,1603353953422
NMEA,$PQGSV,4,2,16,04,37,115,,05,17,258,,06,53,357,,07,40,167,,0,4*61,1603353953422
NMEA,$PQGSV,4,3,16,08,30,196,,09,44,316,,10,22,189,,13,42,224,,0,4*62,1603353953422
NMEA,$PQGSV,4,4,16,16,51,348,,19,49,104,,20,04,125,,22,60,350,,0,4*60,1603353953423
NMEA,$GNGSA,A,2,31,32,,,,,,,,,,,2.8,2.6,1.0,1*3C,1603353953425
NMEA,$GNGSA,A,2,79,83,,,,,,,,,,,2.8,2.6,1.0,2*39,1603353953425
NMEA,$GNGSA,A,2,01,26,,,,,,,,,,,2.8,2.6,1.0,3*38,1603353953425
NMEA,$GNVTG,286.5,T,286.5,M,3.1,N,5.8,K,A*32,1603353953426
NMEA,$GNRMC,080554.00,A,2255.526917,N,12017.688152,E,3.1,286.5,221020,2.8,W,A*3C,1603353953426
NMEA,$GNGGA,080554.00,2255.526917,N,12017.688152,E,1,06,2.6,16.0,M,17.5,M,,*43,1603353953426
Raw,10267601,10500881000000,,,-1287378671552260096,0.0,208.47615087404847,-3.056357536024123,20.571304322829334,7,15,0.0,207,39954357616935,61,18.7,-754.4683837890625,1.2370001077651978,0,0.0,0.0,,,,,0,,3,,
Raw,10267602,10500881000000,,,-1287378671552260096,0.0,208.47615087404847,-3.056357536024123,20.571304322829334,7,19,0.0,207,39954352705347,70,17.6,366.0835266113281,1.309499979019165,0,0.0,0.0,,,,,0,,3,,
Raw,10267603,10500881000000,,,-1287378671552260096,0.0,208.47615087404847,-3.056357536024123,20.571304322829334,7,31,0.0,15,374772356210897,9,35.1,-493.22943115234375,0.060600001364946365,0,0.0,0.0,,,,,0,,1,,
Raw,10267603,10500881000000,,,-1287378671552260096,0.0,208.47615087404847,-3.056357536024123,20.571304322829334,7,32,0.0,15,374772357410010,13,31.4,-315.6034240722656,0.065700002014637,0,0.0,0.0,,,,,0,,1,,
Raw,10267604,10500881000000,,,-1287378671552260096,0.0,208.47615087404847,-3.056357536024123,20.571304322829334,7,21,0.0,15,374758347101181,24,25.4,-530.7146606445312,0.4072999954223633,0,0.0,0.0,,,,,0,,5,,
Raw,10267605,10500881000000,,,-1287378671552260096,0.0,208.47615087404847,-3.056357536024123,20.571304322829334,7,26,0.0,7183,374772346690823,12,32.8,369.05560302734375,0.05090000107884407,0,0.0,0.0,,,,,0,,6,,
Raw,10267605,10500881000000,,,-1287378671552260096,0.0,208.47615087404847,-3.056357536024123,20.571304322829334,7,33,0.0,7183,374772340683143,16,29.5,108.08263397216797,0.065700002014637,0,0.0,0.0,,,,,0,,6,,
Fix,gps,22.925451,120.294798,35.643738,1.180000,25.728001,1603353955000
NMEA,$GPGSV,3,1,11,31,23,239,35,32,30,313,31,10,65,324,,12,42,081,*7C,1603353954418
NMEA,$GPGSV,3,2,11,15,13,088,,18,19,192,,20,73,164,,21,04,307,*73,1603353954418
NMEA,$GPGSV,3,3,11,23,78,136,,24,23,039,,25,50,140,*49,1603353954418
NMEA,$GLGSV,1,1,02,79,18,205,19,83,04,271,18*6D,1603353954419
NMEA,$GAGSV,2,1,07,26,20,239,33,33,11,288,30,07,55,026,,13,07,188,*64,1603353954419
NMEA,$GAGSV,2,2,07,21,11,201,,27,58,168,,30,49,059,*5A,1603353954419
NMEA,$PQGSV,1,1,0,*73,1603353954419
NMEA,$PQGSV,4,1,16,21,14,317,25,01,51,130,,02,41,241,,03,60,202,,0,4*6F,1603353954420
NMEA,$PQGSV,4,2,16,04,37,115,,05,17,258,,06,53,357,,07,40,167,,0,4*61,1603353954420
NMEA,$PQGSV,4,3,16,08,30,196,,09,44,316,,10,22,189,,13,42,224,,0,4*62,1603353954420
NMEA,$PQGSV,4,4,16,16,51,348,,19,49,104,,20,04,125,,22,60,350,,0,4*60,1603353954420
NMEA,$GNGSA,A,2,31,32,,,,,,,,,,,2.8,2.6,1.0,1*3C,1603353954421
NMEA,$GNGSA,A,2,79,83,,,,,,,,,,,2.8,2.6,1.0,2*39,1603353954421
NMEA,$GNGSA,A,2,01,26,,,,,,,,,,,2.8,2.6,1.0,3*38,1603353954421
NMEA,$GNVTG,292.2,T,292.2,M,2.3,N,4.2,K,A*3A,1603353954422
NMEA,$GNRMC,080555.00,A,2255.527065,N,12017.687901,E,2.3,292.2,221020,2.8,W,A*30,1603353954422
NMEA,$GNGGA,080555.00,2255.527065,N,12017.687901,E,1,06,2.6,18.2,M,17.5,M,,*42,1603353954422
Raw,10268313,10501881000000,,,-1287378671552260096,0.0,220.34032735973597,-6.347245168975462,22.350899640252454,7,15,0.0,207,39955357619528,31,23.9,-755.1513671875,0.906999945640564,0,0.0,0.0,,,,,0,,3,,
Raw,10268313,10501881000000,,,-1287378671552260096,0.0,220.34032735973597,-6.347245168975462,22.350899640252454,7,19,0.0,207,39955352704061,70,17.9,365.6816101074219,1.309499979019165,0,0.0,0.0,,,,,0,,3,,
Raw,10268314,10501881000000,,,-1287378671552260096,0.0,220.34032735973597,-6.347245168975462,22.350899640252454,7,31,0.0,15,374773356212545,11,33.3,-493.6238708496094,0.061900001019239426,0,0.0,0.0,,,,,0,,1,,
Raw,10268315,10501881000000,,,-1287378671552260096,0.0,220.34032735973597,-6.347245168975462,22.350899640252454,7,32,0.0,15,374773357411090,13,31.8,-316.0663146972656,0.065700002014637,0,0.0,0.0,,,,,0,,1,,
Raw,10268316,10501881000000,,,-1287378671552260096,0.0,220.34032735973597,-6.347245168975462,22.350899640252454,7,21,0.0,15,374759347102961,31,23.3,-531.5364990234375,0.6420000195503235,0,0.0,0.0,,,,,0,,5,,
Raw,10268316,10501881000000,,,-1287378671552260096,0.0,220.34032735973597,-6.347245168975462,22.350899640252454,7,26,0.0,7183,374773346689601,12,32.4,367.75616455078125,0.05090000107884407,0,0.0,0.0,,,,,0,,6,,
Raw,10268317,10501881000000,,,-1287378671552260096,0.0,220.34032735973597,-6.347245168975462,22.350899640252454,7,33,0.0,7183,374773340682799,16,29.3,108.33622741699219,0.065700002014637,0,0.0,0.0,,,,,0,,6,,
Fix,gps,22.925452,120.294809,37.869446,0.590000,24.656000,1603353956000
NMEA,$GPGSV,3,1,11,31,23,239,33,32,30,313,32,10,65,324,,12,42,081,*79,1603353955418
NMEA,$GPGSV,3,2,11,15,13,088,,18,19,192,,20,73,164,,21,04,307,*73,1603353955418
NMEA,$GPGSV,3,3,11,23,78,136,,24,23,039,,25,50,140,*49,1603353955418
NMEA,$GLGSV,1,1,02,79,18,205,24,83,04,271,18*63,1603353955418
NMEA,$GAGSV,2,1,07,26,20,239,32,33,11,288,29,07,55,026,,13,07,188,*6D,1603353955419
NMEA,$GAGSV,2,2,07,21,11,201,,27,58,168,,30,49,059,*5A,1603353955419
NMEA,$PQGSV,1,1,0,*73,1603353955419
NMEA,$PQGSV,4,1,16,21,14,317,23,01,51,130,,02,41,241,,03,60,202,,0,4*69,1603353955419
NMEA,$PQGSV,4,2,16,04,37,115,,05,17,258,,06,53,357,,07,40,167,,0,4*61,1603353955420
NMEA,$PQGSV,4,3,16,08,30,196,,09,44,316,,10,22,189,,13,42,224,,0,4*62,1603353955420
NMEA,$PQGSV,4,4,16,16,51,348,,19,49,104,,20,04,125,,22,60,350,,0,4*60,1603353955420
NMEA,$GNGSA,A,2,31,32,,,,,,,,,,,2.8,2.6,1.0,1*3C,1603353955422
NMEA,$GNGSA,A,2,79,83,,,,,,,,,,,2.8,2.6,1.0,2*39,1603353955422
NMEA,$GNGSA,A,2,01,26,,,,,,,,,,,2.8,2.6,1.0,3*38,1603353955422
NMEA,$GNVTG,302.6,T,302.6,M,1.1,N,2.1,K,A*3E,1603353955422
NMEA,$GNRMC,080556.00,A,2255.527128,N,12017.688545,E,1.1,302.6,221020,2.8,W,A*35,1603353955423
NMEA,$GNGGA,080556.00,2255.527128,N,12017.688545,E,1,06,2.6,20.4,M,17.5,M,,*47,1603353955423
Raw,10269361,10502881000000,,,-1287378671552260096,0.0,216.9035142287612,-11.944462924150262,22.766442344143673,7,15,0.0,207,39956357622022,27,24.6,-754.7677612304688,0.8569999933242798,0,0.0,0.0,,,,,0,,3,,
Raw,10269362,10502881000000,,,-1287378671552260096,0.0,216.9035142287612,-11.944462924150262,22.766442344143673,7,19,0.0,207,39956352702841,80,17.9,365.6816101074219,2.809499979019165,0,0.0,0.0,,,,,0,,3,,
Raw,10269363,10502881000000,,,-1287378671552260096,0.0,216.9035142287612,-11.944462924150262,22.766442344143673,7,31,0.0,15,374774356214189,10,34.9,-493.6495666503906,0.06110000237822533,0,0.0,0.0,,,,,0,,1,,
Raw,10269364,10502881000000,,,-1287378671552260096,0.0,216.9035142287612,-11.944462924150262,22.766442344143673,7,32,0.0,15,374774357412132,12,32.0,-316.154296875,0.06440000236034393,0,0.0,0.0,,,,,0,,1,,
Raw,10269364,10502881000000,,,-1287378671552260096,0.0,216.9035142287612,-11.944462924150262,22.766442344143673,7,21,0.0,15,374760347104715,27,24.1,-530.8931884765625,0.6019999980926514,0,0.0,0.0,,,,,0,,5,,
Raw,10269365,10502881000000,,,-1287378671552260096,0.0,216.9035142287612,-11.944462924150262,22.766442344143673,7,26,0.0,7183,374774346688375,10,34.1,367.81982421875,0.04910000041127205,0,0.0,0.0,,,,,0,,6,,
Raw,10269365,10502881000000,,,-1287378671552260096,0.0,216.9035142287612,-11.944462924150262,22.766442344143673,7,33,0.0,7183,374774340682443,21,26.3,107.85717010498047,0.1502000093460083,0,0.0,0.0,,,,,0,,6,,
Fix,gps,22.925454,120.294821,39.209290,0.580000,26.800001,1603353957000
NMEA,$GPGSV,3,1,11,31,23,239,35,32,30,313,32,10,65,324,,12,42,081,*7F,1603353956418
NMEA,$GPGSV,3,2,11,15,13,088,,18,19,192,,20,73,164,,21,04,307,*73,1603353956419
NMEA,$GPGSV,3,3,11,23,78,136,,24,23,039,,25,50,140,*49,1603353956419
NMEA,$GLGSV,1,1,02,79,18,205,25,83,04,271,18*62,1603353956419
NMEA,$GAGSV,2,1,07,26,20,239,34,33,11,288,26,07,55,026,,13,07,188,*64,1603353956420
NMEA,$GAGSV,2,2,07,21,11,201,,27,58,168,,30,49,059,*5A,1603353956421
NMEA,$PQGSV,1,1,0,*73,1603353956421
NMEA,$PQGSV,4,1,16,21,14,317,24,01,51,130,,02,41,241,,03,60,202,,0,4*6E,1603353956422
NMEA,$PQGSV,4,2,16,04,37,115,,05,17,258,,06,53,357,,07,40,167,,0,4*61,1603353956422
NMEA,$PQGSV,4,3,16,08,30,196,,09,44,316,,10,22,189,,13,42,224,,0,4*62,1603353956423
NMEA,$PQGSV,4,4,16,16,51,348,,19,49,104,,20,04,125,,22,60,350,,0,4*60,1603353956423
NMEA,$GNGSA,A,2,31,32,,,,,,,,,,,2.8,2.6,1.0,1*3C,1603353956425
NMEA,$GNGSA,A,2,79,83,,,,,,,,,,,2.8,2.6,1.0,2*39,1603353956425
NMEA,$GNGSA,A,2,01,26,,,,,,,,,,,2.8,2.6,1.0,3*38,1603353956425
NMEA,$GNVTG,4.9,T,4.9,M,1.1,N,2.1,K,A*3E,1603353956425
NMEA,$GNRMC,080557.00,A,2255.527262,N,12017.689232,E,1.1,4.9,221020,2.8,W,A*35,1603353956425
NMEA,$GNGGA,080557.00,2255.527262,N,12017.689232,E,1,06,2.6,21.7,M,17.5,M,,*4F,1603353956426
Raw,10270339,10503881000000,,,-1287378671552260096,0.0,230.68230075296015,-12.863839386383702,22.966448594118816,7,15,0.0,207,39957357624574,27,24.8,-756.0776977539062,0.8569999933242798,0,0.0,0.0,,,,,0,,3,,
Raw,10270340,10503881000000,,,-1287378671552260096,0.0,230.68230075296015,-12.863839386383702,22.966448594118816,7,19,0.0,207,39957352701867,74,17.4,364.3730163574219,2.059499979019165,0,0.0,0.0,,,,,0,,3,,
Raw,10270340,10503881000000,,,-1287378671552260096,0.0,230.68230075296015,-12.863839386383702,22.966448594118816,7,31,0.0,15,374775356215828,8,36.2,-494.7241516113281,0.060200002044439316,0,0.0,0.0,,,,,0,,1,,
Raw,10270341,10503881000000,,,-1287378671552260096,0.0,230.68230075296015,-12.863839386383702,22.966448594118816,7,32,0.0,15,374775357413183,14,30.7,-317.34326171875,0.06630000472068787,0,0.0,0.0,,,,,0,,1,,
Raw,10270341,10503881000000,,,-1287378671552260096,0.0,230.68230075296015,-12.863839386383702,22.966448594118816,7,21,0.0,15,374761347106488,31,23.3,-532.8807983398438,0.6420000195503235,0,0.0,0.0,,,,,0,,5,,
Raw,10270342,10503881000000,,,-1287378671552260096,0.0,230.68230075296015,-12.863839386383702,22.966448594118816,7,26,0.0,7183,374775346687152,11,33.9,365.6492919921875,0.29350000619888306,0,0.0,0.0,,,,,0,,6,,
Raw,10270342,10503881000000,,,-1287378671552260096,0.0,230.68230075296015,-12.863839386383702,22.966448594118816,7,33,0.0,7183,374775340682093,17,28.0,106.0506591796875,0.4255000054836273,0,0.0,0.0,,,,,0,,6,,
Fix,gps,22.925455,120.294825,39.540344,0.000000,23.584000,1603353958000
NMEA,$GPGSV,3,1,11,31,23,239,36,32,30,313,31,10,65,324,,12,42,081,*7F,1603353957426
NMEA,$GPGSV,3,2,11,15,13,088,,18,19,192,,20,73,164,,21,04,307,*73,1603353957427
NMEA,$GPGSV,3,3,11,23,78,136,,24,23,039,,25,50,140,*49,1603353957428
NMEA,$GLGSV,1,1,02,79,18,205,25,83,04,271,17*6D,1603353957428
NMEA,$GAGSV,2,1,07,26,20,239,34,33,11,288,28,07,55,026,,13,07,188,*6A,1603353957429
NMEA,$GAGSV,2,2,07,21,11,201,,27,58,168,,30,49,059,*5A,1603353957429
NMEA,$PQGSV,1,1,0,*73,1603353957431
NMEA,$PQGSV,4,1,16,21,14,317,23,01,51,130,,02,41,241,,03,60,202,,0,4*69,1603353957432
NMEA,$PQGSV,4,2,16,04,37,115,,05,17,258,,06,53,357,,07,40,167,,0,4*61,1603353957433
NMEA,$PQGSV,4,3,16,08,30,196,,09,44,316,,10,22,189,,13,42,224,,0,4*62,1603353957436
NMEA,$PQGSV,4,4,16,16,51,348,,19,49,104,,20,04,125,,22,60,350,,0,4*60,1603353957436
NMEA,$GNGSA,A,2,31,32,,,,,,,,,,,2.8,2.6,1.0,1*3C,1603353957439
NMEA,$GNGSA,A,2,79,83,,,,,,,,,,,2.8,2.6,1.0,2*39,1603353957441
NMEA,$GNGSA,A,2,01,26,,,,,,,,,,,2.8,2.6,1.0,3*38,1603353957442
NMEA,$GNVTG,,T,,M,0.0,N,0.0,K,A*3D,1603353957443
NMEA,$GNRMC,080558.00,A,2255.527295,N,12017.689525,E,0.0,,221020,2.8,W,A*10,1603353957454
NMEA,$GNGGA,080558.00,2255.527295,N,12017.689525,E,1,06,2.6,22.1,M,17.5,M,,*4C,1603353957455
Fix,gps,22.925454,120.294820,41.364929,0.000000,22.512001,1603353959000
Raw,10271360,10504881000000,,,-1287378671552260096,0.0,212.9880158463493,-16.258544102513405,21.318914089150457,7,15,0.0,207,39958357627102,27,24.9,-754.3092651367188,0.8569999933242798,0,0.0,0.0,,,,,0,,3,,
Raw,10271361,10504881000000,,,-1287378671552260096,0.0,212.9880158463493,-16.258544102513405,21.318914089150457,7,19,0.0,207,39958352700428,61,18.7,365.25164794921875,1.2295000553131104,0,0.0,0.0,,,,,0,,3,,
Raw,10271362,10504881000000,,,-1287378671552260096,0.0,212.9880158463493,-16.258544102513405,21.318914089150457,7,31,0.0,15,374776356217494,9,35.7,-493.1873779296875,0.060600001364946365,0,0.0,0.0,,,,,0,,1,,
Raw,10271363,10504881000000,,,-1287378671552260096,0.0,212.9880158463493,-16.258544102513405,21.318914089150457,7,32,0.0,15,374776357414258,14,30.9,-315.8406982421875,0.06630000472068787,0,0.0,0.0,,,,,0,,1,,
Raw,10271363,10504881000000,,,-1287378671552260096,0.0,212.9880158463493,-16.258544102513405,21.318914089150457,7,21,0.0,15,374762347108241,24,25.1,-531.8925170898438,0.4072999954223633,0,0.0,0.0,,,,,0,,5,,
Raw,10271364,10504881000000,,,-1287378671552260096,0.0,212.9880158463493,-16.258544102513405,21.318914089150457,7,26,0.0,7183,374776346685927,10,34.4,367.27630615234375,0.273499995470047,0,0.0,0.0,,,,,0,,6,,
Raw,10271365,10504881000000,,,-1287378671552260096,0.0,212.9880158463493,-16.258544102513405,21.318914089150457,7,33,0.0,7183,374776340681735,19,27.5,107.70621490478516,0.4555000066757202,0,0.0,0.0,,,,,0,,6,,
NMEA,$GPGSV,3,1,11,31,23,239,36,32,30,313,31,10,65,324,,12,42,081,*7F,1603353958419
NMEA,$GPGSV,3,2,11,15,13,088,,18,19,192,,20,73,164,,21,04,307,*73,1603353958419
NMEA,$GPGSV,3,3,11,23,78,136,,24,23,039,,25,50,140,*49,1603353958419
NMEA,$GLGSV,1,1,02,79,18,205,25,83,04,271,19*63,1603353958420
NMEA,$GAGSV,2,1,07,26,20,239,34,33,11,288,28,07,55,026,,13,07,188,*6A,1603353958420
NMEA,$GAGSV,2,2,07,21,11,201,,27,58,168,,30,49,059,*5A,1603353958420
NMEA,$PQGSV,1,1,0,*73,1603353958420
NMEA,$PQGSV,4,1,16,21,14,317,25,01,51,130,,02,41,241,,03,60,202,,0,4*6F,1603353958420
NMEA,$PQGSV,4,2,16,04,37,115,,05,17,258,,06,53,357,,07,40,167,,0,4*61,1603353958420
NMEA,$PQGSV,4,3,16,08,30,196,,09,44,316,,10,22,189,,13,42,224,,0,4*62,1603353958421
NMEA,$PQGSV,4,4,16,16,51,348,,19,49,104,,20,04,125,,22,60,350,,0,4*60,1603353958421
NMEA,$GNGSA,A,2,31,32,,,,,,,,,,,2.8,2.6,1.0,1*3C,1603353958421
NMEA,$GNGSA,A,2,79,83,,,,,,,,,,,2.8,2.6,1.0,2*39,1603353958422
NMEA,$GNGSA,A,2,01,26,,,,,,,,,,,2.8,2.6,1.0,3*38,1603353958422
NMEA,$GNVTG,,T,,M,0.0,N,0.0,K,A*3D,1603353958422
NMEA,$GNRMC,080559.00,A,2255.527266,N,12017.689226,E,0.0,,221020,2.8,W,A*19,1603353958422
NMEA,$GNGGA,080559.00,2255.527266,N,12017.689226,E,1,06,2.6,23.9,M,17.5,M,,*4C,1603353958422
Fix,gps,22.925455,120.294812,42.621887,0.000000,21.440001,1603353960000
Raw,10272333,10505881000000,,,-1287378671552260352,0.0,205.72722132783383,-11.957039462716526,21.36063441374804,7,15,0.0,207,39959357629600,27,24.5,-754.0941162109375,0.8569999933242798,0,0.0,0.0,,,,,0,,3,,
Raw,10272334,10505881000000,,,-1287378671552260352,0.0,205.72722132783383,-11.957039462716526,21.36063441374804,7,19,0.0,207,39959352699233,46,20.3,365.653564453125,1.0794999599456787,0,0.0,0.0,,,,,0,,3,,
Raw,10272335,10505881000000,,,-1287378671552260352,0.0,205.72722132783383,-11.957039462716526,21.36063441374804,7,31,0.0,15,374777356219131,9,35.0,-492.90924072265625,0.060600001364946365,0,0.0,0.0,,,,,0,,1,,
Raw,10272335,10505881000000,,,-1287378671552260352,0.0,205.72722132783383,-11.957039462716526,21.36063441374804,7,32,0.0,15,374777357415297,13,31.0,-315.6629943847656,0.065700002014637,0,0.0,0.0,,,,,0,,1,,
Raw,10272336,10505881000000,,,-1287378671552260352,0.0,205.72722132783383,-11.957039462716526,21.36063441374804,7,21,0.0,15,374763347110041,31,23.1,-530.6627197265625,0.6420000195503235,0,0.0,0.0,,,,,0,,5,,
Raw,10272337,10505881000000,,,-1287378671552260352,0.0,205.72722132783383,-11.957039462716526,21.36063441374804,7,26,0.0,7183,374777346684698,10,34.0,367.3839416503906,0.04910000041127205,0,0.0,0.0,,,,,0,,6,,
Raw,10272337,10505881000000,,,-1287378671552260352,0.0,205.72722132783383,-11.957039462716526,21.36063441374804,7,33,0.0,7183,374777340681386,24,25.8,107.85845184326172,0.5354999899864197,0,0.0,0.0,,,,,0,,6,,
NMEA,$GPGSV,3,1,11,31,23,239,35,32,30,313,31,10,65,324,,12,42,081,*7C,1603353959418
NMEA,$GPGSV,3,2,11,15,13,088,,18,19,192,,20,73,164,,21,04,307,*73,1603353959418
NMEA,$GPGSV,3,3,11,23,78,136,,24,23,039,,25,50,140,*49,1603353959418
NMEA,$GLGSV,1,1,02,79,18,205,25,83,04,271,20*69,1603353959418
NMEA,$GAGSV,2,1,07,26,20,239,34,33,11,288,26,07,55,026,,13,07,188,*64,1603353959418
NMEA,$GAGSV,2,2,07,21,11,201,,27,58,168,,30,49,059,*5A,1603353959421
NMEA,$PQGSV,1,1,0,*73,1603353959421
NMEA,$PQGSV,4,1,16,21,14,317,23,01,51,130,,02,41,241,,03,60,202,,0,4*69,1603353959422
NMEA,$PQGSV,4,2,16,04,37,115,,05,17,258,,06,53,357,,07,40,167,,0,4*61,1603353959423
NMEA,$PQGSV,4,3,16,08,30,196,,09,44,316,,10,22,189,,13,42,224,,0,4*62,1603353959424
NMEA,$PQGSV,4,4,16,16,51,348,,19,49,104,,20,04,125,,22,60,350,,0,4*60,1603353959424
NMEA,$GNGSA,A,2,31,32,,,,,,,,,,,2.8,2.6,1.0,1*3C,1603353959425
NMEA,$GNGSA,A,2,79,83,,,,,,,,,,,2.8,2.6,1.0,2*39,1603353959425
NMEA,$GNGSA,A,2,01,26,,,,,,,,,,,2.8,2.6,1.0,3*38,1603353959425
NMEA,$GNVTG,,T,,M,0.0,N,0.0,K,A*3D,1603353959425
NMEA,$GNRMC,080600.00,A,2255.527281,N,12017.688709,E,0.0,,221020,2.8,W,A*16,1603353959426
NMEA,$GNGGA,080600.00,2255.527281,N,12017.688709,E,1,06,2.6,25.2,M,17.5,M,,*4E,1603353959426
Raw,10273312,10506881000000,,,-1287378671552260352,0.0,199.3915648199618,-10.950663478764577,20.428192316500997,7,15,0.0,207,39960357632114,27,24.8,-753.4952392578125,0.8569999933242798,0,0.0,0.0,,,,,0,,3,,
Raw,10273313,10506881000000,,,-1287378671552260352,0.0,199.3915648199618,-10.950663478764577,20.428192316500997,7,19,0.0,207,39960352698194,40,21.6,367.05560302734375,1.0195000171661377,0,0.0,0.0,,,,,0,,3,,
Raw,10273314,10506881000000,,,-1287378671552260352,0.0,199.3915648199618,-10.950663478764577,20.428192316500997,7,31,0.0,15,374778356220758,8,36.1,-491.90252685546875,0.060200002044439316,0,0.0,0.0,,,,,0,,1,,
Raw,10273314,10506881000000,,,-1287378671552260352,0.0,199.3915648199618,-10.950663478764577,20.428192316500997,7,32,0.0,15,374778357416330,13,31.5,-314.72369384765625,0.065700002014637,0,0.0,0.0,,,,,0,,1,,
Raw,10273315,10506881000000,,,-1287378671552260352,0.0,199.3915648199618,-10.950663478764577,20.428192316500997,7,21,0.0,15,374764347111776,27,24.9,-529.8177490234375,0.5519999861717224,0,0.0,0.0,,,,,0,,5,,
Raw,10273315,10506881000000,,,-1287378671552260352,0.0,199.3915648199618,-10.950663478764577,20.428192316500997,7,26,0.0,7183,374778346683476,10,34.5,367.1986389160156,0.04910000041127205,0,0.0,0.0,,,,,0,,6,,
Raw,10273316,10506881000000,,,-1287378671552260352,0.0,199.3915648199618,-10.950663478764577,20.428192316500997,7,33,0.0,7183,374778340681016,19,27.2,107.5650634765625,0.08030000329017639,0,0.0,0.0,,,,,0,,6,,
Fix,gps,22.925460,120.294788,42.373474,1.110000,21.440001,1603353961000
NMEA,$GPGSV,3,1,11,31,23,239,36,32,30,313,32,10,65,324,,12,42,081,*7C,1603353960417
NMEA,$GPGSV,3,2,11,15,13,088,,18,19,192,,20,73,164,,21,04,307,*73,1603353960417
NMEA,$GPGSV,3,3,11,23,78,136,,24,23,039,,25,50,140,*49,1603353960417
NMEA,$GLGSV,1,1,02,79,18,205,25,83,04,271,22*6B,1603353960417
NMEA,$GAGSV,2,1,07,26,20,239,35,33,11,288,27,07,55,026,,13,07,188,*64,1603353960418
NMEA,$GAGSV,2,2,07,21,11,201,,27,58,168,,30,49,059,*5A,1603353960418
NMEA,$PQGSV,1,1,0,*73,1603353960418
NMEA,$PQGSV,4,1,16,21,14,317,25,01,51,130,,02,41,241,,03,60,202,,0,4*6F,1603353960419
NMEA,$PQGSV,4,2,16,04,37,115,,05,17,258,,06,53,357,,07,40,167,,0,4*61,1603353960419
NMEA,$PQGSV,4,3,16,08,30,196,,09,44,316,,10,22,189,,13,42,224,,0,4*62,1603353960419
NMEA,$PQGSV,4,4,16,16,51,348,,19,49,104,,20,04,125,,22,60,350,,0,4*60,1603353960420
NMEA,$GNGSA,A,2,31,32,,,,,,,,,,,2.8,2.6,1.0,1*3C,1603353960421
NMEA,$GNGSA,A,2,79,83,,,,,,,,,,,2.8,2.6,1.0,2*39,1603353960421
NMEA,$GNGSA,A,2,01,26,,,,,,,,,,,2.8,2.6,1.0,3*38,1603353960421
NMEA,$GNVTG,358.9,T,358.9,M,2.2,N,4.0,K,A*39,1603353960422
NMEA,$GNRMC,080601.00,A,2255.527593,N,12017.687266,E,2.2,358.9,221020,2.8,W,A*39,1603353960422
NMEA,$GNGGA,080601.00,2255.527593,N,12017.687266,E,1,06,2.6,24.9,M,17.5,M,,*42,1603353960426
Raw,10274550,10507881000000,,,-1287378671552260096,0.0,190.94419258181006,-8.287928576543951,21.03310044034228,7,15,0.0,207,39961357634584,31,23.3,-753.2145385742188,0.906999945640564,0,0.0,0.0,,,,,0,,3,,
Raw,10274551,10507881000000,,,-1287378671552260096,0.0,190.94419258181006,-8.287928576543951,21.03310044034228,7,19,0.0,207,39961352696806,46,20.1,367.4107971191406,1.0794999599456787,0,0.0,0.0,,,,,0,,3,,
Raw,10274552,10507881000000,,,-1287378671552260096,0.0,190.94419258181006,-8.287928576543951,21.03310044034228,7,31,0.0,15,374779356222416,8,36.0,-491.5597229003906,0.060200002044439316,0,0.0,0.0,,,,,0,,1,,
Raw,10274552,10507881000000,,,-1287378671552260096,0.0,190.94419258181006,-8.287928576543951,21.03310044034228,7,32,0.0,15,374779357417371,12,32.1,-314.4394226074219,0.06440000236034393,0,0.0,0.0,,,,,0,,1,,
Raw,10274553,10507881000000,,,-1287378671552260096,0.0,190.94419258181006,-8.287928576543951,21.03310044034228,7,21,0.0,15,374765347113560,24,25.0,-529.5607299804688,0.4072999954223633,0,0.0,0.0,,,,,0,,5,,
Raw,10274553,10507881000000,,,-1287378671552260096,0.0,190.94419258181006,-8.287928576543951,21.03310044034228,7,26,0.0,7183,374779346682245,10,34.4,368.57464599609375,0.04910000041127205,0,0.0,0.0,,,,,0,,6,,
Raw,10274554,10507881000000,,,-1287378671552260096,0.0,190.94419258181006,-8.287928576543951,21.03310044034228,7,33,0.0,7183,374779340680650,19,27.6,107.97976684570312,0.08030000329017639,0,0.0,0.0,,,,,0,,6,,
Fix,gps,22.925466,120.294748,44.226379,2.360000,21.440001,1603353962000
NMEA,$GPGSV,3,1,11,31,23,239,36,32,30,313,32,10,65,324,,12,42,081,*7C,1603353961419
NMEA,$GPGSV,3,2,11,15,13,088,,18,19,192,,20,73,164,,21,04,307,*73,1603353961419
NMEA,$GPGSV,3,3,11,23,78,136,,24,23,039,,25,50,140,*49,1603353961419
NMEA,$GLGSV,1,1,02,79,18,205,23,83,04,271,20*6F,1603353961420
NMEA,$GAGSV,2,1,07,26,20,239,34,33,11,288,28,07,55,026,,13,07,188,*6A,1603353961420
NMEA,$GAGSV,2,2,07,21,11,201,,27,58,168,,30,49,059,*5A,1603353961420
NMEA,$PQGSV,1,1,0,*73,1603353961421
NMEA,$PQGSV,4,1,16,21,14,317,25,01,51,130,,02,41,241,,03,60,202,,0,4*6F,1603353961421
NMEA,$PQGSV,4,2,16,04,37,115,,05,17,258,,06,53,357,,07,40,167,,0,4*61,1603353961421
NMEA,$PQGSV,4,3,16,08,30,196,,09,44,316,,10,22,189,,13,42,224,,0,4*62,1603353961421
NMEA,$PQGSV,4,4,16,16,51,348,,19,49,104,,20,04,125,,22,60,350,,0,4*60,1603353961422
NMEA,$GNGSA,A,2,31,32,,,,,,,,,,,2.8,2.6,1.0,1*3C,1603353961424
NMEA,$GNGSA,A,2,79,83,,,,,,,,,,,2.8,2.6,1.0,2*39,1603353961425
NMEA,$GNGSA,A,2,01,26,,,,,,,,,,,2.8,2.6,1.0,3*38,1603353961425
NMEA,$GNVTG,281.1,T,281.1,M,4.6,N,8.5,K,A*32,1603353961425
NMEA,$GNRMC,080602.00,A,2255.527974,N,12017.684905,E,4.6,281.1,221020,2.8,W,A*3D,1603353961425
NMEA,$GNGGA,080602.00,2255.527974,N,12017.684905,E,1,06,2.6,26.8,M,17.5,M,,*4A,1603353961426
Fix,gps,22.925464,120.294728,43.619019,1.690000,19.296001,1603353963000
Raw,10275357,10508881000000,,,-1287378671552260096,0.0,193.81097808945924,-3.605553796939067,20.33756870939951,7,15,0.0,207,39962357637221,27,24.5,-752.2227172851562,0.8569999933242798,0,0.0,0.0,,,,,0,,3,,
Raw,10275359,10508881000000,,,-1287378671552260096,0.0,193.81097808945924,-3.605553796939067,20.33756870939951,7,19,0.0,207,39962352695602,53,19.7,367.62579345703125,1.1495000123977661,0,0.0,0.0,,,,,0,,3,,
Raw,10275362,10508881000000,,,-1287378671552260096,0.0,193.81097808945924,-3.605553796939067,20.33756870939951,7,31,0.0,15,374780356224059,8,36.0,-490.80816650390625,0.060200002044439316,0,0.0,0.0,,,,,0,,1,,
Raw,10275364,10508881000000,,,-1287378671552260096,0.0,193.81097808945924,-3.605553796939067,20.33756870939951,7,32,0.0,15,374780357418420,13,31.9,-313.7610778808594,0.065700002014637,0,0.0,0.0,,,,,0,,1,,
Raw,10275367,10508881000000,,,-1287378671552260096,0.0,193.81097808945924,-3.605553796939067,20.33756870939951,7,21,0.0,15,374766347115309,27,24.0,-529.0303955078125,0.6019999980926514,0,0.0,0.0,,,,,0,,5,,
Raw,10275369,10508881000000,,,-1287378671552260096,0.0,193.81097808945924,-3.605553796939067,20.33756870939951,7,26,0.0,7183,374780346681012,10,34.9,368.291748046875,0.04910000041127205,0,0.0,0.0,,,,,0,,6,,
Raw,10275371,10508881000000,,,-1287378671552260096,0.0,193.81097808945924,-3.605553796939067,20.33756870939951,7,33,0.0,7183,374780340680273,27,24.5,109.76138305664062,0.565500020980835,0,0.0,0.0,,,,,0,,6,,
NMEA,$GPGSV,3,1,11,31,23,239,36,32,30,313,32,10,65,324,,12,42,081,*7C,1603353962425
NMEA,$GPGSV,3,2,11,15,13,088,,18,19,192,,20,73,164,,21,04,307,*73,1603353962427
NMEA,$GPGSV,3,3,11,23,78,136,,24,23,039,,25,50,140,*49,1603353962427
NMEA,$GLGSV,1,1,02,79,18,205,25,83,04,271,20*69,1603353962429
NMEA,$GAGSV,2,1,07,26,20,239,35,33,11,288,25,07,55,026,,13,07,188,*66,1603353962430
NMEA,$GAGSV,2,2,07,21,11,201,,27,58,168,,30,49,059,*5A,1603353962432
NMEA,$PQGSV,1,1,0,*73,1603353962435
NMEA,$PQGSV,4,1,16,21,14,317,24,01,51,130,,02,41,241,,03,60,202,,0,4*6E,1603353962437
NMEA,$PQGSV,4,2,16,04,37,115,,05,17,258,,06,53,357,,07,40,167,,0,4*61,1603353962438
NMEA,$PQGSV,4,3,16,08,30,196,,09,44,316,,10,22,189,,13,42,224,,0,4*62,1603353962438
NMEA,$PQGSV,4,4,16,16,51,348,,19,49,104,,20,04,125,,22,60,350,,0,4*60,1603353962439
NMEA,$GNGSA,A,2,31,32,,,,,,,,,,,2.8,2.6,1.0,1*3C,1603353962441
NMEA,$GNGSA,A,2,79,83,,,,,,,,,,,2.8,2.6,1.0,2*39,1603353962442
NMEA,$GNGSA,A,2,01,26,,,,,,,,,,,2.8,2.6,1.0,3*38,1603353962443
NMEA,$GNVTG,272.6,T,272.6,M,3.3,N,6.1,K,A*3A,1603353962444
NMEA,$GNRMC,080603.00,A,2255.527820,N,12017.683697,E,3.3,272.6,221020,2.8,W,A*36,1603353962445
NMEA,$GNGGA,080603.00,2255.527820,N,12017.683697,E,1,06,2.6,26.1,M,17.5,M,,*41,1603353962445
Raw,10276338,10509881000000,,,-1287378671552260352,0.0,181.54524150304496,-4.305367308812708,20.724395487240987,7,15,0.0,207,39963357639705,27,24.0,-751.3525390625,0.8569999933242798,0,0.0,0.0,,,,,0,,3,,
Raw,10276339,10509881000000,,,-1287378671552260352,0.0,181.54524150304496,-4.305367308812708,20.724395487240987,7,19,0.0,207,39963352694509,46,20.1,368.8128356933594,1.0794999599456787,0,0.0,0.0,,,,,0,,3,,
Raw,10276339,10509881000000,,,-1287378671552260352,0.0,181.54524150304496,-4.305367308812708,20.724395487240987,7,31,0.0,15,374781356225675,7,37.0,-490.12109375,0.05960000306367874,0,0.0,0.0,,,,,0,,1,,
Raw,10276340,10509881000000,,,-1287378671552260352,0.0,181.54524150304496,-4.305367308812708,20.724395487240987,7,32,0.0,15,374781357419472,12,32.0,-313.1500549316406,0.06440000236034393,0,0.0,0.0,,,,,0,,1,,
Raw,10276340,10509881000000,,,-1287378671552260352,0.0,181.54524150304496,-4.305367308812708,20.724395487240987,7,21,0.0,15,374767347117078,31,23.0,-528.0606079101562,0.6420000195503235,0,0.0,0.0,,,,,0,,5,,
Raw,10276341,10509881000000,,,-1287378671552260352,0.0,181.54524150304496,-4.305367308812708,20.724395487240987,7,26,0.0,7183,374781346679781,10,34.4,369.5419921875,0.04910000041127205,0,0.0,0.0,,,,,0,,6,,
Raw,10276341,10509881000000,,,-1287378671552260352,0.0,181.54524150304496,-4.305367308812708,20.724395487240987,7,33,0.0,7183,374781340679923,17,28.5,109.8548583984375,0.0723000019788742,0,0.0,0.0,,,,,0,,6,,
Fix,gps,22.925460,120.294714,41.545166,1.520000,17.152000,1603353964000
NMEA,$GPGSV,3,1,11,31,23,239,37,32,30,313,32,10,65,324,,12,42,081,*7D,1603353963424
NMEA,$GPGSV,3,2,11,15,13,088,,18,19,192,,20,73,164,,21,04,307,*73,1603353963425
NMEA,$GPGSV,3,3,11,23,78,136,,24,23,039,,25,50,140,*49,1603353963426
NMEA,$GLGSV,1,1,02,79,18,205,24,83,04,271,20*68,1603353963429
NMEA,$GAGSV,2,1,07,26,20,239,34,33,11,288,29,07,55,026,,13,07,188,*6B,1603353963430
NMEA,$GAGSV,2,2,07,21,11,201,,27,58,168,,30,49,059,*5A,1603353963433
NMEA,$PQGSV,1,1,0,*73,1603353963436
NMEA,$PQGSV,4,1,16,21,14,317,23,01,51,130,,02,41,241,,03,60,202,,0,4*69,1603353963438
NMEA,$PQGSV,4,2,16,04,37,115,,05,17,258,,06,53,357,,07,40,167,,0,4*61,1603353963440
NMEA,$PQGSV,4,3,16,08,30,196,,09,44,316,,10,22,189,,13,42,224,,0,4*62,1603353963442
NMEA,$PQGSV,4,4,16,16,51,348,,19,49,104,,20,04,125,,22,60,350,,0,4*60,1603353963443
NMEA,$GNGSA,A,2,31,32,,,,,,,,,,,2.8,2.6,1.0,1*3C,1603353963446
NMEA,$GNGSA,A,2,79,83,,,,,,,,,,,2.8,2.6,1.0,2*39,1603353963447
NMEA,$GNGSA,A,2,01,26,,,,,,,,,,,2.8,2.6,1.0,3*38,1603353963448
NMEA,$GNVTG,273.2,T,273.2,M,3.0,N,5.5,K,A*3E,1603353963449
NMEA,$GNRMC,080604.00,A,2255.527602,N,12017.682853,E,3.0,273.2,221020,2.8,W,A*3E,1603353963450
NMEA,$GNGGA,080604.00,2255.527602,N,12017.682853,E,1,06,2.6,24.1,M,17.5,M,,*4D,1603353963451
Fix,gps,22.925449,120.294727,40.338074,0.000000,16.080000,1603353965000
NMEA,$GPGSV,3,1,11,31,23,239,37,32,30,313,31,10,65,324,,12,42,081,*7E,1603353964424
NMEA,$GPGSV,3,2,11,15,13,088,,18,19,192,,20,73,164,,21,04,307,*73,1603353964424
NMEA,$GPGSV,3,3,11,23,78,136,,24,23,039,,25,50,140,*49,1603353964425
Raw,10277408,10510881000000,,,-1287378671552260352,0.0,164.9602345423773,-2.0587091401814974,18.974266839032314,7,15,0.0,207,39964357642199,31,23.6,-751.2028198242188,0.906999945640564,0,0.0,0.0,,,,,0,,3,,
Raw,10277411,10510881000000,,,-1287378671552260352,0.0,164.9602345423773,-2.0587091401814974,18.974266839032314,7,19,0.0,207,39964352693290,53,19.7,369.42974853515625,1.1495000123977661,0,0.0,0.0,,,,,0,,3,,
Raw,10277413,10510881000000,,,-1287378671552260352,0.0,164.9602345423773,-2.0587091401814974,18.974266839032314,7,31,0.0,15,374782356227309,8,36.8,-489.7576599121094,0.060200002044439316,0,0.0,0.0,,,,,0,,1,,
Raw,10277415,10510881000000,,,-1287378671552260352,0.0,164.9602345423773,-2.0587091401814974,18.974266839032314,7,32,0.0,15,374782357420507,13,31.2,-312.8653869628906,0.065700002014637,0,0.0,0.0,,,,,0,,1,,
Raw,10277419,10510881000000,,,-1287378671552260352,0.0,164.9602345423773,-2.0587091401814974,18.974266839032314,7,21,0.0,15,374768347118865,31,23.6,-527.993408203125,0.6420000195503235,0,0.0,0.0,,,,,0,,5,,
Raw,10277421,10510881000000,,,-1287378671552260352,0.0,164.9602345423773,-2.0587091401814974,18.974266839032314,7,26,0.0,7183,374782346678552,10,34.5,370.30059814453125,0.04910000041127205,0,0.0,0.0,,,,,0,,6,,
Raw,10277424,10510881000000,,,-1287378671552260352,0.0,164.9602345423773,-2.0587091401814974,18.974266839032314,7,33,0.0,7183,374782340679522,19,27.0,111.16454315185547,0.08030000329017639,0,0.0,0.0,,,,,0,,6,,
NMEA,$GLGSV,1,1,02,79,18,205,24,83,04,271,20*68,1603353964426
NMEA,$GAGSV,2,1,07,26,20,239,35,33,11,288,27,07,55,026,,13,07,188,*64,1603353964429
NMEA,$GAGSV,2,2,07,21,11,201,,27,58,168,,30,49,059,*5A,1603353964430
NMEA,$PQGSV,1,1,0,*73,1603353964434
NMEA,$PQGSV,4,1,16,21,14,317,24,01,51,130,,02,41,241,,03,60,202,,0,4*6E,1603353964436
NMEA,$PQGSV,4,2,16,04,37,115,,05,17,258,,06,53,357,,07,40,167,,0,4*61,1603353964436
NMEA,$PQGSV,4,3,16,08,30,196,,09,44,316,,10,22,189,,13,42,224,,0,4*62,1603353964437
NMEA,$PQGSV,4,4,16,16,51,348,,19,49,104,,20,04,125,,22,60,350,,0,4*60,1603353964438
NMEA,$GNGSA,A,2,31,32,,,,,,,,,,,2.8,2.6,1.0,1*3C,1603353964440
NMEA,$GNGSA,A,2,79,83,,,,,,,,,,,2.8,2.6,1.0,2*39,1603353964440
NMEA,$GNGSA,A,2,01,26,,,,,,,,,,,2.8,2.6,1.0,3*38,1603353964441
NMEA,$GNVTG,,T,,M,0.0,N,0.0,K,A*3D,1603353964442
NMEA,$GNRMC,080605.00,A,2255.526953,N,12017.683629,E,0.0,,221020,2.8,W,A*1E,1603353964442
NMEA,$GNGGA,080605.00,2255.526953,N,12017.683629,E,1,06,2.6,22.9,M,17.5,M,,*4A,1603353964443
Raw,10278338,10511881000000,,,-1287378671552260352,0.0,159.66544742695987,-2.1545515654318703,18.6412358987257,7,15,0.0,207,39965357644672,31,23.3,-750.2578125,0.906999945640564,0,0.0,0.0,,,,,0,,3,,
Raw,10278339,10511881000000,,,-1287378671552260352,0.0,159.66544742695987,-2.1545515654318703,18.6412358987257,7,19,0.0,207,39965352691933,53,19.4,369.6914367675781,1.1495000123977661,0,0.0,0.0,,,,,0,,3,,
Raw,10278340,10511881000000,,,-1287378671552260352,0.0,159.66544742695987,-2.1545515654318703,18.6412358987257,7,31,0.0,15,374783356228955,9,35.9,-488.98309326171875,0.060600001364946365,0,0.0,0.0,,,,,0,,1,,
Raw,10278340,10511881000000,,,-1287378671552260352,0.0,159.66544742695987,-2.1545515654318703,18.6412358987257,7,32,0.0,15,374783357421566,13,31.2,-312.15960693359375,0.065700002014637,0,0.0,0.0,,,,,0,,1,,
Raw,10278341,10511881000000,,,-1287378671552260352,0.0,159.66544742695987,-2.1545515654318703,18.6412358987257,7,21,0.0,15,374769347120626,27,24.5,-527.820556640625,0.6019999980926514,0,0.0,0.0,,,,,0,,5,,
Raw,10278342,10511881000000,,,-1287378671552260352,0.0,159.66544742695987,-2.1545515654318703,18.6412358987257,7,26,0.0,7183,374783346677312,10,34.1,370.4371643066406,0.04910000041127205,0,0.0,0.0,,,,,0,,6,,
Raw,10278342,10511881000000,,,-1287378671552260352,0.0,159.66544742695987,-2.1545515654318703,18.6412358987257,7,33,0.0,7183,374783340679167,19,27.0,111.31777954101562,0.08030000329017639,0,0.0,0.0,,,,,0,,6,,
Fix,gps,22.925444,120.294729,41.778320,0.340000,15.008000,1603353966000
NMEA,$GPGSV,3,1,11,31,23,239,36,32,30,313,31,10,65,324,,12,42,081,*7F,1603353965428
NMEA,$GPGSV,3,2,11,15,13,088,,18,19,192,,20,73,164,,21,04,307,*73,1603353965430
NMEA,$GPGSV,3,3,11,23,78,136,,24,23,039,,25,50,140,*49,1603353965433
NMEA,$GLGSV,1,1,02,79,18,205,23,83,04,271,19*65,1603353965434
NMEA,$GAGSV,2,1,07,26,20,239,34,33,11,288,27,07,55,026,,13,07,188,*65,1603353965439
NMEA,$GAGSV,2,2,07,21,11,201,,27,58,168,,30,49,059,*5A,1603353965439
NMEA,$PQGSV,1,1,0,*73,1603353965440
NMEA,$PQGSV,4,1,16,21,14,317,25,01,51,130,,02,41,241,,03,60,202,,0,4*6F,1603353965441
NMEA,$PQGSV,4,2,16,04,37,115,,05,17,258,,06,53,357,,07,40,167,,0,4*61,1603353965441
NMEA,$PQGSV,4,3,16,08,30,196,,09,44,316,,10,22,189,,13,42,224,,0,4*62,1603353965443
NMEA,$PQGSV,4,4,16,16,51,348,,19,49,104,,20,04,125,,22,60,350,,0,4*60,1603353965444
NMEA,$GNGSA,A,2,31,32,,,,,,,,,,,2.8,2.6,1.0,1*3C,1603353965447
NMEA,$GNGSA,A,2,79,83,,,,,,,,,,,2.8,2.6,1.0,2*39,1603353965447
NMEA,$GNGSA,A,2,01,26,,,,,,,,,,,2.8,2.6,1.0,3*38,1603353965448
NMEA,$GNVTG,264.3,T,264.3,M,0.7,N,1.2,K,A*39,1603353965449
NMEA,$GNRMC,080606.00,A,2255.526648,N,12017.683726,E,0.7,264.3,221020,2.8,W,A*3C,1603353965450
NMEA,$GNGGA,080606.00,2255.526648,N,12017.683726,E,1,06,2.6,24.3,M,17.5,M,,*4E,1603353965451
Fix,gps,22.925442,120.294729,43.855530,0.270000,19.296001,1603353967000
Raw,10279357,10512881000000,,,-1287378671552260352,0.0,152.8675784356892,-0.8464889635782787,17.96010030418906,7,15,0.0,207,39966357647040,31,23.0,-751.0718383789062,0.906999945640564,0,0.0,0.0,,,,,0,,3,,
Raw,10279359,10512881000000,,,-1287378671552260352,0.0,152.8675784356892,-0.8464889635782787,17.96010030418906,7,19,0.0,207,39966352690670,46,20.2,368.90631103515625,1.0794999599456787,0,0.0,0.0,,,,,0,,3,,
Raw,10279362,10512881000000,,,-1287378671552260352,0.0,152.8675784356892,-0.8464889635782787,17.96010030418906,7,31,0.0,15,374784356230587,8,36.2,-489.2478942871094,0.060200002044439316,0,0.0,0.0,,,,,0,,1,,
Raw,10279364,10512881000000,,,-1287378671552260352,0.0,152.8675784356892,-0.8464889635782787,17.96010030418906,7,32,0.0,15,374784357422608,13,31.8,-312.49957275390625,0.065700002014637,0,0.0,0.0,,,,,0,,1,,
Raw,10279367,10512881000000,,,-1287378671552260352,0.0,152.8675784356892,-0.8464889635782787,17.96010030418906,7,21,0.0,15,374770347122377,24,25.0,-527.7864379882812,0.4072999954223633,0,0.0,0.0,,,,,0,,5,,
Raw,10279369,10512881000000,,,-1287378671552260352,0.0,152.8675784356892,-0.8464889635782787,17.96010030418906,7,26,0.0,7183,374784346676072,10,34.4,371.73443603515625,0.04910000041127205,0,0.0,0.0,,,,,0,,6,,
Raw,10279372,10512881000000,,,-1287378671552260352,0.0,152.8675784356892,-0.8464889635782787,17.96010030418906,7,33,0.0,7183,374784340678795,16,29.1,111.36250305175781,0.065700002014637,0,0.0,0.0,,,,,0,,6,,
NMEA,$GPGSV,3,1,11,31,23,239,36,32,30,313,32,10,65,324,,12,42,081,*7C,1603353966423
NMEA,$GPGSV,3,2,11,15,13,088,,18,19,192,,20,73,164,,21,04,307,*73,1603353966427
NMEA,$GPGSV,3,3,11,23,78,136,,24,23,039,,25,50,140,*49,1603353966428
NMEA,$GLGSV,1,1,02,79,18,205,23,83,04,271,20*6F,1603353966428
NMEA,$GAGSV,2,1,07,26,20,239,34,33,11,288,29,07,55,026,,13,07,188,*6B,1603353966429
NMEA,$GAGSV,2,2,07,21,11,201,,27,58,168,,30,49,059,*5A,1603353966434
NMEA,$PQGSV,1,1,0,*73,1603353966435
NMEA,$PQGSV,4,1,16,21,14,317,25,01,51,130,,02,41,241,,03,60,202,,0,4*6F,1603353966435
NMEA,$PQGSV,4,2,16,04,37,115,,05,17,258,,06,53,357,,07,40,167,,0,4*61,1603353966436
NMEA,$PQGSV,4,3,16,08,30,196,,09,44,316,,10,22,189,,13,42,224,,0,4*62,1603353966438
NMEA,$PQGSV,4,4,16,16,51,348,,19,49,104,,20,04,125,,22,60,350,,0,4*60,1603353966439
NMEA,$GNGSA,A,2,31,32,,,,,,,,,,,2.8,2.6,1.0,1*3C,1603353966441
NMEA,$GNGSA,A,2,79,83,,,,,,,,,,,2.8,2.6,1.0,2*39,1603353966446
NMEA,$GNGSA,A,2,01,26,,,,,,,,,,,2.8,2.6,1.0,3*38,1603353966447
NMEA,$GNVTG,269.7,T,269.7,M,0.5,N,1.0,K,A*39,1603353966448
NMEA,$GNRMC,080607.00,A,2255.526504,N,12017.683762,E,0.5,269.7,221020,2.8,W,A*3D,1603353966449
NMEA,$GNGGA,080607.00,2255.526504,N,12017.683762,E,1,06,2.6,26.4,M,17.5,M,,*41,1603353966449
Raw,10280338,10513881000000,,,-1287378671552260352,0.0,185.588956810534,-0.11817882377742052,19.64593066334484,7,15,0.0,207,39967357649593,40,21.8,-749.8554077148438,1.0269999504089355,0,0.0,0.0,,,,,0,,3,,
Raw,10280339,10513881000000,,,-1287378671552260352,0.0,185.588956810534,-0.11817882377742052,19.64593066334484,7,19,0.0,207,39967352689291,53,19.5,370.3551025390625,1.1495000123977661,0,0.0,0.0,,,,,0,,3,,
Raw,10280340,10513881000000,,,-1287378671552260352,0.0,185.588956810534,-0.11817882377742052,19.64593066334484,7,31,0.0,15,374785356232216,8,36.2,-488.3859558105469,0.060200002044439316,0,0.0,0.0,,,,,0,,1,,
Raw,10280340,10513881000000,,,-1287378671552260352,0.0,185.588956810534,-0.11817882377742052,19.64593066334484,7,32,0.0,15,374785357423648,12,32.5,-311.7066955566406,0.06440000236034393,0,0.0,0.0,,,,,0,,1,,
Raw,10280341,10513881000000,,,-1287378671552260352,0.0,185.588956810534,-0.11817882377742052,19.64593066334484,7,21,0.0,15,374771347124104,31,23.3,-527.1004028320312,0.6420000195503235,0,0.0,0.0,,,,,0,,5,,
Raw,10280342,10513881000000,,,-1287378671552260352,0.0,185.588956810534,-0.11817882377742052,19.64593066334484,7,26,0.0,7183,374785346674832,10,34.9,370.6170654296875,0.04910000041127205,0,0.0,0.0,,,,,0,,6,,
Raw,10280343,10513881000000,,,-1287378671552260352,0.0,185.588956810534,-0.11817882377742052,19.64593066334484,7,33,0.0,7183,374785340678433,17,28.4,111.88420867919922,0.0723000019788742,0,0.0,0.0,,,,,0,,6,,
Fix,gps,22.925439,120.294728,45.009521,0.320000,21.440001,1603353968000
NMEA,$GPGSV,3,1,11,31,23,239,36,32,30,313,33,10,65,324,,12,42,081,*7D,1603353967422
NMEA,$GPGSV,3,2,11,15,13,088,,18,19,192,,20,73,164,,21,04,307,*73,1603353967423
NMEA,$GPGSV,3,3,11,23,78,136,,24,23,039,,25,50,140,*49,1603353967424
NMEA,$GLGSV,1,1,02,79,18,205,22,83,04,271,20*6E,1603353967424
NMEA,$GAGSV,2,1,07,26,20,239,35,33,11,288,28,07,55,026,,13,07,188,*6B,1603353967427
NMEA,$GAGSV,2,2,07,21,11,201,,27,58,168,,30,49,059,*5A,1603353967429
NMEA,$PQGSV,1,1,0,*73,1603353967432
NMEA,$PQGSV,4,1,16,21,14,317,23,01,51,130,,02,41,241,,03,60,202,,0,4*69,1603353967434
NMEA,$PQGSV,4,2,16,04,37,115,,05,17,258,,06,53,357,,07,40,167,,0,4*61,1603353967437
NMEA,$PQGSV,4,3,16,08,30,196,,09,44,316,,10,22,189,,13,42,224,,0,4*62,1603353967438
NMEA,$PQGSV,4,4,16,16,51,348,,19,49,104,,20,04,125,,22,60,350,,0,4*60,1603353967439
NMEA,$GNGSA,A,2,31,32,,,,,,,,,,,2.8,2.6,1.0,1*3C,1603353967442
NMEA,$GNGSA,A,2,79,83,,,,,,,,,,,2.8,2.6,1.0,2*39,1603353967442
NMEA,$GNGSA,A,2,01,26,,,,,,,,,,,2.8,2.6,1.0,3*38,1603353967443
NMEA,$GNVTG,244.2,T,244.2,M,0.6,N,1.2,K,A*38,1603353967444
NMEA,$GNRMC,080608.00,A,2255.526335,N,12017.683673,E,0.6,244.2,221020,2.8,W,A*3E,1603353967444
NMEA,$GNGGA,080608.00,2255.526335,N,12017.683673,E,1,06,2.6,27.5,M,17.5,M,,*4B,1603353967445
Raw,10281578,10514881000000,,,-1287378671552260352,0.0,207.3802170343697,0.33384229862553144,18.873280749477402,7,15,0.0,207,39968357652173,35,22.2,-749.827392578125,0.9669999480247498,0,0.0,0.0,,,,,0,,3,,
Raw,10281581,10514881000000,,,-1287378671552260352,0.0,207.3802170343697,0.33384229862553144,18.873280749477402,7,19,0.0,207,39968352688292,53,19.4,370.77569580078125,1.1495000123977661,0,0.0,0.0,,,,,0,,3,,
Raw,10281583,10514881000000,,,-1287378671552260352,0.0,207.3802170343697,0.33384229862553144,18.873280749477402,7,31,0.0,15,374786356233835,8,36.5,-488.5892028808594,0.060200002044439316,0,0.0,0.0,,,,,0,,1,,
Raw,10281586,10514881000000,,,-1287378671552260352,0.0,207.3802170343697,0.33384229862553144,18.873280749477402,7,32,0.0,15,374786357424687,13,31.9,-311.99383544921875,0.065700002014637,0,0.0,0.0,,,,,0,,1,,
Raw,10281588,10514881000000,,,-1287378671552260352,0.0,207.3802170343697,0.33384229862553144,18.873280749477402,7,21,0.0,15,374772347125896,31,23.2,-527.0812377929688,0.6420000195503235,0,0.0,0.0,,,,,0,,5,,
Raw,10281590,10514881000000,,,-1287378671552260352,0.0,207.3802170343697,0.33384229862553144,18.873280749477402,7,26,0.0,7183,374786346673595,10,34.6,372.5000915527344,0.04910000041127205,0,0.0,0.0,,,,,0,,6,,
Raw,10281593,10514881000000,,,-1287378671552260352,0.0,207.3802170343697,0.33384229862553144,18.873280749477402,7,33,0.0,7183,374786340678052,19,27.6,113.53815460205078,0.08030000329017639,0,0.0,0.0,,,,,0,,6,,
Fix,gps,22.925439,120.294725,46.158386,0.270000,20.368000,1603353969000
NMEA,$GPGSV,3,1,11,31,23,239,37,32,30,313,32,10,65,324,,12,42,081,*7D,1603353968425
NMEA,$GPGSV,3,2,11,15,13,088,,18,19,192,,20,73,164,,21,04,307,*73,1603353968425
NMEA,$GPGSV,3,3,11,23,78,136,,24,23,039,,25,50,140,*49,1603353968426
NMEA,$GLGSV,1,1,02,79,18,205,22,83,04,271,19*64,1603353968431
NMEA,$GAGSV,2,1,07,26,20,239,35,33,11,288,28,07,55,026,,13,07,188,*6B,1603353968434
NMEA,$GAGSV,2,2,07,21,11,201,,27,58,168,,30,49,059,*5A,1603353968435
NMEA,$PQGSV,1,1,0,*73,1603353968436
NMEA,$PQGSV,4,1,16,21,14,317,23,01,51,130,,02,41,241,,03,60,202,,0,4*69,1603353968436
NMEA,$PQGSV,4,2,16,04,37,115,,05,17,258,,06,53,357,,07,40,167,,0,4*61,1603353968440
NMEA,$PQGSV,4,3,16,08,30,196,,09,44,316,,10,22,189,,13,42,224,,0,4*62,1603353968443
NMEA,$PQGSV,4,4,16,16,51,348,,19,49,104,,20,04,125,,22,60,350,,0,4*60,1603353968444
NMEA,$GNGSA,A,2,31,32,,,,,,,,,,,2.8,2.6,1.0,1*3C,1603353968447
NMEA,$GNGSA,A,2,79,83,,,,,,,,,,,2.8,2.6,1.0,2*39,1603353968447
NMEA,$GNGSA,A,2,01,26,,,,,,,,,,,2.8,2.6,1.0,3*38,1603353968448
NMEA,$GNVTG,320.0,T,320.0,M,0.5,N,1.0,K,A*39,1603353968449
NMEA,$GNRMC,080609.00,A,2255.526311,N,12017.683507,E,0.5,320.0,221020,2.8,W,A*3B,1603353968450
NMEA,$GNGGA,080609.00,2255.526311,N,12017.683507,E,1,06,2.6,28.7,M,17.5,M,,*41,1603353968451
Raw,10282339,10515881000000,,,-1287378671552260352,0.0,190.79973571933806,1.9286516349638971,19.21181979058773,7,15,0.0,207,39969357654753,61,18.9,-749.1817626953125,1.2370001077651978,0,0.0,0.0,,,,,0,,3,,
Raw,10282339,10515881000000,,,-1287378671552260352,0.0,190.79973571933806,1.9286516349638971,19.21181979058773,7,19,0.0,207,39969352687013,40,21.2,370.7476501464844,1.0195000171661377,0,0.0,0.0,,,,,0,,3,,
Raw,10282340,10515881000000,,,-1287378671552260352,0.0,190.79973571933806,1.9286516349638971,19.21181979058773,7,31,0.0,15,374787356235447,8,36.4,-487.9437255859375,0.060200002044439316,0,0.0,0.0,,,,,0,,1,,
Raw,10282341,10515881000000,,,-1287378671552260352,0.0,190.79973571933806,1.9286516349638971,19.21181979058773,7,32,0.0,15,374787357425724,12,32.0,-311.4086608886719,0.06440000236034393,0,0.0,0.0,,,,,0,,1,,
Raw,10282341,10515881000000,,,-1287378671552260352,0.0,190.79973571933806,1.9286516349638971,19.21181979058773,7,21,0.0,15,374773347127661,31,23.6,-526.5050659179688,0.6420000195503235,0,0.0,0.0,,,,,0,,5,,
Raw,10282342,10515881000000,,,-1287378671552260352,0.0,190.79973571933806,1.9286516349638971,19.21181979058773,7,26,0.0,7183,374787346672355,10,34.7,371.05926513671875,0.04910000041127205,0,0.0,0.0,,,,,0,,6,,
Raw,10282343,10515881000000,,,-1287378671552260352,0.0,190.79973571933806,1.9286516349638971,19.21181979058773,7,33,0.0,7183,374787340677671,17,28.8,111.72924041748047,0.0723000019788742,0,0.0,0.0,,,,,0,,6,,
Fix,gps,22.925437,120.294726,45.723633,0.280000,19.296001,1603353970000
NMEA,$GPGSV,3,1,11,31,23,239,36,32,30,313,32,10,65,324,,12,42,081,*7C,1603353969425
NMEA,$GPGSV,3,2,11,15,13,088,,18,19,192,,20,73,164,,21,04,307,*73,1603353969426
NMEA,$GPGSV,3,3,11,23,78,136,,24,23,039,,25,50,140,*49,1603353969430
NMEA,$GLGSV,1,1,02,79,18,205,19,83,04,271,21*67,1603353969431
NMEA,$GAGSV,2,1,07,26,20,239,35,33,11,288,29,07,55,026,,13,07,188,*6A,1603353969433
NMEA,$GAGSV,2,2,07,21,11,201,,27,58,168,,30,49,059,*5A,1603353969434
NMEA,$PQGSV,1,1,0,*73,1603353969435
NMEA,$PQGSV,4,1,16,21,14,317,24,01,51,130,,02,41,241,,03,60,202,,0,4*6E,1603353969436
NMEA,$PQGSV,4,2,16,04,37,115,,05,17,258,,06,53,357,,07,40,167,,0,4*61,1603353969437
NMEA,$PQGSV,4,3,16,08,30,196,,09,44,316,,10,22,189,,13,42,224,,0,4*62,1603353969437
NMEA,$PQGSV,4,4,16,16,51,348,,19,49,104,,20,04,125,,22,60,350,,0,4*60,1603353969439
NMEA,$GNGSA,A,2,31,32,,,,,,,,,,,2.8,2.6,1.0,1*3C,1603353969443
NMEA,$GNGSA,A,2,79,83,,,,,,,,,,,2.8,2.6,1.0,2*39,1603353969444
NMEA,$GNGSA,A,2,01,26,,,,,,,,,,,2.8,2.6,1.0,3*38,1603353969444
NMEA,$GNVTG,209.6,T,209.6,M,0.5,N,1.0,K,A*39,1603353969446
NMEA,$GNRMC,080610.00,A,2255.526242,N,12017.683552,E,0.5,209.6,221020,2.8,W,A*38,1603353969447
NMEA,$GNGGA,080610.00,2255.526242,N,12017.683552,E,1,06,2.6,28.3,M,17.5,M,,*4A,1603353969452
Raw,10283339,10516881000000,,,-1287378671552260352,0.0,185.17306307330728,0.9612721458011713,19.01706874276548,7,15,0.0,207,39970357657050,46,20.6,-749.7525024414062,1.0870000123977661,0,0.0,0.0,,,,,0,,3,,
Raw,10283340,10516881000000,,,-1287378671552260352,0.0,185.17306307330728,0.9612721458011713,19.01706874276548,7,19,0.0,207,39970352685903,46,20.7,371.41131591796875,1.0794999599456787,0,0.0,0.0,,,,,0,,3,,
Raw,10283341,10516881000000,,,-1287378671552260352,0.0,185.17306307330728,0.9612721458011713,19.01706874276548,7,31,0.0,15,374788356237098,9,35.9,-488.14776611328125,0.060600001364946365,0,0.0,0.0,,,,,0,,1,,
Raw,10283342,10516881000000,,,-1287378671552260352,0.0,185.17306307330728,0.9612721458011713,19.01706874276548,7,32,0.0,15,374788357426757,12,32.3,-311.700439453125,0.06440000236034393,0,0.0,0.0,,,,,0,,1,,
Raw,10283342,10516881000000,,,-1287378671552260352,0.0,185.17306307330728,0.9612721458011713,19.01706874276548,7,21,0.0,15,374774347129406,35,22.0,-527.1387939453125,0.6919999718666077,0,0.0,0.0,,,,,0,,5,,
Raw,10283343,10516881000000,,,-1287378671552260352,0.0,185.17306307330728,0.9612721458011713,19.01706874276548,7,26,0.0,7183,374788346671113,10,34.9,372.4270324707031,0.04910000041127205,0,0.0,0.0,,,,,0,,6,,
Raw,10283345,10516881000000,,,-1287378671552260352,0.0,185.17306307330728,0.9612721458011713,19.01706874276548,7,33,0.0,7183,374788340677294,17,28.0,113.24807739257812,0.0723000019788742,0,0.0,0.0,,,,,0,,6,,
Fix,gps,22.925436,120.294729,45.079407,0.370000,21.440001,1603353971000
NMEA,$GPGSV,3,1,11,31,23,239,36,32,30,313,32,10,65,324,,12,42,081,*7C,1603353970423
NMEA,$GPGSV,3,2,11,15,13,088,,18,19,192,,20,73,164,,21,04,307,*73,1603353970423
NMEA,$GPGSV,3,3,11,23,78,136,,24,23,039,,25,50,140,*49,1603353970424
NMEA,$GLGSV,1,1,02,79,18,205,21,83,04,271,21*6C,1603353970425
NMEA,$GAGSV,2,1,07,26,20,239,35,33,11,288,28,07,55,026,,13,07,188,*6B,1603353970426
NMEA,$GAGSV,2,2,07,21,11,201,,27,58,168,,30,49,059,*5A,1603353970426
NMEA,$PQGSV,1,1,0,*73,1603353970427
NMEA,$PQGSV,4,1,16,21,14,317,22,01,51,130,,02,41,241,,03,60,202,,0,4*68,1603353970429
NMEA,$PQGSV,4,2,16,04,37,115,,05,17,258,,06,53,357,,07,40,167,,0,4*61,1603353970430
NMEA,$PQGSV,4,3,16,08,30,196,,09,44,316,,10,22,189,,13,42,224,,0,4*62,1603353970430
NMEA,$PQGSV,4,4,16,16,51,348,,19,49,104,,20,04,125,,22,60,350,,0,4*60,1603353970431
NMEA,$GNGSA,A,2,31,32,,,,,,,,,,,2.8,2.6,1.0,1*3C,1603353970436
NMEA,$GNGSA,A,2,79,83,,,,,,,,,,,2.8,2.6,1.0,2*39,1603353970437
NMEA,$GNGSA,A,2,01,26,,,,,,,,,,,2.8,2.6,1.0,3*38,1603353970438
NMEA,$GNVTG,86.6,T,86.6,M,0.7,N,1.3,K,A*38,1603353970438
NMEA,$GNRMC,080611.00,A,2255.526153,N,12017.683712,E,0.7,86.6,221020,2.8,W,A*0B,1603353970439
NMEA,$GNGGA,080611.00,2255.526153,N,12017.683712,E,1,06,2.6,27.6,M,17.5,M,,*44,1603353970439
Raw,10284339,10517881000000,,,-1287378671552260352,0.0,205.19127428997308,1.8265420153179608,18.9307523655157,7,15,0.0,207,39971357659783,53,19.8,-750.6507568359375,1.1570000648498535,0,0.0,0.0,,,,,0,,3,,
Raw,10284341,10517881000000,,,-1287378671552260352,0.0,205.19127428997308,1.8265420153179608,18.9307523655157,7,19,0.0,207,39971352684563,46,20.5,369.8503723144531,1.0794999599456787,0,0.0,0.0,,,,,0,,3,,
Raw,10284349,10517881000000,,,-1287378671552260352,0.0,205.19127428997308,1.8265420153179608,18.9307523655157,7,31,0.0,15,374789356238716,8,36.0,-488.5077819824219,0.060200002044439316,0,0.0,0.0,,,,,0,,1,,
Raw,10284350,10517881000000,,,-1287378671552260352,0.0,205.19127428997308,1.8265420153179608,18.9307523655157,7,32,0.0,15,374789357427809,13,31.3,-312.1289367675781,0.065700002014637,0,0.0,0.0,,,,,0,,1,,
Raw,10284351,10517881000000,,,-1287378671552260352,0.0,205.19127428997308,1.8265420153179608,18.9307523655157,7,21,0.0,15,374775347131177,27,24.2,-526.9659423828125,0.6019999980926514,0,0.0,0.0,,,,,0,,5,,
Raw,10284351,10517881000000,,,-1287378671552260352,0.0,205.19127428997308,1.8265420153179608,18.9307523655157,7,26,0.0,7183,374789346669879,10,34.6,372.4216003417969,0.04910000041127205,0,0.0,0.0,,,,,0,,6,,
Raw,10284351,10517881000000,,,-1287378671552260352,0.0,205.19127428997308,1.8265420153179608,18.9307523655157,7,33,0.0,7183,374789340676925,17,28.7,113.04377746582031,0.0723000019788742,0,0.0,0.0,,,,,0,,6,,
Fix,gps,22.925436,120.294746,43.989929,1.010000,20.368000,1603353972000
NMEA,$GPGSV,3,1,11,31,23,239,36,32,30,313,31,10,65,324,,12,42,081,*7F,1603353971425
NMEA,$GPGSV,3,2,11,15,13,088,,18,19,192,,20,73,164,,21,04,307,*73,1603353971426
NMEA,$GPGSV,3,3,11,23,78,136,,24,23,039,,25,50,140,*49,1603353971427
NMEA,$GLGSV,1,1,02,79,18,205,20,83,04,271,21*6D,1603353971429
NMEA,$GAGSV,2,1,07,26,20,239,35,33,11,288,29,07,55,026,,13,07,188,*6A,1603353971430
NMEA,$GAGSV,2,2,07,21,11,201,,27,58,168,,30,49,059,*5A,1603353971431
NMEA,$PQGSV,1,1,0,*73,1603353971432
NMEA,$PQGSV,4,1,16,21,14,317,24,01,51,130,,02,41,241,,03,60,202,,0,4*6E,1603353971433
NMEA,$PQGSV,4,2,16,04,37,115,,05,17,258,,06,53,357,,07,40,167,,0,4*61,1603353971447
NMEA,$PQGSV,4,3,16,08,30,196,,09,44,316,,10,22,189,,13,42,224,,0,4*62,1603353971448
NMEA,$PQGSV,4,4,16,16,51,348,,19,49,104,,20,04,125,,22,60,350,,0,4*60,1603353971448
NMEA,$GNGSA,A,2,31,32,,,,,,,,,,,2.8,2.6,1.0,1*3C,1603353971450
NMEA,$GNGSA,A,2,79,83,,,,,,,,,,,2.8,2.6,1.0,2*39,1603353971452
NMEA,$GNGSA,A,2,01,26,,,,,,,,,,,2.8,2.6,1.0,3*38,1603353971453
NMEA,$GNVTG,83.6,T,83.6,M,2.0,N,3.6,K,A*3A,1603353971454
NMEA,$GNRMC,080612.00,A,2255.526137,N,12017.684789,E,2.0,83.6,221020,2.8,W,A*0F,1603353971454
NMEA,$GNGGA,080612.00,2255.526137,N,12017.684789,E,1,06,2.6,26.5,M,17.5,M,,*42,1603353971454
Raw,10285339,10518881000000,,,-1287378671552260352,0.0,198.9655866054818,-0.5697217599637419,20.368724550734527,7,15,0.0,207,39972357662244,46,20.9,-749.1068725585938,1.0870000123977661,0,0.0,0.0,,,,,0,,3,,
Raw,10285339,10518881000000,,,-1287378671552260352,0.0,198.9655866054818,-0.5697217599637419,20.368724550734527,7,19,0.0,207,39972352683258,53,19.6,371.03741455078125,1.1495000123977661,0,0.0,0.0,,,,,0,,3,,
Raw,10285340,10518881000000,,,-1287378671552260352,0.0,198.9655866054818,-0.5697217599637419,20.368724550734527,7,31,0.0,15,374790356240361,9,35.5,-487.78338623046875,0.060600001364946365,0,0.0,0.0,,,,,0,,1,,
Raw,10285340,10518881000000,,,-1287378671552260352,0.0,198.9655866054818,-0.5697217599637419,20.368724550734527,7,32,0.0,15,374790357428871,13,31.3,-311.485107421875,0.065700002014637,0,0.0,0.0,,,,,0,,1,,
Raw,10285341,10518881000000,,,-1287378671552260352,0.0,198.9655866054818,-0.5697217599637419,20.368724550734527,7,21,0.0,15,374776347132941,27,24.4,-526.6875,0.6019999980926514,0,0.0,0.0,,,,,0,,5,,
Raw,10285342,10518881000000,,,-1287378671552260352,0.0,198.9655866054818,-0.5697217599637419,20.368724550734527,7,26,0.0,7183,374790346668633,10,34.7,371.2713928222656,0.04910000041127205,0,0.0,0.0,,,,,0,,6,,
Raw,10285342,10518881000000,,,-1287378671552260352,0.0,198.9655866054818,-0.5697217599637419,20.368724550734527,7,33,0.0,7183,374790340676547,16,29.3,112.15569305419922,0.065700002014637,0,0.0,0.0,,,,,0,,6,,
Fix,gps,22.925435,120.294764,45.185669,0.320000,19.296001,1603353973000
NMEA,$GPGSV,3,1,11,31,23,239,36,32,30,313,31,10,65,324,,12,42,081,*7F,1603353972425
NMEA,$GPGSV,3,2,11,15,13,088,,18,19,192,,20,73,164,,21,04,307,*73,1603353972426
NMEA,$GPGSV,3,3,11,23,78,136,,24,23,039,,25,50,140,*49,1603353972427
NMEA,$GLGSV,1,1,02,79,18,205,21,83,04,271,20*6D,1603353972430
NMEA,$GAGSV,2,1,07,26,20,239,35,33,11,288,29,07,55,026,,13,07,188,*6A,1603353972432
NMEA,$GAGSV,2,2,07,21,11,201,,27,58,168,,30,49,059,*5A,1603353972435
NMEA,$PQGSV,1,1,0,*73,1603353972436
NMEA,$PQGSV,4,1,16,21,14,317,24,01,51,130,,02,41,241,,03,60,202,,0,4*6E,1603353972437
NMEA,$PQGSV,4,2,16,04,37,115,,05,17,258,,06,53,357,,07,40,167,,0,4*61,1603353972437
NMEA,$PQGSV,4,3,16,08,30,196,,09,44,316,,10,22,189,,13,42,224,,0,4*62,1603353972438
NMEA,$PQGSV,4,4,16,16,51,348,,19,49,104,,20,04,125,,22,60,350,,0,4*60,1603353972439
NMEA,$GNGSA,A,2,31,32,,,,,,,,,,,2.8,2.6,1.0,1*3C,1603353972442
NMEA,$GNGSA,A,2,79,83,,,,,,,,,,,2.8,2.6,1.0,2*39,1603353972442
NMEA,$GNGSA,A,2,01,26,,,,,,,,,,,2.8,2.6,1.0,3*38,1603353972443
NMEA,$GNVTG,84.7,T,84.7,M,0.6,N,1.2,K,A*38,1603353972444
NMEA,$GNRMC,080613.00,A,2255.526102,N,12017.685829,E,0.6,84.7,221020,2.8,W,A*0E,1603353972444
NMEA,$GNGGA,080613.00,2255.526102,N,12017.685829,E,1,06,2.6,27.7,M,17.5,M,,*42,1603353972445
Raw,10286339,10519881000000,,,-1287378671552260352,0.0,189.6560424938798,-0.48433108720941603,18.607175699300132,7,15,0.0,207,39973357664725,46,20.9,-749.5372924804688,1.0870000123977661,0,0.0,0.0,,,,,0,,3,,
Raw,10286340,10519881000000,,,-1287378671552260352,0.0,189.6560424938798,-0.48433108720941603,18.607175699300132,7,19,0.0,207,39973352682089,53,19.9,370.5887756347656,1.1495000123977661,0,0.0,0.0,,,,,0,,3,,
Raw,10286341,10519881000000,,,-1287378671552260352,0.0,189.6560424938798,-0.48433108720941603,18.607175699300132,7,31,0.0,15,374791356241979,9,35.6,-488.1476745605469,0.060600001364946365,0,0.0,0.0,,,,,0,,1,,
Raw,10286341,10519881000000,,,-1287378671552260352,0.0,189.6560424938798,-0.48433108720941603,18.607175699300132,7,32,0.0,15,374791357429879,12,32.0,-311.9088439941406,0.06440000236034393,0,0.0,0.0,,,,,0,,1,,
Raw,10286342,10519881000000,,,-1287378671552260352,0.0,189.6560424938798,-0.48433108720941603,18.607175699300132,7,21,0.0,15,374777347134676,31,23.8,-527.590087890625,0.6019999980926514,0,0.0,0.0,,,,,0,,5,,
Raw,10286343,10519881000000,,,-1287378671552260352,0.0,189.6560424938798,-0.48433108720941603,18.607175699300132,7,26,0.0,7183,374791346667394,10,34.5,372.7294006347656,0.04910000041127205,0,0.0,0.0,,,,,0,,6,,
Raw,10286343,10519881000000,,,-1287378671552260352,0.0,189.6560424938798,-0.48433108720941603,18.607175699300132,7,33,0.0,7183,374791340676176,16,29.4,113.87760162353516,0.065700002014637,0,0.0,0.0,,,,,0,,6,,
Fix,gps,22.925434,120.294781,45.148132,0.900000,18.224001,1603353974000
NMEA,$GPGSV,3,1,11,31,23,239,36,32,30,313,32,10,65,324,,12,42,081,*7C,1603353973425
NMEA,$GPGSV,3,2,11,15,13,088,,18,19,192,,20,73,164,,21,04,307,*73,1603353973426
NMEA,$GPGSV,3,3,11,23,78,136,,24,23,039,,25,50,140,*49,1603353973428
NMEA,$GLGSV,1,1,02,79,18,205,21,83,04,271,20*6D,1603353973431
NMEA,$GAGSV,2,1,07,26,20,239,35,33,11,288,29,07,55,026,,13,07,188,*6A,1603353973432
NMEA,$GAGSV,2,2,07,21,11,201,,27,58,168,,30,49,059,*5A,1603353973434
NMEA,$PQGSV,1,1,0,*73,1603353973434
NMEA,$PQGSV,4,1,16,21,14,317,24,01,51,130,,02,41,241,,03,60,202,,0,4*6E,1603353973436
NMEA,$PQGSV,4,2,16,04,37,115,,05,17,258,,06,53,357,,07,40,167,,0,4*61,1603353973437
NMEA,$PQGSV,4,3,16,08,30,196,,09,44,316,,10,22,189,,13,42,224,,0,4*62,1603353973438
NMEA,$PQGSV,4,4,16,16,51,348,,19,49,104,,20,04,125,,22,60,350,,0,4*60,1603353973438
NMEA,$GNGSA,A,2,31,32,,,,,,,,,,,2.8,2.6,1.0,1*3C,1603353973442
NMEA,$GNGSA,A,2,79,83,,,,,,,,,,,2.8,2.6,1.0,2*39,1603353973443
NMEA,$GNGSA,A,2,01,26,,,,,,,,,,,2.8,2.6,1.0,3*38,1603353973444
NMEA,$GNVTG,88.1,T,88.1,M,1.7,N,3.2,K,A*3A,1603353973445
NMEA,$GNRMC,080614.00,A,2255.526023,N,12017.686889,E,1.7,88.1,221020,2.8,W,A*08,1603353973446
NMEA,$GNGGA,080614.00,2255.526023,N,12017.686889,E,1,06,2.6,27.7,M,17.5,M,,*4E,1603353973447
Fix,gps,22.925432,120.294796,45.808716,0.590000,16.080000,1603353975000
Raw,10287373,10520881000000,,,-1287378671552260352,0.0,176.3323089107871,0.49952245268678525,20.09498005263342,7,15,0.0,207,39974357667219,53,19.4,-749.7618408203125,1.1570000648498535,0,0.0,0.0,,,,,0,,3,,
Raw,10287376,10520881000000,,,-1287378671552260352,0.0,176.3323089107871,0.49952245268678525,20.09498005263342,7,19,0.0,207,39974352680793,53,19.7,370.9532775878906,1.1495000123977661,0,0.0,0.0,,,,,0,,3,,
Raw,10287378,10520881000000,,,-1287378671552260352,0.0,176.3323089107871,0.49952245268678525,20.09498005263342,7,31,0.0,15,374792356243606,8,36.0,-488.1558532714844,0.060200002044439316,0,0.0,0.0,,,,,0,,1,,
Raw,10287381,10520881000000,,,-1287378671552260352,0.0,176.3323089107871,0.49952245268678525,20.09498005263342,7,32,0.0,15,374792357430906,12,32.9,-312.01043701171875,0.06440000236034393,0,0.0,0.0,,,,,0,,1,,
