# 
# Header Description:
# 
# Version: v2.0.0.1 Platform: 8.0.0 Manufacturer: Sony Model: G8142
# 
# Raw,ElapsedRealtimeMillis,TimeNanos,LeapSecond,TimeUncertaintyNanos,FullBiasNanos,BiasNanos,BiasUncertaintyNanos,DriftNanosPerSecond,DriftUncertaintyNanosPerSecond,HardwareClockDiscontinuityCount,Svid,TimeOffsetNanos,State,ReceivedSvTimeNanos,ReceivedSvTimeUncertaintyNanos,Cn0DbHz,PseudorangeRateMetersPerSecond,PseudorangeRateUncertaintyMetersPerSecond,AccumulatedDeltaRangeState,AccumulatedDeltaRangeMeters,AccumulatedDeltaRangeUncertaintyMeters,CarrierFrequencyHz,CarrierCycles,CarrierPhase,CarrierPhaseUncertainty,MultipathIndicator,SnrInDb,ConstellationType,AgcDb,CarrierFrequencyHz
# 
# Fix,Provider,Latitude,Longitude,Altitude,Speed,Accuracy,(UTC)TimeInMs
# 
# Nav,Svid,Type,Status,MessageId,Sub-messageId,Data(Bytes)
# 
Raw,9451359,9684881000000,,,-1287378671552263168,0.0,199.29259724449366,0.28928404656766515,19.76028220801197,7,18,0.0,207,39138352812693,158,18.4,511.78631591796875,7.2295002937316895,0,0.0,0.0,,,,,0,,3,,
Raw,9451360,9684881000000,,,-1287378671552263168,0.0,199.29259724449366,0.28928404656766515,19.76028220801197,7,15,0.0,207,39138355520103,244,15.7,-785.9353637695312,8.994000434875488,0,0.0,0.0,,,,,0,,3,,
Raw,9451360,9684881000000,,,-1287378671552263168,0.0,199.29259724449366,0.28928404656766515,19.76028220801197,7,19,0.0,207,39138353637415,35,22.7,309.88018798828125,0.9609999656677246,0,0.0,0.0,,,,,0,,3,,
Raw,9451360,9684881000000,,,-1287378671552263168,0.0,199.29259724449366,0.28928404656766515,19.76028220801197,7,3,0.0,207,39138365627623,184,13.5,-234.19236755371094,6.199000358581543,0,0.0,0.0,,,,,0,,3,,
Raw,9451360,9684881000000,,,-1287378671552263168,0.0,199.29259724449366,0.28928404656766515,19.76028220801197,7,4,0.0,207,39138358050936,19,27.3,-544.5535278320312,0.2833000123500824,0,0.0,0.0,,,,,0,,3,,
Raw,9451361,9684881000000,,,-1287378671552263168,0.0,199.29259724449366,0.28928404656766515,19.76028220801197,7,31,0.0,15,373956354809429,13,31.7,-541.8307495117188,0.06120000407099724,0,0.0,0.0,,,,,0,,1,,
Raw,9451361,9684881000000,,,-1287378671552263168,0.0,199.29259724449366,0.28928404656766515,19.76028220801197,7,32,0.0,15,373956356571195,10,34.1,-306.849609375,0.06110000237822533,0,0.0,0.0,,,,,0,,1,,
Raw,9451361,9684881000000,,,-1287378671552263168,0.0,199.29259724449366,0.28928404656766515,19.76028220801197,7,21,0.0,15,373942345684006,53,19.4,-515.6548461914062,0.8689999580383301,0,0.0,0.0,,,,,0,,5,,
Raw,9451361,9684881000000,,,-1287378671552263168,0.0,199.29259724449366,0.28928404656766515,19.76028220801197,7,26,0.0,7183,373956347679849,12,32.0,351.01165771484375,0.06140000373125076,0,0.0,0.0,,,,,0,,6,,
Raw,9451361,9684881000000,,,-1287378671552263168,0.0,199.29259724449366,0.28928404656766515,19.76028220801197,7,33,0.0,7183,373956340910611,21,26.2,52.78008270263672,0.1502000093460083,0,0.0,0.0,,,,,0,,6,,
Fix,gps,22.925448,120.295046,32.457581,0.950000,22.512001,1603353139000
NMEA,$GPGSV,3,1,11,31,18,234,32,32,26,306,34,10,58,327,,12,42,092,*77,1603353138422
NMEA,$GPGSV,3,2,11,15,16,082,,18,24,195,,20,80,160,,21,02,313,*7E,1603353138423
NMEA,$GPGSV,3,3,11,23,83,090,,24,28,036,,25,45,147,*47,1603353138424
NMEA,$GLGSV,2,1,05,82,04,234,18,79,11,203,16,83,07,278,23,67,49,026,14*64,1603353138424
NMEA,$GLGSV,2,2,05,68,20,331,27*58,1603353138426
NMEA,$GAGSV,2,1,07,26,23,243,32,33,12,292,26,07,54,018,,13,10,191,*66,1603353138426
NMEA,$GAGSV,2,2,07,21,07,201,,27,52,170,,30,51,066,*5B,1603353138426
NMEA,$PQGSV,1,1,0,*73,1603353138426
NMEA,$PQGSV,4,1,16,21,09,316,19,01,51,130,,02,41,241,,03,60,202,,0,4*6D,1603353138426
NMEA,$PQGSV,4,2,16,04,37,115,,05,17,258,,06,53,354,,07,37,167,,0,4*62,1603353138426
NMEA,$PQGSV,4,3,16,08,34,196,,09,44,313,,10,20,188,,13,45,226,,0,4*65,1603353138427
NMEA,$PQGSV,4,4,16,16,51,345,,19,52,095,,20,07,120,,22,55,345,,0,4*6A,1603353138427
NMEA,$GNGSA,A,2,31,32,,,,,,,,,,,1.6,1.3,1.0,1*37,1603353138428
NMEA,$GNGSA,A,3,67,68,79,82,83,,,,,,,,1.6,1.3,1.0,2*36,1603353138428
NMEA,$GNGSA,A,2,01,26,,,,,,,,,,,1.6,1.3,1.0,3*33,1603353138428
NMEA,$GNVTG,67.8,T,67.8,M,1.8,N,3.4,K,A*33,1603353138428
NMEA,$GNRMC,075219.00,A,2255.526891,N,12017.702746,E,1.8,67.8,221020,2.8,W,A*0C,1603353138429
NMEA,$GNGGA,075219.00,2255.526891,N,12017.702746,E,1,09,1.3,15.0,M,17.5,M,,*42,1603353138429
Raw,9452514,9685881000000,,,-1287378671552263168,0.0,185.82514894660562,1.1118956595802305,19.927166687517413,7,18,0.0,207,39139352811334,172,12.3,510.1190490722656,4.829500198364258,0,0.0,0.0,,,,,0,,3,,
Raw,9452514,9685881000000,,,-1287378671552263168,0.0,185.82514894660562,1.1118956595802305,19.927166687517413,7,15,0.0,207,39139355522724,304,15.7,-785.9353637695312,10.494000434875488,0,0.0,0.0,,,,,0,,3,,
Raw,9452515,9685881000000,,,-1287378671552263168,0.0,185.82514894660562,1.1118956595802305,19.927166687517413,7,19,0.0,207,39139353636414,31,23.3,309.7026062011719,0.9009999632835388,0,0.0,0.0,,,,,0,,3,,
Raw,9452516,9685881000000,,,-1287378671552263168,0.0,185.82514894660562,1.1118956595802305,19.927166687517413,7,3,0.0,207,39139365628290,133,13.5,-236.1538543701172,3.199000120162964,0,0.0,0.0,,,,,0,,3,,
Raw,9452517,9685881000000,,,-1287378671552263168,0.0,185.82514894660562,1.1118956595802305,19.927166687517413,7,4,0.0,207,39139358052711,21,26.1,-544.68994140625,0.3531999886035919,0,0.0,0.0,,,,,0,,3,,
Raw,9452518,9685881000000,,,-1287378671552263168,0.0,185.82514894660562,1.1118956595802305,19.927166687517413,7,31,0.0,15,373957354811233,13,31.3,-541.9876098632812,0.06120000407099724,0,0.0,0.0,,,,,0,,1,,
Raw,9452518,9685881000000,,,-1287378671552263168,0.0,185.82514894660562,1.1118956595802305,19.927166687517413,7,32,0.0,15,373957356572216,11,33.7,-307.0828552246094,0.061900001019239426,0,0.0,0.0,,,,,0,,1,,
Raw,9452519,9685881000000,,,-1287378671552263168,0.0,185.82514894660562,1.1118956595802305,19.927166687517413,7,21,0.0,15,373943345685782,46,20.0,-516.874267578125,0.8089999556541443,0,0.0,0.0,,,,,0,,5,,
Raw,9452519,9685881000000,,,-1287378671552263168,0.0,185.82514894660562,1.1118956595802305,19.927166687517413,7,26,0.0,7183,373957347678678,12,32.3,352.2816162109375,0.06140000373125076,0,0.0,0.0,,,,,0,,6,,
Raw,9452520,9685881000000,,,-1287378671552263168,0.0,185.82514894660562,1.1118956595802305,19.927166687517413,7,33,0.0,7183,373957340910429,21,26.3,54.28337097167969,0.1502000093460083,0,0.0,0.0,,,,,0,,6,,
Fix,gps,22.925453,120.295011,31.666748,1.010000,20.368000,1603353140000
NMEA,$GPGSV,3,1,11,31,18,234,31,32,26,306,34,10,58,327,,12,42,092,*74,1603353139422
NMEA,$GPGSV,3,2,11,15,16,082,,18,24,195,,20,80,160,,21,02,313,*7E,1603353139422
NMEA,$GPGSV,3,3,11,23,83,090,,24,28,036,,25,45,147,*47,1603353139422
NMEA,$GLGSV,2,1,05,82,04,234,12,79,11,203,16,83,07,278,23,67,49,026,14*6E,1603353139423
NMEA,$GLGSV,2,2,05,68,20,331,26*59,1603353139424
NMEA,$GAGSV,2,1,07,26,23,243,32,33,12,292,26,07,54,018,,13,10,191,*66,1603353139424
NMEA,$GAGSV,2,2,07,21,07,201,,27,52,170,,30,51,066,*5B,1603353139425
NMEA,$PQGSV,1,1,0,*73,1603353139425
NMEA,$PQGSV,4,1,16,21,09,316,20,01,51,130,,02,41,241,,03,60,202,,0,4*67,1603353139426
NMEA,$PQGSV,4,2,16,04,37,115,,05,17,258,,06,53,354,,07,37,167,,0,4*62,1603353139426
NMEA,$PQGSV,4,3,16,08,34,196,,09,44,313,,10,20,188,,13,45,226,,0,4*65,1603353139426
NMEA,$PQGSV,4,4,16,16,51,345,,19,52,095,,20,07,120,,22,55,345,,0,4*6A,1603353139427
NMEA,$GNGSA,A,2,31,32,,,,,,,,,,,1.7,1.4,1.0,1*31,1603353139428
NMEA,$GNGSA,A,3,67,68,79,82,83,,,,,,,,1.7,1.4,1.0,2*30,1603353139428
NMEA,$GNGSA,A,2,01,26,,,,,,,,,,,1.7,1.4,1.0,3*35,1603353139428
NMEA,$GNVTG,293.8,T,293.8,M,2.0,N,3.6,K,A*3A,1603353139429
NMEA,$GNRMC,075220.00,A,2255.527185,N,12017.700685,E,2.0,293.8,221020,2.8,W,A*35,1603353139429
NMEA,$GNGGA,075220.00,2255.527185,N,12017.700685,E,1,09,1.4,14.2,M,17.5,M,,*4D,1603353139429
Fix,gps,22.925455,120.294965,29.776428,0.000000,17.152000,1603353141000
Raw,9453321,9686881000000,,,-1287378671552263168,0.0,178.12378064263612,2.621712037109738,20.819324733636627,7,18,0.0,207,39140352809663,93,15.7,506.7751159667969,1.4895000457763672,0,0.0,0.0,,,,,0,,3,,
Raw,9453322,9686881000000,,,-1287378671552263168,0.0,178.12378064263612,2.621712037109738,20.819324733636627,7,15,0.0,207,39140355525470,224,11.9,-789.724853515625,6.464000225067139,0,0.0,0.0,,,,,0,,3,,
Raw,9453323,9686881000000,,,-1287378671552263168,0.0,178.12378064263612,2.621712037109738,20.819324733636627,7,19,0.0,207,39140353635347,31,23.5,307.89862060546875,0.9009999632835388,0,0.0,0.0,,,,,0,,3,,
Raw,9453324,9686881000000,,,-1287378671552263168,0.0,178.12378064263612,2.621712037109738,20.819324733636627,7,3,0.0,207,39140365629171,81,16.1,-236.5648193359375,1.3890000581741333,0,0.0,0.0,,,,,0,,3,,
Raw,9453324,9686881000000,,,-1287378671552263168,0.0,178.12378064263612,2.621712037109738,20.819324733636627,7,4,0.0,207,39140358054588,27,24.7,-547.0447998046875,0.8585000038146973,0,0.0,0.0,,,,,0,,3,,
Raw,9453325,9686881000000,,,-1287378671552263168,0.0,178.12378064263612,2.621712037109738,20.819324733636627,7,31,0.0,15,373958354813060,11,33.0,-544.1141967773438,0.058900002390146255,0,0.0,0.0,,,,,0,,1,,
Raw,9453325,9686881000000,,,-1287378671552263168,0.0,178.12378064263612,2.621712037109738,20.819324733636627,7,32,0.0,15,373958356573248,11,33.1,-309.2923583984375,0.061900001019239426,0,0.0,0.0,,,,,0,,1,,
Raw,9453326,9686881000000,,,-1287378671552263168,0.0,178.12378064263612,2.621712037109738,20.819324733636627,7,21,0.0,15,373944345687536,61,18.7,-517.9208984375,0.9389999508857727,0,0.0,0.0,,,,,0,,5,,
Raw,9453326,9686881000000,,,-1287378671552263168,0.0,178.12378064263612,2.621712037109738,20.819324733636627,7,26,0.0,7183,373958347677511,12,32.5,349.3221130371094,0.3240000009536743,0,0.0,0.0,,,,,0,,6,,
Raw,9453327,9686881000000,,,-1287378671552263168,0.0,178.12378064263612,2.621712037109738,20.819324733636627,7,33,0.0,7183,373958340910253,24,25.8,50.62763595581055,0.5354999899864197,0,0.0,0.0,,,,,0,,6,,
NMEA,$GPGSV,3,1,11,31,18,234,33,32,26,306,33,10,58,327,,12,42,092,*71,1603353140421
NMEA,$GPGSV,3,2,11,15,16,082,,18,24,195,,20,80,160,,21,02,313,*7E,1603353140421
NMEA,$GPGSV,3,3,11,23,83,090,,24,28,036,,25,45,147,*47,1603353140422
NMEA,$GLGSV,2,1,05,82,04,234,16,79,11,203,12,83,07,278,24,67,49,026,16*6B,1603353140422
NMEA,$GLGSV,2,2,05,68,20,331,25*5A,1603353140423
NMEA,$GAGSV,2,1,07,26,23,243,33,33,12,292,26,07,54,018,,13,10,191,*67,1603353140423
NMEA,$GAGSV,2,2,07,21,07,201,,27,52,170,,30,51,066,*5B,1603353140423
NMEA,$PQGSV,1,1,0,*73,1603353140423
NMEA,$PQGSV,4,1,16,21,09,316,19,01,51,130,,02,41,241,,03,60,202,,0,4*6D,1603353140424
NMEA,$PQGSV,4,2,16,04,37,115,,05,17,258,,06,53,354,,07,37,167,,0,4*62,1603353140424
NMEA,$PQGSV,4,3,16,08,34,196,,09,44,313,,10,20,188,,13,45,226,,0,4*65,1603353140425
NMEA,$PQGSV,4,4,16,16,51,345,,19,52,095,,20,07,120,,22,55,345,,0,4*6A,1603353140425
NMEA,$GNGSA,A,2,31,32,,,,,,,,,,,1.6,1.3,1.0,1*37,1603353140426
NMEA,$GNGSA,A,3,67,68,82,83,,,,,,,,,1.6,1.3,1.0,2*38,1603353140426
NMEA,$GNGSA,A,2,01,26,,,,,,,,,,,1.6,1.3,1.0,3*33,1603353140426
NMEA,$GNVTG,,T,,M,0.0,N,0.0,K,A*3D,1603353140426
NMEA,$GNRMC,075221.00,A,2255.527289,N,12017.697902,E,0.0,,221020,2.8,W,A*18,1603353140427
NMEA,$GNGGA,075221.00,2255.527289,N,12017.697902,E,1,08,1.3,12.3,M,17.5,M,,*4D,1603353140427
Raw,9454467,9687881000000,,,-1287378671552263168,0.0,160.6107980478555,-4.758051122108361,21.242567326638675,7,18,0.0,207,39141352807777,40,21.3,506.7376708984375,1.0195000171661377,0,0.0,0.0,,,,,0,,3,,
Raw,9454468,9687881000000,,,-1287378671552263168,0.0,160.6107980478555,-4.758051122108361,21.242567326638675,7,15,0.0,207,39141355528104,266,11.9,-789.724853515625,7.964000225067139,0,0.0,0.0,,,,,0,,3,,
Raw,9454469,9687881000000,,,-1287378671552263168,0.0,160.6107980478555,-4.758051122108361,21.242567326638675,7,19,0.0,207,39141353634283,35,22.4,306.8424072265625,0.9609999656677246,0,0.0,0.0,,,,,0,,3,,
Raw,9454469,9687881000000,,,-1287378671552263168,0.0,160.6107980478555,-4.758051122108361,21.242567326638675,7,3,0.0,207,39141365629960,90,16.1,-236.5648193359375,2.889000177383423,0,0.0,0.0,,,,,0,,3,,
Raw,9454470,9687881000000,,,-1287378671552263168,0.0,160.6107980478555,-4.758051122108361,21.242567326638675,7,4,0.0,207,39141358056436,31,23.6,-547.408935546875,0.9084999561309814,0,0.0,0.0,,,,,0,,3,,
Raw,9454470,9687881000000,,,-1287378671552263168,0.0,160.6107980478555,-4.758051122108361,21.242567326638675,7,31,0.0,15,373959354814873,13,31.5,-544.5169677734375,0.06120000407099724,0,0.0,0.0,,,,,0,,1,,
Raw,9454471,9687881000000,,,-1287378671552263168,0.0,160.6107980478555,-4.758051122108361,21.242567326638675,7,32,0.0,15,373959356574271,11,33.0,-309.7397766113281,0.061900001019239426,0,0.0,0.0,,,,,0,,1,,
Raw,9454472,9687881000000,,,-1287378671552263168,0.0,160.6107980478555,-4.758051122108361,21.242567326638675,7,21,0.0,15,373945345689212,61,18.6,-519.9852905273438,0.9389999508857727,0,0.0,0.0,,,,,0,,5,,
Raw,9454472,9687881000000,,,-1287378671552263168,0.0,160.6107980478555,-4.758051122108361,21.242567326638675,7,26,0.0,7183,373959347676352,11,33.3,350.4811096191406,0.06040000170469284,0,0.0,0.0,,,,,0,,6,,
Raw,9454473,9687881000000,,,-1287378671552263168,0.0,160.6107980478555,-4.758051122108361,21.242567326638675,7,33,0.0,7183,373959340910119,31,23.5,50.437339782714844,0.6155000329017639,0,0.0,0.0,,,,,0,,6,,
Fix,gps,22.925456,120.294949,28.495728,1.150000,17.152000,1603353142000
NMEA,$GPGSV,3,1,11,31,18,234,32,32,26,306,33,10,58,327,,12,42,092,*70,1603353141421
NMEA,$GPGSV,3,2,11,15,16,082,,18,24,195,,20,80,160,,21,02,313,*7E,1603353141421
NMEA,$GPGSV,3,3,11,23,83,090,,24,28,036,,25,45,147,*47,1603353141421
NMEA,$GLGSV,2,1,05,82,04,234,21,79,11,203,12,83,07,278,22,67,49,026,16*69,1603353141422
NMEA,$GLGSV,2,2,05,68,20,331,24*5B,1603353141424
NMEA,$GAGSV,2,1,07,26,23,243,33,33,12,292,24,07,54,018,,13,10,191,*65,1603353141424
NMEA,$GAGSV,2,2,07,21,07,201,,27,52,170,,30,51,066,*5B,1603353141425
NMEA,$PQGSV,1,1,0,*73,1603353141425
NMEA,$PQGSV,4,1,16,21,09,316,19,01,51,130,,02,41,241,,03,60,202,,0,4*6D,1603353141425
NMEA,$PQGSV,4,2,16,04,37,115,,05,17,258,,06,53,354,,07,37,167,,0,4*62,1603353141425
NMEA,$PQGSV,4,3,16,08,34,196,,09,44,313,,10,20,188,,13,45,226,,0,4*65,1603353141425
NMEA,$PQGSV,4,4,16,16,51,345,,19,52,095,,20,07,120,,22,55,345,,0,4*6A,1603353141426
NMEA,$GNGSA,A,2,31,32,,,,,,,,,,,1.6,1.3,1.0,1*37,1603353141426
NMEA,$GNGSA,A,3,67,68,79,82,83,,,,,,,,1.6,1.3,1.0,2*36,1603353141427
NMEA,$GNGSA,A,2,01,26,,,,,,,,,,,1.6,1.3,1.0,3*33,1603353141427
NMEA,$GNVTG,280.3,T,280.3,M,2.2,N,4.1,K,A*38,1603353141427
NMEA,$GNRMC,075222.00,A,2255.527389,N,12017.696941,E,2.2,280.3,221020,2.8,W,A*3B,1603353141427
NMEA,$GNGGA,075222.00,2255.527389,N,12017.696941,E,1,09,1.3,11.0,M,17.5,M,,*48,1603353141428
Raw,9455375,9688881000000,,,-1287378671552263168,0.0,155.13590187765658,-6.30346308415067,22.172607681981702,7,18,0.0,207,39142352806059,35,22.5,505.50128173828125,0.9594999551773071,0,0.0,0.0,,,,,0,,3,,
Raw,9455375,9688881000000,,,-1287378671552263168,0.0,155.13590187765658,-6.30346308415067,22.172607681981702,7,15,0.0,207,39142355530563,74,17.0,-792.8126220703125,2.064000129699707,0,0.0,0.0,,,,,0,,3,,
Raw,9455376,9688881000000,,,-1287378671552263168,0.0,155.13590187765658,-6.30346308415067,22.172607681981702,7,19,0.0,207,39142353633267,40,21.4,306.0105285644531,1.0210000276565552,0,0.0,0.0,,,,,0,,3,,
Raw,9455376,9688881000000,,,-1287378671552263168,0.0,155.13590187765658,-6.30346308415067,22.172607681981702,7,3,0.0,207,39142365630749,110,16.1,-236.5648193359375,4.388999938964844,0,0.0,0.0,,,,,0,,3,,
Raw,9455377,9688881000000,,,-1287378671552263168,0.0,155.13590187765658,-6.30346308415067,22.172607681981702,7,4,0.0,207,39142358058214,35,22.7,-548.2586669921875,0.9684999585151672,0,0.0,0.0,,,,,0,,3,,
Raw,9455377,9688881000000,,,-1287378671552263168,0.0,155.13590187765658,-6.30346308415067,22.172607681981702,7,31,0.0,15,373960354816700,17,28.3,-545.5810546875,0.06930000334978104,0,0.0,0.0,,,,,0,,1,,
Raw,9455378,9688881000000,,,-1287378671552263168,0.0,155.13590187765658,-6.30346308415067,22.172607681981702,7,32,0.0,15,373960356575322,12,32.5,-310.86419677734375,0.06289999932050705,0,0.0,0.0,,,,,0,,1,,
Raw,9455378,9688881000000,,,-1287378671552263168,0.0,155.13590187765658,-6.30346308415067,22.172607681981702,7,21,0.0,15,373946345690947,69,18.6,-519.9852905273438,2.439000129699707,0,0.0,0.0,,,,,0,,5,,
Raw,9455378,9688881000000,,,-1287378671552263168,0.0,155.13590187765658,-6.30346308415067,22.172607681981702,7,26,0.0,7183,373960347675185,12,32.8,347.95196533203125,0.3240000009536743,0,0.0,0.0,,,,,0,,6,,
Raw,9455379,9688881000000,,,-1287378671552263168,0.0,155.13590187765658,-6.30346308415067,22.172607681981702,7,33,0.0,7183,373960340909928,24,25.5,49.28606033325195,0.5354999899864197,0,0.0,0.0,,,,,0,,6,,
Fix,gps,22.925458,120.294928,29.257629,1.400000,18.224001,1603353143000
NMEA,$GPGSV,3,1,11,31,18,234,28,32,26,306,33,10,58,327,,12,42,092,*7B,1603353142429
NMEA,$GPGSV,3,2,11,15,16,082,,18,24,195,,20,80,160,,21,02,313,*7E,1603353142430
NMEA,$GPGSV,3,3,11,23,83,090,,24,28,036,,25,45,147,*47,1603353142431
NMEA,$GLGSV,2,1,05,82,04,234,23,79,11,203,17,83,07,278,21,67,49,026,16*6D,1603353142431
NMEA,$GLGSV,2,2,05,68,20,331,23*5C,1603353142434
NMEA,$GAGSV,2,1,07,26,23,243,33,33,12,292,26,07,54,018,,13,10,191,*67,1603353142435
NMEA,$GAGSV,2,2,07,21,07,201,,27,52,170,,30,51,066,*5B,1603353142437
NMEA,$PQGSV,1,1,0,*73,1603353142442
NMEA,$PQGSV,4,1,16,21,09,316,19,01,51,130,,02,41,241,,03,60,202,,0,4*6D,1603353142447
NMEA,$PQGSV,4,2,16,04,37,115,,05,17,258,,06,53,354,,07,37,167,,0,4*62,1603353142447
NMEA,$PQGSV,4,3,16,08,34,196,,09,44,313,,10,20,188,,13,45,226,,0,4*65,1603353142448
NMEA,$PQGSV,4,4,16,16,51,345,,19,52,095,,20,07,120,,22,55,345,,0,4*6A,1603353142449
NMEA,$GNGSA,A,2,31,32,,,,,,,,,,,1.6,1.3,1.0,1*37,1603353142451
NMEA,$GNGSA,A,3,67,68,79,82,83,,,,,,,,1.6,1.3,1.0,2*36,1603353142452
NMEA,$GNGSA,A,2,01,26,,,,,,,,,,,1.6,1.3,1.0,3*33,1603353142452
NMEA,$GNVTG,283.2,T,283.2,M,2.7,N,5.0,K,A*3D,1603353142453
NMEA,$GNRMC,075223.00,A,2255.527505,N,12017.695709,E,2.7,283.2,221020,2.8,W,A*3E,1603353142455
NMEA,$GNGGA,075223.00,2255.527505,N,12017.695709,E,1,09,1.3,11.8,M,17.5,M,,*42,1603353142455
NMEA,$GPGSV,3,1,11,31,18,234,31,32,26,306,33,10,58,327,,12,42,092,*73,1603353143431
Raw,9456529,9689881000000,,,-1287378671552263168,0.0,157.31943130958825,-10.86511534081257,23.107044338399373,7,18,0.0,207,39143352804469,35,22.4,506.61590576171875,0.9594999551773071,0,0.0,0.0,,,,,0,,3,,
Raw,9456531,9689881000000,,,-1287378671552263168,0.0,157.31943130958825,-10.86511534081257,23.107044338399373,7,15,0.0,207,39143355533378,24,25.0,-792.1181640625,0.6193000078201294,0,0.0,0.0,,,,,0,,3,,
Raw,9456533,9689881000000,,,-1287378671552263168,0.0,157.31943130958825,-10.86511534081257,23.107044338399373,7,19,0.0,207,39143353632166,31,23.0,307.5340881347656,0.9009999632835388,0,0.0,0.0,,,,,0,,3,,
Raw,9456536,9689881000000,,,-1287378671552263168,0.0,157.31943130958825,-10.86511534081257,23.107044338399373,7,3,0.0,207,39143365631375,90,16.5,-238.58236694335938,2.889000177383423,0,0.0,0.0,,,,,0,,3,,
Raw,9456542,9689881000000,,,-1287378671552263168,0.0,157.31943130958825,-10.86511534081257,23.107044338399373,7,4,0.0,207,39143358059916,31,23.2,-546.9420776367188,0.9084999561309814,0,0.0,0.0,,,,,0,,3,,
Raw,9456547,9689881000000,,,-1287378671552263168,0.0,157.31943130958825,-10.86511534081257,23.107044338399373,7,31,0.0,15,373961354818515,13,31.2,-544.1962280273438,0.06120000407099724,0,0.0,0.0,,,,,0,,1,,
Raw,9456549,9689881000000,,,-1287378671552263168,0.0,157.31943130958825,-10.86511534081257,23.107044338399373,7,32,0.0,15,373961356576337,12,32.6,-309.5254211425781,0.06289999932050705,0,0.0,0.0,,,,,0,,1,,
Raw,9456551,9689881000000,,,-1287378671552263168,0.0,157.31943130958825,-10.86511534081257,23.107044338399373,7,21,0.0,15,373947345692756,84,16.6,-519.2651977539062,1.8489999771118164,0,0.0,0.0,,,,,0,,5,,
Raw,9456557,9689881000000,,,-1287378671552263168,0.0,157.31943130958825,-10.86511534081257,23.107044338399373,7,26,0.0,7183,373961347674023,12,32.6,349.1508483886719,0.3240000009536743,0,0.0,0.0,,,,,0,,6,,
Raw,9456560,9689881000000,,,-1287378671552263168,0.0,157.31943130958825,-10.86511534081257,23.107044338399373,7,33,0.0,7183,373961340909773,24,25.5,50.456363677978516,0.5354999899864197,0,0.0,0.0,,,,,0,,6,,
Fix,gps,22.925456,120.294917,27.213196,0.000000,17.152000,1603353144000
NMEA,$GPGSV,3,2,11,15,16,082,,18,24,195,,20,80,160,,21,02,313,*7E,1603353143433
NMEA,$GPGSV,3,3,11,23,83,090,,24,28,036,,25,45,147,*47,1603353143435
NMEA,$GLGSV,2,1,05,82,04,234,22,79,11,203,25,83,07,278,23,67,49,026,17*6E,1603353143436
NMEA,$GLGSV,2,2,05,68,20,331,23*5C,1603353143443
NMEA,$GAGSV,2,1,07,26,23,243,33,33,12,292,26,07,54,018,,13,10,191,*67,1603353143445
NMEA,$GAGSV,2,2,07,21,07,201,,27,52,170,,30,51,066,*5B,1603353143445
NMEA,$PQGSV,1,1,0,*73,1603353143446
NMEA,$PQGSV,4,1,16,21,09,316,17,01,51,130,,02,41,241,,03,60,202,,0,4*63,1603353143447
NMEA,$PQGSV,4,2,16,04,37,115,,05,17,258,,06,53,354,,07,37,167,,0,4*62,1603353143448
NMEA,$PQGSV,4,3,16,08,34,196,,09,44,313,,10,20,188,,13,45,226,,0,4*65,1603353143449
NMEA,$PQGSV,4,4,16,16,51,345,,19,52,095,,20,07,120,,22,55,345,,0,4*6A,1603353143451
NMEA,$GNGSA,A,2,31,32,,,,,,,,,,,1.6,1.3,1.0,1*37,1603353143454
NMEA,$GNGSA,A,3,67,68,79,82,83,,,,,,,,1.6,1.3,1.0,2*36,1603353143455
NMEA,$GNGSA,A,2,01,26,,,,,,,,,,,1.6,1.3,1.0,3*33,1603353143455
NMEA,$GNVTG,,T,,M,0.0,N,0.0,K,A*3D,1603353143456
NMEA,$GNRMC,075224.00,A,2255.527346,N,12017.695012,E,0.0,,221020,2.8,W,A*15,1603353143456
NMEA,$GNGGA,075224.00,2255.527346,N,12017.695012,E,1,09,1.3,9.7,M,17.5,M,,*7F,1603353143457
Raw,9457312,9690881000000,,,-1287378671552263168,0.0,154.7106949146837,-5.366051289831372,21.552185259775005,7,18,0.0,207,39144352802883,46,20.7,506.878173828125,1.0794999599456787,0,0.0,0.0,,,,,0,,3,,
Raw,9457312,9690881000000,,,-1287378671552263168,0.0,154.7106949146837,-5.366051289831372,21.552185259775005,7,15,0.0,207,39144355535973,46,20.9,-791.5587768554688,1.0839999914169312,0,0.0,0.0,,,,,0,,3,,
Raw,9457313,9690881000000,,,-1287378671552263168,0.0,154.7106949146837,-5.366051289831372,21.552185259775005,7,19,0.0,207,39144353631223,35,22.7,308.3379211425781,0.9609999656677246,0,0.0,0.0,,,,,0,,3,,
Raw,9457313,9690881000000,,,-1287378671552263168,0.0,154.7106949146837,-5.366051289831372,21.552185259775005,7,3,0.0,207,39144365632072,70,17.3,-237.7136993408203,1.2990000247955322,0,0.0,0.0,,,,,0,,3,,
Raw,9457314,9690881000000,,,-1287378671552263168,0.0,154.7106949146837,-5.366051289831372,21.552185259775005,7,4,0.0,207,39144358061774,35,22.7,-547.3435668945312,0.9684999585151672,0,0.0,0.0,,,,,0,,3,,
Raw,9457315,9690881000000,,,-1287378671552263168,0.0,154.7106949146837,-5.366051289831372,21.552185259775005,7,31,0.0,15,373962354820333,13,31.6,-544.0595703125,0.06120000407099724,0,0.0,0.0,,,,,0,,1,,
Raw,9457315,9690881000000,,,-1287378671552263168,0.0,154.7106949146837,-5.366051289831372,21.552185259775005,7,32,0.0,15,373962356577389,13,31.1,-309.4911804199219,0.0642000064253807,0,0.0,0.0,,,,,0,,1,,
Raw,9457316,9690881000000,,,-1287378671552263168,0.0,154.7106949146837,-5.366051289831372,21.552185259775005,7,21,0.0,15,373948345694489,97,16.6,-519.2651977539062,3.3489999771118164,0,0.0,0.0,,,,,0,,5,,
Raw,9457316,9690881000000,,,-1287378671552263168,0.0,154.7106949146837,-5.366051289831372,21.552185259775005,7,26,0.0,7183,373962347672857,13,31.6,349.4942932128906,0.06270000338554382,0,0.0,0.0,,,,,0,,6,,
Raw,9457317,9690881000000,,,-1287378671552263168,0.0,154.7106949146837,-5.366051289831372,21.552185259775005,7,33,0.0,7183,373962340909592,24,25.9,50.550472259521484,0.42080000042915344,0,0.0,0.0,,,,,0,,6,,
Fix,gps,22.925456,120.294895,26.379089,1.660000,19.296001,1603353145000
NMEA,$GPGSV,3,1,11,31,18,234,32,32,26,306,31,10,58,327,,12,42,092,*72,1603353144424
NMEA,$GPGSV,3,2,11,15,16,082,,18,24,195,,20,80,160,,21,02,313,*7E,1603353144424
NMEA,$GPGSV,3,3,11,23,83,090,,24,28,036,,25,45,147,*47,1603353144425
NMEA,$GLGSV,2,1,05,82,04,234,21,79,11,203,21,83,07,278,23,67,49,026,17*69,1603353144426
NMEA,$GLGSV,2,2,05,68,20,331,23*5C,1603353144427
NMEA,$GAGSV,2,1,07,26,23,243,32,33,12,292,26,07,54,018,,13,10,191,*66,1603353144427
NMEA,$GAGSV,2,2,07,21,07,201,,27,52,170,,30,51,066,*5B,1603353144427
NMEA,$PQGSV,1,1,0,*73,1603353144428
NMEA,$PQGSV,4,1,16,21,09,316,17,01,51,130,,02,41,241,,03,60,202,,0,4*63,1603353144429
NMEA,$PQGSV,4,2,16,04,37,115,,05,17,258,,06,53,354,,07,37,167,,0,4*62,1603353144429
NMEA,$PQGSV,4,3,16,08,34,196,,09,44,313,,10,20,188,,13,45,226,,0,4*65,1603353144430
NMEA,$PQGSV,4,4,16,16,51,345,,19,52,095,,20,07,120,,22,55,345,,0,4*6A,1603353144430
NMEA,$GNGSA,A,2,31,32,,,,,,,,,,,1.6,1.3,1.0,1*37,1603353144431
NMEA,$GNGSA,A,3,67,68,79,82,83,,,,,,,,1.6,1.3,1.0,2*36,1603353144432
NMEA,$GNGSA,A,2,01,26,,,,,,,,,,,1.6,1.3,1.0,3*33,1603353144432
NMEA,$GNVTG,282.3,T,282.3,M,3.2,N,6.0,K,A*3A,1603353144432
NMEA,$GNRMC,075225.00,A,2255.527385,N,12017.693728,E,3.2,282.3,221020,2.8,W,A*37,1603353144432
NMEA,$GNGGA,075225.00,2255.527385,N,12017.693728,E,1,09,1.3,8.9,M,17.5,M,,*76,1603353144432
Raw,9458462,9691881000000,,,-1287378671552263168,0.0,164.08372903242707,-5.274295205752626,22.356285268124637,7,18,0.0,207,39145352801071,40,21.2,507.3652648925781,1.0195000171661377,0,0.0,0.0,,,,,0,,3,,
Raw,9458463,9691881000000,,,-1287378671552263168,0.0,164.08372903242707,-5.274295205752626,22.356285268124637,7,15,0.0,207,39145355538696,46,20.4,-790.6698608398438,1.0839999914169312,0,0.0,0.0,,,,,0,,3,,
Raw,9458463,9691881000000,,,-1287378671552263168,0.0,164.08372903242707,-5.274295205752626,22.356285268124637,7,19,0.0,207,39145353630122,31,23.9,308.8052673339844,0.9009999632835388,0,0.0,0.0,,,,,0,,3,,
Raw,9458464,9691881000000,,,-1287378671552263168,0.0,164.08372903242707,-5.274295205752626,22.356285268124637,7,3,0.0,207,39145365633077,46,20.2,-236.88241577148438,1.069000005722046,0,0.0,0.0,,,,,0,,3,,
Raw,9458464,9691881000000,,,-1287378671552263168,0.0,164.08372903242707,-5.274295205752626,22.356285268124637,7,4,0.0,207,39145358063597,27,24.7,-546.493896484375,0.8585000038146973,0,0.0,0.0,,,,,0,,3,,
Raw,9458465,9691881000000,,,-1287378671552263168,0.0,164.08372903242707,-5.274295205752626,22.356285268124637,7,31,0.0,15,373963354822147,12,32.5,-543.1279907226562,0.05990000069141388,0,0.0,0.0,,,,,0,,1,,
Raw,9458466,9691881000000,,,-1287378671552263168,0.0,164.08372903242707,-5.274295205752626,22.356285268124637,7,32,0.0,15,373963356578421,14,30.5,-308.6257019042969,0.06480000168085098,0,0.0,0.0,,,,,0,,1,,
Raw,9458466,9691881000000,,,-1287378671552263168,0.0,164.08372903242707,-5.274295205752626,22.356285268124637,7,21,0.0,15,373949345696137,84,16.9,-518.1609497070312,1.7690000534057617,0,0.0,0.0,,,,,0,,5,,
Raw,9458467,9691881000000,,,-1287378671552263168,0.0,164.08372903242707,-5.274295205752626,22.356285268124637,7,26,0.0,7183,373963347671695,12,32.7,349.716064453125,0.06140000373125076,0,0.0,0.0,,,,,0,,6,,
Raw,9458467,9691881000000,,,-1287378671552263168,0.0,164.08372903242707,-5.274295205752626,22.356285268124637,7,33,0.0,7183,373963340909442,27,24.6,52.01677703857422,0.565500020980835,0,0.0,0.0,,,,,0,,6,,
Fix,gps,22.925458,120.294858,25.640503,2.070000,18.224001,1603353146000
NMEA,$GPGSV,3,1,11,31,18,234,33,32,26,306,31,10,58,327,,12,42,092,*73,1603353145424
NMEA,$GPGSV,3,2,11,15,16,082,,18,24,195,,20,80,160,,21,02,313,*7E,1603353145424
NMEA,$GPGSV,3,3,11,23,83,090,,24,28,036,,25,45,147,*47,1603353145424
NMEA,$GLGSV,2,1,05,82,04,234,21,79,11,203,20,83,07,278,24,67,49,026,20*6B,1603353145425
NMEA,$GLGSV,2,2,05,68,20,331,25*5A,1603353145425
NMEA,$GAGSV,2,1,07,26,23,243,33,33,12,292,25,07,54,018,,13,10,191,*64,1603353145426
NMEA,$GAGSV,2,2,07,21,07,201,,27,52,170,,30,51,066,*5B,1603353145426
NMEA,$PQGSV,1,1,0,*73,1603353145426
NMEA,$PQGSV,4,1,16,21,09,316,17,01,51,130,,02,41,241,,03,60,202,,0,4*63,1603353145426
NMEA,$PQGSV,4,2,16,04,37,115,,05,17,258,,06,53,354,,07,37,167,,0,4*62,1603353145427
NMEA,$PQGSV,4,3,16,08,34,196,,09,44,313,,10,20,188,,13,45,226,,0,4*65,1603353145427
NMEA,$PQGSV,4,4,16,16,51,345,,19,52,095,,20,07,120,,22,55,345,,0,4*6A,1603353145427
NMEA,$GNGSA,A,2,31,32,,,,,,,,,,,1.6,1.3,1.0,1*37,1603353145428
NMEA,$GNGSA,A,3,67,68,79,82,83,,,,,,,,1.6,1.3,1.0,2*36,1603353145429
NMEA,$GNGSA,A,2,01,26,,,,,,,,,,,1.6,1.3,1.0,3*33,1603353145429
NMEA,$GNVTG,275.5,T,275.5,M,4.0,N,7.5,K,A*3B,1603353145429
NMEA,$GNRMC,075226.00,A,2255.527484,N,12017.691496,E,4.0,275.5,221020,2.8,W,A*3D,1603353145429
NMEA,$GNGGA,075226.00,2255.527484,N,12017.691496,E,1,09,1.3,8.2,M,17.5,M,,*7C,1603353145429
Raw,9459310,9692881000000,,,-1287378671552263168,0.0,144.90628382191062,-1.8540954426166474,19.601092845944688,7,18,0.0,207,39146352799305,40,21.9,509.0044250488281,1.0195000171661377,0,0.0,0.0,,,,,0,,3,,
Raw,9459311,9692881000000,,,-1287378671552263168,0.0,144.90628382191062,-1.8540954426166474,19.601092845944688,7,15,0.0,207,39146355541588,53,19.3,-791.2593383789062,1.1540000438690186,0,0.0,0.0,,,,,0,,3,,
Raw,9459311,9692881000000,,,-1287378671552263168,0.0,144.90628382191062,-1.8540954426166474,19.601092845944688,7,19,0.0,207,39146353629121,31,23.9,309.74932861328125,0.9009999632835388,0,0.0,0.0,,,,,0,,3,,
Raw,9459312,9692881000000,,,-1287378671552263168,0.0,144.90628382191062,-1.8540954426166474,19.601092845944688,7,3,0.0,207,39146365634052,53,19.5,-236.91976928710938,1.1390000581741333,0,0.0,0.0,,,,,0,,3,,
Raw,9459312,9692881000000,,,-1287378671552263168,0.0,144.90628382191062,-1.8540954426166474,19.601092845944688,7,4,0.0,207,39146358065449,27,24.0,-545.2520751953125,0.8585000038146973,0,0.0,0.0,,,,,0,,3,,
Raw,9459313,9692881000000,,,-1287378671552263168,0.0,144.90628382191062,-1.8540954426166474,19.601092845944688,7,31,0.0,15,373964354823965,12,32.7,-542.362060546875,0.05990000069141388,0,0.0,0.0,,,,,0,,1,,
Raw,9459314,9692881000000,,,-1287378671552263168,0.0,144.90628382191062,-1.8540954426166474,19.601092845944688,7,32,0.0,15,373964356579466,14,30.5,-307.9165344238281,0.06480000168085098,0,0.0,0.0,,,,,0,,1,,
Raw,9459314,9692881000000,,,-1287378671552263168,0.0,144.90628382191062,-1.8540954426166474,19.601092845944688,7,21,0.0,15,373950345697865,97,16.9,-518.1609497070312,3.2690000534057617,0,0.0,0.0,,,,,0,,5,,
Raw,9459315,9692881000000,,,-1287378671552263168,0.0,144.90628382191062,-1.8540954426166474,19.601092845944688,7,26,0.0,7183,373964347670524,11,33.0,349.93634033203125,0.06040000170469284,0,0.0,0.0,,,,,0,,6,,
Raw,9459316,9692881000000,,,-1287378671552263168,0.0,144.90628382191062,-1.8540954426166474,19.601092845944688,7,33,0.0,7183,373964340909251,24,25.4,51.96796417236328,0.42080000042915344,0,0.0,0.0,,,,,0,,6,,
Fix,gps,22.925455,120.294867,25.281128,0.600000,17.152000,1603353147000
NMEA,$GPGSV,3,1,11,31,18,234,33,32,26,306,31,10,58,327,,12,42,092,*73,1603353146422
NMEA,$GPGSV,3,2,11,15,16,082,,18,24,195,,20,80,160,,21,02,313,*7E,1603353146423
NMEA,$GPGSV,3,3,11,23,83,090,,24,28,036,,25,45,147,*47,1603353146423
NMEA,$GLGSV,2,1,05,82,04,234,22,79,11,203,19,83,07,278,24,67,49,026,20*62,1603353146424
NMEA,$GLGSV,2,2,05,68,20,331,24*5B,1603353146424
NMEA,$GAGSV,2,1,07,26,23,243,33,33,12,292,25,07,54,018,,13,10,191,*64,1603353146425
NMEA,$GAGSV,2,2,07,21,07,201,,27,52,170,,30,51,066,*5B,1603353146425
NMEA,$PQGSV,1,1,0,*73,1603353146425
NMEA,$PQGSV,4,1,16,21,09,316,17,01,51,130,,02,41,241,,03,60,202,,0,4*63,1603353146426
NMEA,$PQGSV,4,2,16,04,37,115,,05,17,258,,06,53,354,,07,37,167,,0,4*62,1603353146426
NMEA,$PQGSV,4,3,16,08,34,196,,09,44,313,,10,20,188,,13,45,226,,0,4*65,1603353146426
NMEA,$PQGSV,4,4,16,16,51,345,,19,52,095,,20,07,120,,22,55,345,,0,4*6A,1603353146427
NMEA,$GNGSA,A,2,31,32,,,,,,,,,,,1.6,1.3,1.0,1*37,1603353146427
NMEA,$GNGSA,A,3,67,68,79,82,83,,,,,,,,1.6,1.3,1.0,2*36,1603353146428
NMEA,$GNGSA,A,2,01,26,,,,,,,,,,,1.6,1.3,1.0,3*33,1603353146428
NMEA,$GNVTG,270.8,T,270.8,M,1.2,N,2.2,K,A*3E,1603353146428
NMEA,$GNRMC,075227.00,A,2255.527277,N,12017.691992,E,1.2,270.8,221020,2.8,W,A*30,1603353146428
NMEA,$GNGGA,075227.00,2255.527277,N,12017.691992,E,1,09,1.3,7.8,M,17.5,M,,*7B,1603353146429
Raw,9460490,9693881000000,,,-1287378671552263168,0.0,147.84798258915544,-3.8425158563637933,20.641746935706873,7,18,0.0,207,39147352797529,46,20.4,509.3884582519531,1.0794999599456787,0,0.0,0.0,,,,,0,,3,,
Raw,9460493,9693881000000,,,-1287378671552263168,0.0,147.84798258915544,-3.8425158563637933,20.641746935706873,7,15,0.0,207,39147355544227,62,19.3,-791.2593383789062,2.6540000438690186,0,0.0,0.0,,,,,0,,3,,
Raw,9460496,9693881000000,,,-1287378671552263168,0.0,147.84798258915544,-3.8425158563637933,20.641746935706873,7,19,0.0,207,39147353628060,31,23.8,310.5905456542969,0.9009999632835388,0,0.0,0.0,,,,,0,,3,,
Raw,9460498,9693881000000,,,-1287378671552263168,0.0,147.84798258915544,-3.8425158563637933,20.641746935706873,7,3,0.0,207,39147365634596,35,22.0,-236.09779357910156,0.9489999413490295,0,0.0,0.0,,,,,0,,3,,
Raw,9460501,9693881000000,,,-1287378671552263168,0.0,147.84798258915544,-3.8425158563637933,20.641746935706873,7,4,0.0,207,39147358067260,27,24.9,-544.8225708007812,0.8585000038146973,0,0.0,0.0,,,,,0,,3,,
Raw,9460504,9693881000000,,,-1287378671552263168,0.0,147.84798258915544,-3.8425158563637933,20.641746935706873,7,31,0.0,15,373965354825778,13,31.1,-541.4879150390625,0.06120000407099724,0,0.0,0.0,,,,,0,,1,,
Raw,9460507,9693881000000,,,-1287378671552263168,0.0,147.84798258915544,-3.8425158563637933,20.641746935706873,7,32,0.0,15,373965356580488,14,30.3,-307.1231689453125,0.06480000168085098,0,0.0,0.0,,,,,0,,1,,
Raw,9460509,9693881000000,,,-1287378671552263168,0.0,147.84798258915544,-3.8425158563637933,20.641746935706873,7,21,0.0,15,373951345699593,121,16.9,-518.1609497070312,4.769000053405762,0,0.0,0.0,,,,,0,,5,,
Raw,9460511,9693881000000,,,-1287378671552263168,0.0,147.84798258915544,-3.8425158563637933,20.641746935706873,7,26,0.0,7183,373965347669341,12,32.2,350.7843933105469,0.06140000373125076,0,0.0,0.0,,,,,0,,6,,
Raw,9460516,9693881000000,,,-1287378671552263168,0.0,147.84798258915544,-3.8425158563637933,20.641746935706873,7,33,0.0,7183,373965340909091,24,25.3,53.03665542602539,0.42080000042915344,0,0.0,0.0,,,,,0,,6,,
Fix,gps,22.925451,120.294871,26.612061,0.920000,20.368000,1603353148000
NMEA,$GPGSV,3,1,11,31,18,234,31,32,26,306,30,10,58,327,,12,42,092,*70,1603353147428
NMEA,$GPGSV,3,2,11,15,16,082,,18,24,195,,20,80,160,,21,02,313,*7E,1603353147429
NMEA,$GPGSV,3,3,11,23,83,090,,24,28,036,,25,45,147,*47,1603353147430
NMEA,$GLGSV,2,1,05,82,04,234,20,79,11,203,19,83,07,278,24,67,49,026,22*62,1603353147430
NMEA,$GLGSV,2,2,05,68,20,331,25*5A,1603353147431
NMEA,$GAGSV,2,1,07,26,23,243,32,33,12,292,25,07,54,018,,13,10,191,*65,1603353147432
NMEA,$GAGSV,2,2,07,21,07,201,,27,52,170,,30,51,066,*5B,1603353147436
NMEA,$PQGSV,1,1,0,*73,1603353147440
NMEA,$PQGSV,4,1,16,21,09,316,17,01,51,130,,02,41,241,,03,60,202,,0,4*63,1603353147441
NMEA,$PQGSV,4,2,16,04,37,115,,05,17,258,,06,53,354,,07,37,167,,0,4*62,1603353147441
NMEA,$PQGSV,4,3,16,08,34,196,,09,44,313,,10,20,188,,13,45,226,,0,4*65,1603353147444
NMEA,$PQGSV,4,4,16,16,51,345,,19,52,095,,20,07,120,,22,55,345,,0,4*6A,1603353147445
NMEA,$GNGSA,A,2,31,32,,,,,,,,,,,1.6,1.3,1.0,1*37,1603353147451
NMEA,$GNGSA,A,3,67,68,79,82,83,,,,,,,,1.6,1.3,1.0,2*36,1603353147454
NMEA,$GNGSA,A,2,01,26,,,,,,,,,,,1.6,1.3,1.0,3*33,1603353147454
NMEA,$GNVTG,262.8,T,262.8,M,1.8,N,3.3,K,A*34,1603353147454
NMEA,$GNRMC,075228.00,A,2255.527037,N,12017.692262,E,1.8,262.8,221020,2.8,W,A*37,1603353147458
NMEA,$GNGGA,075228.00,2255.527037,N,12017.692262,E,1,09,1.3,9.1,M,17.5,M,,*72,1603353147458
Raw,9461333,9694881000000,,,-1287378671552263168,0.0,169.3056692602113,-0.012936987021969172,19.967845196918223,7,18,0.0,207,39148352795945,31,23.0,509.0325012207031,0.8994999527931213,0,0.0,0.0,,,,,0,,3,,
Raw,9461333,9694881000000,,,-1287378671552263168,0.0,169.3056692602113,-0.012936987021969172,19.967845196918223,7,15,0.0,207,39148355546867,81,19.3,-791.2593383789062,4.154000282287598,0,0.0,0.0,,,,,0,,3,,
Raw,9461334,9694881000000,,,-1287378671552263168,0.0,169.3056692602113,-0.012936987021969172,19.967845196918223,7,19,0.0,207,39148353627028,27,24.0,310.5905456542969,0.8510000109672546,0,0.0,0.0,,,,,0,,3,,
Raw,9461335,9694881000000,,,-1287378671552263168,0.0,169.3056692602113,-0.012936987021969172,19.967845196918223,7,3,0.0,207,39148365635431,53,19.7,-235.28518676757812,1.1390000581741333,0,0.0,0.0,,,,,0,,3,,
Raw,9461335,9694881000000,,,-1287378671552263168,0.0,169.3056692602113,-0.012936987021969172,19.967845196918223,7,4,0.0,207,39148358069104,24,25.1,-544.9547729492188,0.6237999796867371,0,0.0,0.0,,,,,0,,3,,
Raw,9461336,9694881000000,,,-1287378671552263168,0.0,169.3056692602113,-0.012936987021969172,19.967845196918223,7,31,0.0,15,373966354827560,14,30.3,-541.4055786132812,0.06180000305175781,0,0.0,0.0,,,,,0,,1,,
Raw,9461336,9694881000000,,,-1287378671552263168,0.0,169.3056692602113,-0.012936987021969172,19.967845196918223,7,32,0.0,15,373966356581508,14,30.8,-307.09588623046875,0.06480000168085098,0,0.0,0.0,,,,,0,,1,,
Raw,9461337,9694881000000,,,-1287378671552263168,0.0,169.3056692602113,-0.012936987021969172,19.967845196918223,7,21,0.0,15,373952345701322,154,16.9,-518.1609497070312,6.269000053405762,0,0.0,0.0,,,,,0,,5,,
Raw,9461337,9694881000000,,,-1287378671552263168,0.0,169.3056692602113,-0.012936987021969172,19.967845196918223,7,26,0.0,7183,373966347668164,12,32.3,351.4982604980469,0.06140000373125076,0,0.0,0.0,,,,,0,,6,,
Raw,9461338,9694881000000,,,-1287378671552263168,0.0,169.3056692602113,-0.012936987021969172,19.967845196918223,7,33,0.0,7183,373966340908909,21,26.7,52.876827239990234,0.1502000093460083,0,0.0,0.0,,,,,0,,6,,
Fix,gps,22.925448,120.294862,26.177856,1.470000,20.368000,1603353149000
NMEA,$GPGSV,3,1,11,31,18,234,30,32,26,306,31,10,58,327,,12,42,092,*70,1603353148428
NMEA,$GPGSV,3,2,11,15,16,082,,18,24,195,,20,80,160,,21,02,313,*7E,1603353148429
NMEA,$GPGSV,3,3,11,23,83,090,,24,28,036,,25,45,147,*47,1603353148429
NMEA,$GLGSV,2,1,05,82,04,234,23,79,11,203,19,83,07,278,24,67,49,026,20*63,1603353148430
NMEA,$GLGSV,2,2,05,68,20,331,25*5A,1603353148435
NMEA,$GAGSV,2,1,07,26,23,243,32,33,12,292,27,07,54,018,,13,10,191,*67,1603353148436
NMEA,$GAGSV,2,2,07,21,07,201,,27,52,170,,30,51,066,*5B,1603353148437
NMEA,$PQGSV,1,1,0,*73,1603353148438
NMEA,$PQGSV,4,1,16,21,09,316,17,01,51,130,,02,41,241,,03,60,202,,0,4*63,1603353148439
NMEA,$PQGSV,4,2,16,04,37,115,,05,17,258,,06,53,354,,07,37,167,,0,4*62,1603353148439
NMEA,$PQGSV,4,3,16,08,34,196,,09,44,313,,10,20,188,,13,45,226,,0,4*65,1603353148440
NMEA,$PQGSV,4,4,16,16,51,345,,19,52,095,,20,07,120,,22,55,345,,0,4*6A,1603353148441
NMEA,$GNGSA,A,2,31,32,,,,,,,,,,,1.6,1.3,1.0,1*37,1603353148443
NMEA,$GNGSA,A,3,67,68,79,82,83,,,,,,,,1.6,1.3,1.0,2*36,1603353148445
NMEA,$GNGSA,A,2,01,26,,,,,,,,,,,1.6,1.3,1.0,3*33,1603353148445
NMEA,$GNVTG,260.7,T,260.7,M,2.9,N,5.3,K,A*30,1603353148446
NMEA,$GNRMC,075229.00,A,2255.526851,N,12017.691735,E,2.9,260.7,221020,2.8,W,A*34,1603353148447
NMEA,$GNGGA,075229.00,2255.526851,N,12017.691735,E,1,09,1.3,8.7,M,17.5,M,,*79,1603353148448
Fix,gps,22.925446,120.294844,26.896545,1.750000,21.440001,1603353150000
Raw,9462505,9695881000000,,,-1287378671552263168,0.0,173.931970493868,2.014699605626723,19.54625042154039,7,18,0.0,207,39149352794271,40,21.1,509.8848876953125,1.0195000171661377,0,0.0,0.0,,,,,0,,3,,
Raw,9462508,9695881000000,,,-1287378671552263168,0.0,173.931970493868,2.014699605626723,19.54625042154039,7,15,0.0,207,39149355549506,110,19.3,-791.2593383789062,5.654000282287598,0,0.0,0.0,,,,,0,,3,,
Raw,9462510,9695881000000,,,-1287378671552263168,0.0,173.931970493868,2.014699605626723,19.54625042154039,7,19,0.0,207,39149353626040,31,23.3,311.4130859375,0.9009999632835388,0,0.0,0.0,,,,,0,,3,,
Raw,9462512,9695881000000,,,-1287378671552263168,0.0,173.931970493868,2.014699605626723,19.54625042154039,7,3,0.0,207,39149365636200,46,20.3,-234.6780548095703,1.069000005722046,0,0.0,0.0,,,,,0,,3,,
Raw,9462515,9695881000000,,,-1287378671552263168,0.0,173.931970493868,2.014699605626723,19.54625042154039,7,4,0.0,207,39149358070910,27,24.1,-543.8328247070312,0.8585000038146973,0,0.0,0.0,,,,,0,,3,,
Raw,9462517,9695881000000,,,-1287378671552263168,0.0,173.931970493868,2.014699605626723,19.54625042154039,7,31,0.0,15,373967354829384,17,28.1,-540.6533813476562,0.06930000334978104,0,0.0,0.0,,,,,0,,1,,
Raw,9462519,9695881000000,,,-1287378671552263168,0.0,173.931970493868,2.014699605626723,19.54625042154039,7,32,0.0,15,373967356582559,14,30.6,-306.4238586425781,0.06480000168085098,0,0.0,0.0,,,,,0,,1,,
Raw,9462522,9695881000000,,,-1287378671552263168,0.0,173.931970493868,2.014699605626723,19.54625042154039,7,21,0.0,15,373953345703050,198,16.9,-518.1609497070312,7.76900053024292,0,0.0,0.0,,,,,0,,5,,
Raw,9462524,9695881000000,,,-1287378671552263168,0.0,173.931970493868,2.014699605626723,19.54625042154039,7,26,0.0,7183,373967347666994,12,32.7,351.8317565917969,0.06140000373125076,0,0.0,0.0,,,,,0,,6,,
Raw,9462527,9695881000000,,,-1287378671552263168,0.0,173.931970493868,2.014699605626723,19.54625042154039,7,33,0.0,7183,373967340908729,24,25.9,54.527557373046875,0.42080000042915344,0,0.0,0.0,,,,,0,,6,,
NMEA,$GPGSV,3,1,11,31,18,234,28,32,26,306,31,10,58,327,,12,42,092,*79,1603353149430
NMEA,$GPGSV,3,2,11,15,16,082,,18,24,195,,20,80,160,,21,02,313,*7E,1603353149431
NMEA,$GPGSV,3,3,11,23,83,090,,24,28,036,,25,45,147,*47,1603353149435
NMEA,$GLGSV,2,1,05,82,04,234,21,79,11,203,19,83,07,278,23,67,49,026,20*66,1603353149435
NMEA,$GLGSV,2,2,05,68,20,331,24*5B,1603353149436
NMEA,$GAGSV,2,1,07,26,23,243,33,33,12,292,26,07,54,018,,13,10,191,*67,1603353149437
NMEA,$GAGSV,2,2,07,21,07,201,,27,52,170,,30,51,066,*5B,1603353149437
NMEA,$PQGSV,1,1,0,*73,1603353149439
NMEA,$PQGSV,4,1,16,21,09,316,17,01,51,130,,02,41,241,,03,60,202,,0,4*63,1603353149441
NMEA,$PQGSV,4,2,16,04,37,115,,05,17,258,,06,53,354,,07,37,167,,0,4*62,1603353149443
NMEA,$PQGSV,4,3,16,08,34,196,,09,44,313,,10,20,188,,13,45,226,,0,4*65,1603353149444
NMEA,$PQGSV,4,4,16,16,51,345,,19,52,095,,20,07,120,,22,55,345,,0,4*6A,1603353149445
NMEA,$GNGSA,A,2,31,32,,,,,,,,,,,1.6,1.3,1.0,1*37,1603353149449
NMEA,$GNGSA,A,3,67,68,79,82,83,,,,,,,,1.6,1.3,1.0,2*36,1603353149449
NMEA,$GNGSA,A,2,01,26,,,,,,,,,,,1.6,1.3,1.0,3*33,1603353149450
NMEA,$GNVTG,265.9,T,265.9,M,3.4,N,6.3,K,A*3F,1603353149451
NMEA,$GNRMC,075230.00,A,2255.526741,N,12017.690667,E,3.4,265.9,221020,2.8,W,A*32,1603353149451
NMEA,$GNGGA,075230.00,2255.526741,N,12017.690667,E,1,09,1.3,9.4,M,17.5,M,,*7A,1603353149452
Raw,9463371,9696881000000,,,-1287378671552263168,0.0,178.86549176182598,5.079713552309702,17.228948036861883,7,18,0.0,207,39150352792455,40,21.6,509.3228759765625,1.0195000171661377,0,0.0,0.0,,,,,0,,3,,
Raw,9463372,9696881000000,,,-1287378671552263168,0.0,178.86549176182598,5.079713552309702,17.228948036861883,7,15,0.0,207,39150355552145,149,19.3,-791.2593383789062,7.154000282287598,0,0.0,0.0,,,,,0,,3,,
Raw,9463372,9696881000000,,,-1287378671552263168,0.0,178.86549176182598,5.079713552309702,17.228948036861883,7,19,0.0,207,39150353625031,27,24.0,310.9737854003906,0.8510000109672546,0,0.0,0.0,,,,,0,,3,,
Raw,9463373,9696881000000,,,-1287378671552263168,0.0,178.86549176182598,5.079713552309702,17.228948036861883,7,3,0.0,207,39150365637031,53,19.7,-234.8648681640625,1.1390000581741333,0,0.0,0.0,,,,,0,,3,,
Raw,9463373,9696881000000,,,-1287378671552263168,0.0,178.86549176182598,5.079713552309702,17.228948036861883,7,4,0.0,207,39150358072720,31,23.6,-544.7291870117188,0.9084999561309814,0,0.0,0.0,,,,,0,,3,,
Raw,9463373,9696881000000,,,-1287378671552263168,0.0,178.86549176182598,5.079713552309702,17.228948036861883,7,31,0.0,15,373968354831207,16,29.2,-541.0478515625,0.06270000338554382,0,0.0,0.0,,,,,0,,1,,
Raw,9463374,9696881000000,,,-1287378671552263168,0.0,178.86549176182598,5.079713552309702,17.228948036861883,7,32,0.0,15,373968356583564,16,29.3,-306.87188720703125,0.065700002014637,0,0.0,0.0,,,,,0,,1,,
Raw,9463374,9696881000000,,,-1287378671552263168,0.0,178.86549176182598,5.079713552309702,17.228948036861883,7,21,0.0,15,373954345704779,251,16.9,-518.1609497070312,9.269000053405762,0,0.0,0.0,,,,,0,,5,,
Raw,9463374,9696881000000,,,-1287378671552263168,0.0,178.86549176182598,5.079713552309702,17.228948036861883,7,26,0.0,7183,373968347665819,12,32.9,353.435546875,0.06140000373125076,0,0.0,0.0,,,,,0,,6,,
Raw,9463375,9696881000000,,,-1287378671552263168,0.0,178.86549176182598,5.079713552309702,17.228948036861883,7,33,0.0,7183,373968340908538,24,25.6,54.6947135925293,0.42080000042915344,0,0.0,0.0,,,,,0,,6,,
Fix,gps,22.925446,120.294820,28.272766,1.750000,21.440001,1603353151000
NMEA,$GPGSV,3,1,11,31,18,234,29,32,26,306,29,10,58,327,,12,42,092,*71,1603353150432
NMEA,$GPGSV,3,2,11,15,16,082,,18,24,195,,20,80,160,,21,02,313,*7E,1603353150433
NMEA,$GPGSV,3,3,11,23,83,090,,24,28,036,,25,45,147,*47,1603353150437
NMEA,$GLGSV,2,1,05,82,04,234,22,79,11,203,19,83,07,278,24,67,49,026,20*62,1603353150437
NMEA,$GLGSV,2,2,05,68,20,331,24*5B,1603353150438
NMEA,$GAGSV,2,1,07,26,23,243,33,33,12,292,26,07,54,018,,13,10,191,*67,1603353150439
NMEA,$GAGSV,2,2,07,21,07,201,,27,52,170,,30,51,066,*5B,1603353150440
NMEA,$PQGSV,1,1,0,*73,1603353150441
NMEA,$PQGSV,4,1,16,21,09,316,17,01,51,130,,02,41,241,,03,60,202,,0,4*63,1603353150442
NMEA,$PQGSV,4,2,16,04,37,115,,05,17,258,,06,53,354,,07,37,167,,0,4*62,1603353150442
NMEA,$PQGSV,4,3,16,08,34,196,,09,44,313,,10,20,188,,13,45,226,,0,4*65,1603353150443
NMEA,$PQGSV,4,4,16,16,51,345,,19,52,095,,20,07,120,,22,55,345,,0,4*6A,1603353150444
NMEA,$GNGSA,A,2,31,32,,,,,,,,,,,1.6,1.3,1.0,1*37,1603353150447
NMEA,$GNGSA,A,3,67,68,79,82,83,,,,,,,,1.6,1.3,1.0,2*36,1603353150448
NMEA,$GNGSA,A,2,01,26,,,,,,,,,,,1.6,1.3,1.0,3*33,1603353150449
NMEA,$GNVTG,273.8,T,273.8,M,3.4,N,6.3,K,A*3F,1603353150449
NMEA,$GNRMC,075231.00,A,2255.526780,N,12017.689198,E,3.4,273.8,221020,2.8,W,A*37,1603353150450
NMEA,$GNGGA,075231.00,2255.526780,N,12017.689198,E,1,09,1.3,10.8,M,17.5,M,,*4D,1603353150451
Fix,gps,22.925449,120.294803,29.630432,1.050000,20.368000,1603353152000
Raw,9464523,9697881000000,,,-1287378671552263168,0.0,173.2785312924534,4.378068513414554,19.695832815991604,7,18,0.0,207,39151352790818,40,21.1,508.9294738769531,1.0195000171661377,0,0.0,0.0,,,,,0,,3,,
Raw,9464526,9697881000000,,,-1287378671552263168,0.0,173.2785312924534,4.378068513414554,19.695832815991604,7,15,0.0,207,39151355554785,198,19.3,-791.2593383789062,8.654000282287598,0,0.0,0.0,,,,,0,,3,,
Raw,9464528,9697881000000,,,-1287378671552263168,0.0,173.2785312924534,4.378068513414554,19.695832815991604,7,19,0.0,207,39151353623940,27,24.4,310.7774963378906,0.8510000109672546,0,0.0,0.0,,,,,0,,3,,
Raw,9464530,9697881000000,,,-1287378671552263168,0.0,173.2785312924534,4.378068513414554,19.695832815991604,7,3,0.0,207,39151365637849,53,19.1,-235.67747497558594,1.1390000581741333,0,0.0,0.0,,,,,0,,3,,
Raw,9464533,9697881000000,,,-1287378671552263168,0.0,173.2785312924534,4.378068513414554,19.695832815991604,7,4,0.0,207,39151358074557,31,23.6,-545.1026611328125,0.9084999561309814,0,0.0,0.0,,,,,0,,3,,
Raw,9464537,9697881000000,,,-1287378671552263168,0.0,173.2785312924534,4.378068513414554,19.695832815991604,7,31,0.0,15,373969354833005,17,28.9,-541.1049194335938,0.06930000334978104,0,0.0,0.0,,,,,0,,1,,
Raw,9464540,9697881000000,,,-1287378671552263168,0.0,173.2785312924534,4.378068513414554,19.695832815991604,7,32,0.0,15,373969356584613,16,29.6,-306.9949645996094,0.065700002014637,0,0.0,0.0,,,,,0,,1,,
Raw,9464542,9697881000000,,,-1287378671552263168,0.0,173.2785312924534,4.378068513414554,19.695832815991604,7,21,0.0,15,373955345706507,315,16.9,-518.1609497070312,10.769000053405762,0,0.0,0.0,,,,,0,,5,,
Raw,9464544,9697881000000,,,-1287378671552263168,0.0,173.2785312924534,4.378068513414554,19.695832815991604,7,26,0.0,7183,373969347664643,11,33.0,352.6280212402344,0.06040000170469284,0,0.0,0.0,,,,,0,,6,,
Raw,9464547,9697881000000,,,-1287378671552263168,0.0,173.2785312924534,4.378068513414554,19.695832815991604,7,33,0.0,7183,373969340908361,24,25.3,54.49560546875,0.42080000042915344,0,0.0,0.0,,,,,0,,6,,
NMEA,$GPGSV,3,1,11,31,18,234,29,32,26,306,30,10,58,327,,12,42,092,*79,1603353151432
NMEA,$GPGSV,3,2,11,15,16,082,,18,24,195,,20,80,160,,21,02,313,*7E,1603353151432
NMEA,$GPGSV,3,3,11,23,83,090,,24,28,036,,25,45,147,*47,1603353151433
NMEA,$GLGSV,2,1,05,82,04,234,21,79,11,203,19,83,07,278,24,67,49,026,19*6B,1603353151436
NMEA,$GLGSV,2,2,05,68,20,331,24*5B,1603353151437
NMEA,$GAGSV,2,1,07,26,23,243,33,33,12,292,25,07,54,018,,13,10,191,*64,1603353151444
NMEA,$GAGSV,2,2,07,21,07,201,,27,52,170,,30,51,066,*5B,1603353151445
NMEA,$PQGSV,1,1,0,*73,1603353151446
NMEA,$PQGSV,4,1,16,21,09,316,17,01,51,130,,02,41,241,,03,60,202,,0,4*63,1603353151447
NMEA,$PQGSV,4,2,16,04,37,115,,05,17,258,,06,53,354,,07,37,167,,0,4*62,1603353151449
NMEA,$PQGSV,4,3,16,08,34,196,,09,44,313,,10,20,188,,13,45,226,,0,4*65,1603353151449
NMEA,$PQGSV,4,4,16,16,51,345,,19,52,095,,20,07,120,,22,55,345,,0,4*6A,1603353151450
NMEA,$GNGSA,A,2,31,32,,,,,,,,,,,1.6,1.3,1.0,1*37,1603353151452
NMEA,$GNGSA,A,3,67,68,79,82,83,,,,,,,,1.6,1.3,1.0,2*36,1603353151453
NMEA,$GNGSA,A,2,01,26,,,,,,,,,,,1.6,1.3,1.0,3*33,1603353151454
NMEA,$GNVTG,278.7,T,278.7,M,2.0,N,3.8,K,A*34,1603353151454
NMEA,$GNRMC,075232.00,A,2255.526934,N,12017.688158,E,2.0,278.7,221020,2.8,W,A*39,1603353151455
NMEA,$GNGGA,075232.00,2255.526934,N,12017.688158,E,1,09,1.3,12.2,M,17.5,M,,*4A,1603353151458
Fix,gps,22.925450,120.294811,29.812012,0.320000,20.368000,1603353153000
Raw,9465345,9698881000000,,,-1287378671552263168,0.0,172.95964062213898,1.1136936854832913,18.430386817916332,7,18,0.0,207,39152352789157,53,19.7,508.8919982910156,1.1495000123977661,0,0.0,0.0,,,,,0,,3,,
Raw,9465346,9698881000000,,,-1287378671552263168,0.0,172.95964062213898,1.1136936854832913,18.430386817916332,7,15,0.0,207,39152355557610,207,11.0,-789.0324096679688,5.714000225067139,0,0.0,0.0,,,,,0,,3,,
Raw,9465347,9698881000000,,,-1287378671552263168,0.0,172.95964062213898,1.1136936854832913,18.430386817916332,7,19,0.0,207,39152353622837,24,25.0,311.520751953125,0.6162999868392944,0,0.0,0.0,,,,,0,,3,,
Raw,9465347,9698881000000,,,-1287378671552263168,0.0,172.95964062213898,1.1136936854832913,18.430386817916332,7,3,0.0,207,39152365638801,53,19.6,-234.71543884277344,1.1390000581741333,0,0.0,0.0,,,,,0,,3,,
Raw,9465347,9698881000000,,,-1287378671552263168,0.0,172.95964062213898,1.1136936854832913,18.430386817916332,7,4,0.0,207,39152358076370,27,24.2,-544.5424194335938,0.8585000038146973,0,0.0,0.0,,,,,0,,3,,
Raw,9465348,9698881000000,,,-1287378671552263168,0.0,172.95964062213898,1.1136936854832913,18.430386817916332,7,31,0.0,15,373970354834786,17,28.3,-540.68798828125,0.06930000334978104,0,0.0,0.0,,,,,0,,1,,
Raw,9465348,9698881000000,,,-1287378671552263168,0.0,172.95964062213898,1.1136936854832913,18.430386817916332,7,32,0.0,15,373970356585632,16,29.1,-306.65386962890625,0.065700002014637,0,0.0,0.0,,,,,0,,1,,
Raw,9465349,9698881000000,,,-1287378671552263168,0.0,172.95964062213898,1.1136936854832913,18.430386817916332,7,21,0.0,15,373956345708236,388,16.9,-518.1609497070312,12.269001007080078,0,0.0,0.0,,,,,0,,5,,
Raw,9465349,9698881000000,,,-1287378671552263168,0.0,172.95964062213898,1.1136936854832913,18.430386817916332,7,26,0.0,7183,373970347663469,11,33.0,351.29986572265625,0.06040000170469284,0,0.0,0.0,,,,,0,,6,,
Raw,9465350,9698881000000,,,-1287378671552263168,0.0,172.95964062213898,1.1136936854832913,18.430386817916332,7,33,0.0,7183,373970340908181,24,25.2,52.609161376953125,0.42080000042915344,0,0.0,0.0,,,,,0,,6,,
NMEA,$GPGSV,3,1,11,31,18,234,28,32,26,306,29,10,58,327,,12,42,092,*70,1603353152428
NMEA,$GPGSV,3,2,11,15,16,082,,18,24,195,,20,80,160,,21,02,313,*7E,1603353152429
NMEA,$GPGSV,3,3,11,23,83,090,,24,28,036,,25,45,147,*47,1603353152429
NMEA,$GLGSV,2,1,05,82,04,234,20,79,11,203,11,83,07,278,25,67,49,026,20*69,1603353152431
NMEA,$GLGSV,2,2,05,68,20,331,24*5B,1603353152431
NMEA,$GAGSV,2,1,07,26,23,243,33,33,12,292,25,07,54,018,,13,10,191,*64,1603353152432
NMEA,$GAGSV,2,2,07,21,07,201,,27,52,170,,30,51,066,*5B,1603353152434
NMEA,$PQGSV,1,1,0,*73,1603353152435
NMEA,$PQGSV,4,1,16,21,09,316,17,01,51,130,,02,41,241,,03,60,202,,0,4*63,1603353152435
NMEA,$PQGSV,4,2,16,04,37,115,,05,17,258,,06,53,354,,07,37,167,,0,4*62,1603353152442
NMEA,$PQGSV,4,3,16,08,34,196,,09,44,313,,10,20,188,,13,45,226,,0,4*65,1603353152445
NMEA,$PQGSV,4,4,16,16,51,345,,19,52,095,,20,07,120,,22,55,345,,0,4*6A,1603353152446
NMEA,$GNGSA,A,2,31,32,,,,,,,,,,,1.6,1.3,1.0,1*37,1603353152448
NMEA,$GNGSA,A,3,67,68,79,82,83,,,,,,,,1.6,1.3,1.0,2*36,1603353152449
NMEA,$GNGSA,A,2,01,26,,,,,,,,,,,1.6,1.3,1.0,3*33,1603353152450
NMEA,$GNVTG,280.9,T,280.9,M,0.6,N,1.2,K,A*38,1603353152451
NMEA,$GNRMC,075233.00,A,2255.526983,N,12017.688640,E,0.6,280.9,221020,2.8,W,A*37,1603353152451
NMEA,$GNGGA,075233.00,2255.526983,N,12017.688640,E,1,09,1.3,12.3,M,17.5,M,,*48,1603353152452
Fix,gps,22.925451,120.294822,29.150330,0.000000,19.296001,1603353154000
Raw,9466341,9699881000000,,,-1287378671552263168,0.0,178.1872269930318,-1.3455538327392285,19.798651227846797,7,18,0.0,207,39153352787464,46,20.3,509.37908935546875,1.0794999599456787,0,0.0,0.0,,,,,0,,3,,
Raw,9466342,9699881000000,,,-1287378671552263168,0.0,178.1872269930318,-1.3455538327392285,19.798651227846797,7,15,0.0,207,39153355560242,244,11.0,-789.0324096679688,7.214000225067139,0,0.0,0.0,,,,,0,,3,,
Raw,9466342,9699881000000,,,-1287378671552263168,0.0,178.1872269930318,-1.3455538327392285,19.798651227846797,7,19,0.0,207,39153353621882,27,24.0,311.87109375,0.8510000109672546,0,0.0,0.0,,,,,0,,3,,
Raw,9466343,9699881000000,,,-1287378671552263168,0.0,178.1872269930318,-1.3455538327392285,19.798651227846797,7,3,0.0,207,39153365639408,46,20.3,-234.98629760742188,1.069000005722046,0,0.0,0.0,,,,,0,,3,,
Raw,9466343,9699881000000,,,-1287378671552263168,0.0,178.1872269930318,-1.3455538327392285,19.798651227846797,7,4,0.0,207,39153358078281,27,24.1,-544.5424194335938,0.8585000038146973,0,0.0,0.0,,,,,0,,3,,
Raw,9466344,9699881000000,,,-1287378671552263168,0.0,178.1872269930318,-1.3455538327392285,19.798651227846797,7,31,0.0,15,373971354836593,17,28.3,-540.4630126953125,0.06930000334978104,0,0.0,0.0,,,,,0,,1,,
Raw,9466344,9699881000000,,,-1287378671552263168,0.0,178.1872269930318,-1.3455538327392285,19.798651227846797,7,32,0.0,15,373971356586637,14,30.5,-306.49066162109375,0.06480000168085098,0,0.0,0.0,,,,,0,,1,,
Raw,9466344,9699881000000,,,-1287378671552263168,0.0,178.1872269930318,-1.3455538327392285,19.798651227846797,7,21,0.0,15,373957345709964,472,16.9,-518.1609497070312,13.769001007080078,0,0.0,0.0,,,,,0,,5,,
Raw,9466345,9699881000000,,,-1287378671552263168,0.0,178.1872269930318,-1.3455538327392285,19.798651227846797,7,26,0.0,7183,373971347662296,12,32.9,352.80120849609375,0.06140000373125076,0,0.0,0.0,,,,,0,,6,,
Raw,9466345,9699881000000,,,-1287378671552263168,0.0,178.1872269930318,-1.3455538327392285,19.798651227846797,7,33,0.0,7183,373971340908006,27,24.1,55.09953689575195,0.565500020980835,0,0.0,0.0,,,,,0,,6,,
NMEA,$GPGSV,3,1,11,31,18,234,28,32,26,306,31,10,58,327,,12,42,092,*79,1603353153423
NMEA,$GPGSV,3,2,11,15,16,082,,18,24,195,,20,80,160,,21,02,313,*7E,1603353153423
NMEA,$GPGSV,3,3,11,23,83,090,,24,28,036,,25,45,147,*47,1603353153423
NMEA,$GLGSV,2,1,05,82,04,234,20,79,11,203,11,83,07,278,24,67,49,026,20*68,1603353153423
NMEA,$GLGSV,2,2,05,68,20,331,24*5B,1603353153423
NMEA,$GAGSV,2,1,07,26,23,243,33,33,12,292,24,07,54,018,,13,10,191,*65,1603353153424
NMEA,$GAGSV,2,2,07,21,07,201,,27,52,170,,30,51,066,*5B,1603353153424
NMEA,$PQGSV,1,1,0,*73,1603353153424
NMEA,$PQGSV,4,1,16,21,09,316,17,01,51,130,,02,41,241,,03,60,202,,0,4*63,1603353153424
NMEA,$PQGSV,4,2,16,04,37,115,,05,17,258,,06,53,354,,07,37,167,,0,4*62,1603353153427
NMEA,$PQGSV,4,3,16,08,34,196,,09,44,313,,10,20,188,,13,45,226,,0,4*65,1603353153428
NMEA,$PQGSV,4,4,16,16,51,345,,19,52,095,,20,07,120,,22,55,345,,0,4*6A,1603353153428
NMEA,$GNGSA,A,2,31,32,,,,,,,,,,,1.6,1.3,1.0,1*37,1603353153428
NMEA,$GNGSA,A,3,67,68,79,82,83,,,,,,,,1.6,1.3,1.0,2*36,1603353153432
NMEA,$GNGSA,A,2,01,26,,,,,,,,,,,1.6,1.3,1.0,3*33,1603353153432
NMEA,$GNVTG,,T,,M,0.0,N,0.0,K,A*3D,1603353153433
NMEA,$GNRMC,075234.00,A,2255.527053,N,12017.689303,E,0.0,,221020,2.8,W,A*1D,1603353153433
NMEA,$GNGGA,075234.00,2255.527053,N,12017.689303,E,1,09,1.3,11.7,M,17.5,M,,*4E,1603353153433
Fix,gps,22.925452,120.294855,28.585388,1.450000,20.368000,1603353155000
NMEA,$GPGSV,3,1,11,31,18,234,28,32,26,306,29,10,58,327,,12,42,092,*70,1603353154431
NMEA,$GPGSV,3,2,11,15,16,082,,18,24,195,,20,80,160,,21,02,313,*7E,1603353154432
NMEA,$GPGSV,3,3,11,23,83,090,,24,28,036,,25,45,147,*47,1603353154433
NMEA,$GLGSV,2,1,05,82,04,234,23,79,11,203,11,83,07,278,24,67,49,026,19*61,1603353154433
NMEA,$GLGSV,2,2,05,68,20,331,24*5B,1603353154436
Raw,9467419,9700881000000,,,-1287378671552263168,0.0,163.77161955460906,-0.09710286134009255,18.510759281593064,7,18,0.0,207,39154352785593,31,23.1,508.9294738769531,0.8994999527931213,0,0.0,0.0,,,,,0,,3,,
Raw,9467421,9700881000000,,,-1287378671552263168,0.0,163.77161955460906,-0.09710286134009255,18.510759281593064,7,15,0.0,207,39154355562874,291,11.0,-789.0324096679688,8.714000701904297,0,0.0,0.0,,,,,0,,3,,
Raw,9467424,9700881000000,,,-1287378671552263168,0.0,163.77161955460906,-0.09710286134009255,18.510759281593064,7,19,0.0,207,39154353620926,31,23.8,310.6559753417969,0.9009999632835388,0,0.0,0.0,,,,,0,,3,,
Raw,9467426,9700881000000,,,-1287378671552263168,0.0,163.77161955460906,-0.09710286134009255,18.510759281593064,7,3,0.0,207,39154365640414,53,19.2,-235.02365112304688,1.1390000581741333,0,0.0,0.0,,,,,0,,3,,
Raw,9467428,9700881000000,,,-1287378671552263168,0.0,163.77161955460906,-0.09710286134009255,18.510759281593064,7,4,0.0,207,39154358079959,27,24.3,-545.1493530273438,0.8585000038146973,0,0.0,0.0,,,,,0,,3,,
Raw,9467432,9700881000000,,,-1287378671552263168,0.0,163.77161955460906,-0.09710286134009255,18.510759281593064,7,31,0.0,15,373972354838416,17,28.2,-540.7865600585938,0.06930000334978104,0,0.0,0.0,,,,,0,,1,,
Raw,9467434,9700881000000,,,-1287378671552263168,0.0,163.77161955460906,-0.09710286134009255,18.510759281593064,7,32,0.0,15,373972356587664,16,29.3,-306.884765625,0.065700002014637,0,0.0,0.0,,,,,0,,1,,
Raw,9467437,9700881000000,,,-1287378671552263168,0.0,163.77161955460906,-0.09710286134009255,18.510759281593064,7,21,0.0,15,373958345711692,566,16.9,-518.1609497070312,15.269001007080078,0,0.0,0.0,,,,,0,,5,,
Raw,9467439,9700881000000,,,-1287378671552263168,0.0,163.77161955460906,-0.09710286134009255,18.510759281593064,7,26,0.0,7183,373972347661122,12,32.4,353.2396545410156,0.06140000373125076,0,0.0,0.0,,,,,0,,6,,
Raw,9467441,9700881000000,,,-1287378671552263168,0.0,163.77161955460906,-0.09710286134009255,18.510759281593064,7,33,0.0,7183,373972340907827,27,24.2,53.77699279785156,0.565500020980835,0,0.0,0.0,,,,,0,,6,,
NMEA,$GAGSV,2,1,07,26,23,243,32,33,12,292,24,07,54,018,,13,10,191,*64,1603353154437
NMEA,$GAGSV,2,2,07,21,07,201,,27,52,170,,30,51,066,*5B,1603353154438
NMEA,$PQGSV,1,1,0,*73,1603353154439
NMEA,$PQGSV,4,1,16,21,09,316,17,01,51,130,,02,41,241,,03,60,202,,0,4*63,1603353154441
NMEA,$PQGSV,4,2,16,04,37,115,,05,17,258,,06,53,354,,07,37,167,,0,4*62,1603353154442
NMEA,$PQGSV,4,3,16,08,34,196,,09,44,313,,10,20,188,,13,45,226,,0,4*65,1603353154443
NMEA,$PQGSV,4,4,16,16,51,345,,19,52,095,,20,07,120,,22,55,345,,0,4*6A,1603353154446
NMEA,$GNGSA,A,2,31,32,,,,,,,,,,,1.6,1.3,1.0,1*37,1603353154450
NMEA,$GNGSA,A,3,67,68,79,82,83,,,,,,,,1.6,1.3,1.0,2*36,1603353154451
NMEA,$GNGSA,A,2,01,26,,,,,,,,,,,1.6,1.3,1.0,3*33,1603353154451
NMEA,$GNVTG,84.8,T,84.8,M,2.8,N,5.2,K,A*30,1603353154453
NMEA,$GNRMC,075235.00,A,2255.527110,N,12017.691315,E,2.8,84.8,221020,2.8,W,A*04,1603353154454
NMEA,$GNGGA,075235.00,2255.527110,N,12017.691315,E,1,09,1.3,11.1,M,17.5,M,,*41,1603353154455
Fix,gps,22.925453,120.294896,26.924316,1.730000,19.296001,1603353156000
Raw,9468498,9701881000000,,,-1287378671552263168,0.0,178.0800084816292,-3.975415290288017,19.812788103371894,7,18,0.0,207,39155352784077,40,21.6,509.0887145996094,1.0195000171661377,0,0.0,0.0,,,,,0,,3,,
