# 
# Header Description:
# 
# Version: v2.0.0.1 Platform: 8.0.0 Manufacturer: Sony Model: G8142
# 
# Raw,ElapsedRealtimeMillis,TimeNanos,LeapSecond,TimeUncertaintyNanos,FullBiasNanos,BiasNanos,BiasUncertaintyNanos,DriftNanosPerSecond,DriftUncertaintyNanosPerSecond,HardwareClockDiscontinuityCount,Svid,TimeOffsetNanos,State,ReceivedSvTimeNanos,ReceivedSvTimeUncertaintyNanos,Cn0DbHz,PseudorangeRateMetersPerSecond,PseudorangeRateUncertaintyMetersPerSecond,AccumulatedDeltaRangeState,AccumulatedDeltaRangeMeters,AccumulatedDeltaRangeUncertaintyMeters,CarrierFrequencyHz,CarrierCycles,CarrierPhase,CarrierPhaseUncertainty,MultipathIndicator,SnrInDb,ConstellationType,AgcDb,CarrierFrequencyHz
# 
# Fix,Provider,Latitude,Longitude,Altitude,Speed,Accuracy,(UTC)TimeInMs
# 
# Nav,Svid,Type,Status,MessageId,Sub-messageId,Data(Bytes)
# 
Raw,10788283,11021881000000,,,-1287378671552259072,0.0,225.74432659894228,3.772935723319004,22.05216748300426,7,15,0.0,207,40475358893489,27,24.5,-718.5474853515625,0.8585000038146973,0,0.0,0.0,,,,,0,,3,,
Raw,10788283,11021881000000,,,-1287378671552259072,0.0,225.74432659894228,3.772935723319004,22.05216748300426,7,31,0.0,15,375293357030200,14,30.2,-455.0494079589844,0.06630000472068787,0,0.0,0.0,,,,,0,,1,,
Raw,10788283,11021881000000,,,-1287378671552259072,0.0,225.74432659894228,3.772935723319004,22.05216748300426,7,32,0.0,15,375293357954083,19,27.1,-316.1063232421875,0.5669999718666077,0,0.0,0.0,,,,,0,,1,,
Raw,10788286,11021881000000,,,-1287378671552259072,0.0,225.74432659894228,3.772935723319004,22.05216748300426,7,21,0.0,15,375279348020305,24,25.8,-532.2662963867188,0.5234999656677246,0,0.0,0.0,,,,,0,,5,,
Raw,10788286,11021881000000,,,-1287378671552259072,0.0,225.74432659894228,3.772935723319004,22.05216748300426,7,26,0.0,7183,375293346038400,13,31.9,377.02886962890625,0.3334999978542328,0,0.0,0.0,,,,,0,,6,,
Raw,10788286,11021881000000,,,-1287378671552259072,0.0,225.74432659894228,3.772935723319004,22.05216748300426,7,33,0.0,7183,375293340459441,13,31.2,144.05230712890625,0.34549999237060547,0,0.0,0.0,,,,,0,,6,,
Fix,gps,22.925391,120.294866,40.089600,0.300000,19.296001,1603354476000
NMEA,$GPGSV,3,1,11,31,25,243,30,32,31,316,27,10,69,320,,12,42,075,*72,1603354475415
NMEA,$GPGSV,3,2,11,15,11,092,,18,16,189,,20,68,165,,21,05,305,*77,1603354475416
NMEA,$GPGSV,3,3,11,23,75,146,,24,20,040,,25,54,136,*4B,1603354475416
NMEA,$GLGSV,1,1,01,79,21,208,25*54,1603354475416
NMEA,$GAGSV,2,1,07,26,18,236,32,33,11,284,31,07,55,032,,13,05,187,*64,1603354475416
NMEA,$GAGSV,2,2,07,21,14,202,,27,61,167,,30,47,054,*5A,1603354475416
NMEA,$PQGSV,1,1,0,*73,1603354475416
NMEA,$PQGSV,4,1,16,21,16,319,26,01,51,130,,02,41,241,,03,59,202,,0,4*6A,1603354475416
NMEA,$PQGSV,4,2,16,04,37,115,,05,17,258,,06,53,358,,07,42,167,,0,4*6C,1603354475417
NMEA,$PQGSV,4,3,16,08,28,196,,09,44,317,,10,23,189,,13,40,224,,0,4*69,1603354475417
NMEA,$PQGSV,4,4,16,16,51,350,,19,47,109,,20,02,127,,22,63,352,,0,4*6F,1603354475417
NMEA,$GNGSA,A,2,31,32,,,,,,,,,,,3.6,3.4,1.0,1*30,1603354475417
NMEA,$GNGSA,A,2,79,,,,,,,,,,,,3.6,3.4,1.0,2*3E,1603354475418
NMEA,$GNGSA,A,2,01,26,,,,,,,,,,,3.6,3.4,1.0,3*34,1603354475418
NMEA,$GNVTG,291.8,T,291.8,M,0.6,N,1.1,K,A*3B,1603354475418
NMEA,$GNRMC,081436.00,A,2255.523450,N,12017.691948,E,0.6,291.8,221020,2.8,W,A*37,1603354475418
NMEA,$GNGGA,081436.00,2255.523450,N,12017.691948,E,1,05,3.4,22.6,M,17.5,M,,*46,1603354475418
NMEA,$GPGSV,3,1,11,31,25,243,28,32,31,316,25,10,69,320,,12,42,075,*79,1603354476417
Raw,10789772,11022881000000,,,-1287378671552259072,0.0,204.72098549362272,-2.299030258337048,16.599518287236343,7,15,0.0,207,40476358895893,31,23.7,-719.2399291992188,0.9084999561309814,0,0.0,0.0,,,,,0,,3,,
Raw,10789772,11022881000000,,,-1287378671552259072,0.0,204.72098549362272,-2.299030258337048,16.599518287236343,7,31,0.0,15,375294357031703,17,28.0,-455.08740234375,0.07380000501871109,0,0.0,0.0,,,,,0,,1,,
Raw,10789772,11022881000000,,,-1287378671552259072,0.0,204.72098549362272,-2.299030258337048,16.599518287236343,7,32,0.0,15,375294357955137,24,25.3,-316.2008972167969,0.4223000109195709,0,0.0,0.0,,,,,0,,1,,
Raw,10789772,11022881000000,,,-1287378671552259072,0.0,204.72098549362272,-2.299030258337048,16.599518287236343,7,21,0.0,15,375280348022058,27,24.4,-532.3046875,0.6035000085830688,0,0.0,0.0,,,,,0,,5,,
Raw,10789772,11022881000000,,,-1287378671552259072,0.0,204.72098549362272,-2.299030258337048,16.599518287236343,7,26,0.0,7183,375294346037133,13,31.7,377.4249572753906,0.05220000073313713,0,0.0,0.0,,,,,0,,6,,
Raw,10789773,11022881000000,,,-1287378671552259072,0.0,204.72098549362272,-2.299030258337048,16.599518287236343,7,33,0.0,7183,375294340458954,12,32.6,144.4932861328125,0.06289999932050705,0,0.0,0.0,,,,,0,,6,,
Fix,gps,22.925398,120.294867,39.548645,0.000000,18.224001,1603354477000
NMEA,$GPGSV,3,2,11,15,11,092,,18,16,189,,20,68,165,,21,05,305,*77,1603354476418
NMEA,$GPGSV,3,3,11,23,75,146,,24,20,040,,25,54,136,*4B,1603354476418
NMEA,$GLGSV,1,1,01,79,21,208,24*55,1603354476419
NMEA,$GAGSV,2,1,07,26,18,236,32,33,11,284,33,07,55,032,,13,05,187,*66,1603354476419
NMEA,$GAGSV,2,2,07,21,14,202,,27,61,167,,30,47,054,*5A,1603354476420
NMEA,$PQGSV,1,1,0,*73,1603354476420
NMEA,$PQGSV,4,1,16,21,16,319,24,01,51,130,,02,41,241,,03,59,202,,0,4*68,1603354476421
NMEA,$PQGSV,4,2,16,04,37,115,,05,17,258,,06,53,358,,07,42,167,,0,4*6C,1603354476421
NMEA,$PQGSV,4,3,16,08,28,196,,09,44,317,,10,23,189,,13,40,224,,0,4*69,1603354476421
NMEA,$PQGSV,4,4,16,16,51,350,,19,47,109,,20,02,127,,22,63,352,,0,4*6F,1603354476422
NMEA,$GNGSA,A,2,31,32,,,,,,,,,,,3.6,3.4,1.0,1*30,1603354476423
NMEA,$GNGSA,A,2,79,,,,,,,,,,,,3.6,3.4,1.0,2*3E,1603354476423
NMEA,$GNGSA,A,2,01,26,,,,,,,,,,,3.6,3.4,1.0,3*34,1603354476423
NMEA,$GNVTG,,T,,M,0.0,N,0.0,K,A*3D,1603354476424
NMEA,$GNRMC,081437.00,A,2255.523857,N,12017.692015,E,0.0,,221020,2.8,W,A*15,1603354476424
NMEA,$GNGGA,081437.00,2255.523857,N,12017.692015,E,1,05,3.4,22.1,M,17.5,M,,*49,1603354476425
Raw,10790284,11023881000000,,,-1287378671552259072,0.0,198.95256264135242,-1.9558593148146461,17.631772642564684,7,15,0.0,207,40477358898361,27,24.3,-719.9229736328125,0.8585000038146973,0,0.0,0.0,,,,,0,,3,,
Raw,10790285,11023881000000,,,-1287378671552259072,0.0,198.95256264135242,-1.9558593148146461,17.631772642564684,7,31,0.0,15,375295357033265,24,25.5,-456.00848388671875,0.4223000109195709,0,0.0,0.0,,,,,0,,1,,
Raw,10790285,11023881000000,,,-1287378671552259072,0.0,198.95256264135242,-1.9558593148146461,17.631772642564684,7,32,0.0,15,375295357956176,27,24.4,-317.0768127441406,0.7069999575614929,0,0.0,0.0,,,,,0,,1,,
Raw,10790285,11023881000000,,,-1287378671552259072,0.0,198.95256264135242,-1.9558593148146461,17.631772642564684,7,21,0.0,15,375281348023868,27,24.2,-533.9658203125,0.6035000085830688,0,0.0,0.0,,,,,0,,5,,
Raw,10790286,11023881000000,,,-1287378671552259072,0.0,198.95256264135242,-1.9558593148146461,17.631772642564684,7,26,0.0,7183,375295346035880,11,33.0,376.0298156738281,0.29350000619888306,0,0.0,0.0,,,,,0,,6,,
Raw,10790286,11023881000000,,,-1287378671552259072,0.0,198.95256264135242,-1.9558593148146461,17.631772642564684,7,33,0.0,7183,375295340458470,11,33.9,143.10084533691406,0.30550000071525574,0,0.0,0.0,,,,,0,,6,,
Fix,gps,22.925399,120.294874,39.182800,0.000000,18.224001,1603354478000
NMEA,$GPGSV,3,1,11,31,25,243,26,32,31,316,24,10,69,320,,12,42,075,*76,1603354477416
NMEA,$GPGSV,3,2,11,15,11,092,,18,16,189,,20,68,165,,21,05,305,*77,1603354477416
NMEA,$GPGSV,3,3,11,23,75,146,,24,20,040,,25,54,136,*4B,1603354477416
NMEA,$GLGSV,1,1,01,79,21,208,24*55,1603354477417
NMEA,$GAGSV,2,1,07,26,18,236,33,33,11,284,34,07,55,032,,13,05,187,*60,1603354477417
NMEA,$GAGSV,2,2,07,21,14,202,,27,61,167,,30,47,054,*5A,1603354477417
NMEA,$PQGSV,1,1,0,*73,1603354477417
NMEA,$PQGSV,4,1,16,21,16,319,24,01,51,130,,02,41,241,,03,59,202,,0,4*68,1603354477417
NMEA,$PQGSV,4,2,16,04,37,115,,05,17,258,,06,53,358,,07,42,167,,0,4*6C,1603354477417
NMEA,$PQGSV,4,3,16,08,28,196,,09,44,317,,10,23,189,,13,40,224,,0,4*69,1603354477418
NMEA,$PQGSV,4,4,16,16,51,350,,19,47,109,,20,02,127,,22,63,352,,0,4*6F,1603354477418
NMEA,$GNGSA,A,2,31,32,,,,,,,,,,,3.6,3.4,1.0,1*30,1603354477419
NMEA,$GNGSA,A,2,79,,,,,,,,,,,,3.6,3.4,1.0,2*3E,1603354477419
NMEA,$GNGSA,A,2,01,26,,,,,,,,,,,3.6,3.4,1.0,3*34,1603354477419
NMEA,$GNVTG,,T,,M,0.0,N,0.0,K,A*3D,1603354477419
NMEA,$GNRMC,081438.00,A,2255.523953,N,12017.692466,E,0.0,,221020,2.8,W,A*1F,1603354477419
NMEA,$GNGGA,081438.00,2255.523953,N,12017.692466,E,1,05,3.4,21.7,M,17.5,M,,*46,1603354477419
Raw,10791315,11024881000000,,,-1287378671552259072,0.0,200.1335669774562,-5.974112694020148,17.80437517647075,7,15,0.0,207,40478358900654,40,21.9,-721.2048950195312,1.028499960899353,0,0.0,0.0,,,,,0,,3,,
Raw,10791316,11024881000000,,,-1287378671552259072,0.0,200.1335669774562,-5.974112694020148,17.80437517647075,7,31,0.0,15,375296357034744,19,27.3,-457.7962646484375,0.08180000633001328,0,0.0,0.0,,,,,0,,1,,
Raw,10791316,11024881000000,,,-1287378671552259072,0.0,200.1335669774562,-5.974112694020148,17.80437517647075,7,32,0.0,15,375296357957232,24,25.4,-318.9493713378906,0.4223000109195709,0,0.0,0.0,,,,,0,,1,,
Raw,10791317,11024881000000,,,-1287378671552259072,0.0,200.1335669774562,-5.974112694020148,17.80437517647075,7,21,0.0,15,375282348025596,40,21.2,-535.31005859375,0.7534999847412109,0,0.0,0.0,,,,,0,,5,,
Raw,10791318,11024881000000,,,-1287378671552259072,0.0,200.1335669774562,-5.974112694020148,17.80437517647075,7,26,0.0,7183,375296346034633,12,32.8,374.0697937011719,0.3135000169277191,0,0.0,0.0,,,,,0,,6,,
Raw,10791318,11024881000000,,,-1287378671552259072,0.0,200.1335669774562,-5.974112694020148,17.80437517647075,7,33,0.0,7183,375296340458001,10,34.0,141.21693420410156,0.28550001978874207,0,0.0,0.0,,,,,0,,6,,
Fix,gps,22.925401,120.294877,39.000427,0.000000,18.224001,1603354479000
NMEA,$GPGSV,3,1,11,31,25,243,27,32,31,316,25,10,69,320,,12,42,075,*76,1603354478415
NMEA,$GPGSV,3,2,11,15,11,092,,18,16,189,,20,68,165,,21,05,305,*77,1603354478415
NMEA,$GPGSV,3,3,11,23,75,146,,24,20,040,,25,54,136,*4B,1603354478415
NMEA,$GLGSV,1,1,01,79,21,208,22*53,1603354478415
NMEA,$GAGSV,2,1,07,26,18,236,33,33,11,284,34,07,55,032,,13,05,187,*60,1603354478416
NMEA,$GAGSV,2,2,07,21,14,202,,27,61,167,,30,47,054,*5A,1603354478416
NMEA,$PQGSV,1,1,0,*73,1603354478416
NMEA,$PQGSV,4,1,16,21,16,319,21,01,51,130,,02,41,241,,03,59,202,,0,4*6D,1603354478416
NMEA,$PQGSV,4,2,16,04,37,115,,05,17,258,,06,53,358,,07,42,167,,0,4*6C,1603354478416
NMEA,$PQGSV,4,3,16,08,28,196,,09,44,317,,10,23,189,,13,40,224,,0,4*69,1603354478417
NMEA,$PQGSV,4,4,16,16,51,350,,19,47,109,,20,02,127,,22,63,352,,0,4*6F,1603354478417
NMEA,$GNGSA,A,2,31,32,,,,,,,,,,,3.6,3.4,1.0,1*30,1603354478418
NMEA,$GNGSA,A,2,79,,,,,,,,,,,,3.6,3.4,1.0,2*3E,1603354478418
NMEA,$GNGSA,A,2,01,26,,,,,,,,,,,3.6,3.4,1.0,3*34,1603354478418
NMEA,$GNVTG,,T,,M,0.0,N,0.0,K,A*3D,1603354478419
NMEA,$GNRMC,081439.00,A,2255.524040,N,12017.692619,E,0.0,,221020,2.8,W,A*18,1603354478419
NMEA,$GNGGA,081439.00,2255.524040,N,12017.692619,E,1,05,3.4,21.5,M,17.5,M,,*43,1603354478419
Raw,10792373,11025881000000,,,-1287378671552259072,0.0,195.91300224419683,-11.273699355412354,19.111958225222317,7,15,0.0,207,40479358903192,40,21.5,-722.2153930664062,1.028499960899353,0,0.0,0.0,,,,,0,,3,,
Raw,10792374,11025881000000,,,-1287378671552259072,0.0,195.91300224419683,-11.273699355412354,19.111958225222317,7,31,0.0,15,375297357036306,14,30.5,-458.6798400878906,0.06630000472068787,0,0.0,0.0,,,,,0,,1,,
Raw,10792374,11025881000000,,,-1287378671552259072,0.0,195.91300224419683,-11.273699355412354,19.111958225222317,7,32,0.0,15,375297357958282,24,25.5,-320.0091552734375,0.4223000109195709,0,0.0,0.0,,,,,0,,1,,
Raw,10792375,11025881000000,,,-1287378671552259072,0.0,195.91300224419683,-11.273699355412354,19.111958225222317,7,21,0.0,15,375283348027411,61,18.5,-535.0892333984375,0.9434999823570251,0,0.0,0.0,,,,,0,,5,,
Raw,10792375,11025881000000,,,-1287378671552259072,0.0,195.91300224419683,-11.273699355412354,19.111958225222317,7,26,0.0,7183,375297346033384,11,33.0,375.2366027832031,0.04990000277757645,0,0.0,0.0,,,,,0,,6,,
Raw,10792376,11025881000000,,,-1287378671552259072,0.0,195.91300224419683,-11.273699355412354,19.111958225222317,7,33,0.0,7183,375297340457532,12,32.7,142.42835998535156,0.06289999932050705,0,0.0,0.0,,,,,0,,6,,
Fix,gps,22.925399,120.294875,38.747437,0.500000,19.296001,1603354480000
NMEA,$GPGSV,3,1,11,31,25,243,31,32,31,316,26,10,69,320,,12,42,075,*72,1603354479414
NMEA,$GPGSV,3,2,11,15,11,092,,18,16,189,,20,68,165,,21,05,305,*77,1603354479414
NMEA,$GPGSV,3,3,11,23,75,146,,24,20,040,,25,54,136,*4B,1603354479414
NMEA,$GLGSV,1,1,01,79,21,208,22*53,1603354479415
NMEA,$GAGSV,2,1,07,26,18,236,33,33,11,284,33,07,55,032,,13,05,187,*67,1603354479415
NMEA,$GAGSV,2,2,07,21,14,202,,27,61,167,,30,47,054,*5A,1603354479416
NMEA,$PQGSV,1,1,0,*73,1603354479416
NMEA,$PQGSV,4,1,16,21,16,319,19,01,51,130,,02,41,241,,03,59,202,,0,4*66,1603354479419
NMEA,$PQGSV,4,2,16,04,37,115,,05,17,258,,06,53,358,,07,42,167,,0,4*6C,1603354479419
NMEA,$PQGSV,4,3,16,08,28,196,,09,44,317,,10,23,189,,13,40,224,,0,4*69,1603354479420
NMEA,$PQGSV,4,4,16,16,51,350,,19,47,109,,20,02,127,,22,63,352,,0,4*6F,1603354479420
NMEA,$GNGSA,A,2,31,32,,,,,,,,,,,3.6,3.4,1.0,1*30,1603354479422
NMEA,$GNGSA,A,2,79,,,,,,,,,,,,3.6,3.4,1.0,2*3E,1603354479422
NMEA,$GNGSA,A,2,01,26,,,,,,,,,,,3.6,3.4,1.0,3*34,1603354479422
NMEA,$GNVTG,250.3,T,250.3,M,1.0,N,1.8,K,A*35,1603354479422
NMEA,$GNRMC,081440.00,A,2255.523912,N,12017.692507,E,1.0,250.3,221020,2.8,W,A*38,1603354479423
NMEA,$GNGGA,081440.00,2255.523912,N,12017.692507,E,1,05,3.4,21.3,M,17.5,M,,*4E,1603354479423
Raw,10793341,11026881000000,,,-1287378671552259328,0.0,203.73414736241102,-11.319287915977204,23.508380182233193,7,15,0.0,207,40480358905560,61,18.2,-722.2247314453125,1.2385001182556152,0,0.0,0.0,,,,,0,,3,,
Raw,10793343,11026881000000,,,-1287378671552259328,0.0,203.73414736241102,-11.319287915977204,23.508380182233193,7,31,0.0,15,375298357037810,14,30.3,-458.4344177246094,0.06630000472068787,0,0.0,0.0,,,,,0,,1,,
Raw,10793344,11026881000000,,,-1287378671552259328,0.0,203.73414736241102,-11.319287915977204,23.508380182233193,7,32,0.0,15,375298357959439,27,24.7,-320.054931640625,0.6570000052452087,0,0.0,0.0,,,,,0,,1,,
Raw,10793346,11026881000000,,,-1287378671552259328,0.0,203.73414736241102,-11.319287915977204,23.508380182233193,7,21,0.0,15,375284348029280,53,19.4,-536.9808349609375,0.8734999895095825,0,0.0,0.0,,,,,0,,5,,
Raw,10793347,11026881000000,,,-1287378671552259328,0.0,203.73414736241102,-11.319287915977204,23.508380182233193,7,26,0.0,7183,375298346032140,12,32.2,373.9146423339844,0.05090000107884407,0,0.0,0.0,,,,,0,,6,,
Raw,10793350,11026881000000,,,-1287378671552259328,0.0,203.73414736241102,-11.319287915977204,23.508380182233193,7,33,0.0,7183,375298340457065,12,32.7,140.92092895507812,0.06289999932050705,0,0.0,0.0,,,,,0,,6,,
Fix,gps,22.925401,120.294882,38.429077,0.220000,20.368000,1603354481000
NMEA,$GPGSV,3,1,11,31,25,243,30,32,31,316,25,10,69,320,,12,42,075,*70,1603354480421
NMEA,$GPGSV,3,2,11,15,11,092,,18,16,189,,20,68,165,,21,05,305,*77,1603354480425
NMEA,$GPGSV,3,3,11,23,75,146,,24,20,040,,25,54,136,*4B,1603354480428
NMEA,$GLGSV,1,1,01,79,21,208,18*5A,1603354480432
NMEA,$GAGSV,2,1,07,26,18,236,32,33,11,284,33,07,55,032,,13,05,187,*66,1603354480433
NMEA,$GAGSV,2,2,07,21,14,202,,27,61,167,,30,47,054,*5A,1603354480434
NMEA,$PQGSV,1,1,0,*73,1603354480435
NMEA,$PQGSV,4,1,16,21,16,319,19,01,51,130,,02,41,241,,03,59,202,,0,4*66,1603354480435
NMEA,$PQGSV,4,2,16,04,37,115,,05,17,258,,06,53,358,,07,42,167,,0,4*6C,1603354480435
NMEA,$PQGSV,4,3,16,08,28,196,,09,44,317,,10,23,189,,13,40,224,,0,4*69,1603354480435
NMEA,$PQGSV,4,4,16,16,51,350,,19,47,109,,20,02,127,,22,63,352,,0,4*6F,1603354480435
NMEA,$GNGSA,A,2,31,32,,,,,,,,,,,3.6,3.4,1.0,1*30,1603354480436
NMEA,$GNGSA,A,2,79,,,,,,,,,,,,3.6,3.4,1.0,2*3E,1603354480436
NMEA,$GNGSA,A,2,01,26,,,,,,,,,,,3.6,3.4,1.0,3*34,1603354480436
NMEA,$GNVTG,266.5,T,266.5,M,0.4,N,0.8,K,A*31,1603354480437
NMEA,$GNRMC,081441.00,A,2255.524047,N,12017.692902,E,0.4,266.5,221020,2.8,W,A*38,1603354480437
NMEA,$GNGGA,081441.00,2255.524047,N,12017.692902,E,1,05,3.4,21.0,M,17.5,M,,*4B,1603354480437
Raw,10794657,11027881000000,,,-1287378671552259328,0.0,212.07332611083984,-13.63888786104005,22.412880486951604,7,15,0.0,207,40481358907941,27,24.2,-721.9908447265625,0.8585000038146973,0,0.0,0.0,,,,,0,,3,,
Raw,10794657,11027881000000,,,-1287378671552259328,0.0,212.07332611083984,-13.63888786104005,22.412880486951604,7,31,0.0,15,375299357039326,14,30.8,-458.0260925292969,0.06630000472068787,0,0.0,0.0,,,,,0,,1,,
Raw,10794658,11027881000000,,,-1287378671552259328,0.0,212.07332611083984,-13.63888786104005,22.412880486951604,7,32,0.0,15,375299357960440,27,24.1,-319.4174499511719,0.7069999575614929,0,0.0,0.0,,,,,0,,1,,
Raw,10794659,11027881000000,,,-1287378671552259328,0.0,212.07332611083984,-13.63888786104005,22.412880486951604,7,21,0.0,15,375285348031001,53,19.7,-535.9342041015625,0.8734999895095825,0,0.0,0.0,,,,,0,,5,,
Raw,10794660,11027881000000,,,-1287378671552259328,0.0,212.07332611083984,-13.63888786104005,22.412880486951604,7,26,0.0,7183,375299346030891,13,31.4,374.5244445800781,0.05220000073313713,0,0.0,0.0,,,,,0,,6,,
Raw,10794660,11027881000000,,,-1287378671552259328,0.0,212.07332611083984,-13.63888786104005,22.412880486951604,7,33,0.0,7183,375299340456591,12,32.9,142.1549530029297,0.06289999932050705,0,0.0,0.0,,,,,0,,6,,
Fix,gps,22.925400,120.294891,37.618225,0.530000,20.368000,1603354482000
NMEA,$GPGSV,3,1,11,31,25,243,31,32,31,316,24,10,69,320,,12,42,075,*70,1603354481422
NMEA,$GPGSV,3,2,11,15,11,092,,18,16,189,,20,68,165,,21,05,305,*77,1603354481423
NMEA,$GPGSV,3,3,11,23,75,146,,24,20,040,,25,54,136,*4B,1603354481425
NMEA,$GLGSV,1,1,01,79,21,208,24*55,1603354481426
NMEA,$GAGSV,2,1,07,26,18,236,31,33,11,284,33,07,55,032,,13,05,187,*65,1603354481435
NMEA,$GAGSV,2,2,07,21,14,202,,27,61,167,,30,47,054,*5A,1603354481436
NMEA,$PQGSV,1,1,0,*73,1603354481436
NMEA,$PQGSV,4,1,16,21,16,319,20,01,51,130,,02,41,241,,03,59,202,,0,4*6C,1603354481437
NMEA,$PQGSV,4,2,16,04,37,115,,05,17,258,,06,53,358,,07,42,167,,0,4*6C,1603354481437
NMEA,$PQGSV,4,3,16,08,28,196,,09,44,317,,10,23,189,,13,40,224,,0,4*69,1603354481438
NMEA,$PQGSV,4,4,16,16,51,350,,19,47,109,,20,02,127,,22,63,352,,0,4*6F,1603354481439
NMEA,$GNGSA,A,2,31,32,,,,,,,,,,,3.6,3.4,1.0,1*30,1603354481448
NMEA,$GNGSA,A,2,79,,,,,,,,,,,,3.6,3.4,1.0,2*3E,1603354481449
NMEA,$GNGSA,A,2,01,26,,,,,,,,,,,3.6,3.4,1.0,3*34,1603354481450
NMEA,$GNVTG,203.6,T,203.6,M,1.0,N,1.9,K,A*34,1603354481450
NMEA,$GNRMC,081442.00,A,2255.524011,N,12017.693460,E,1.0,203.6,221020,2.8,W,A*35,1603354481451
NMEA,$GNGGA,081442.00,2255.524011,N,12017.693460,E,1,05,3.4,20.1,M,17.5,M,,*43,1603354481452
Raw,10795316,11028881000000,,,-1287378671552259328,0.0,205.18360543064773,-11.823151894912918,21.24369026027062,7,15,0.0,207,40482358910297,35,22.2,-720.4376220703125,0.9684999585151672,0,0.0,0.0,,,,,0,,3,,
Raw,10795316,11028881000000,,,-1287378671552259328,0.0,205.18360543064773,-11.823151894912918,21.24369026027062,7,31,0.0,15,375300357040871,14,30.3,-456.33673095703125,0.06630000472068787,0,0.0,0.0,,,,,0,,1,,
Raw,10795317,11028881000000,,,-1287378671552259328,0.0,205.18360543064773,-11.823151894912918,21.24369026027062,7,32,0.0,15,375300357961528,27,24.7,-318.11395263671875,0.6570000052452087,0,0.0,0.0,,,,,0,,1,,
Raw,10795317,11028881000000,,,-1287378671552259328,0.0,205.18360543064773,-11.823151894912918,21.24369026027062,7,21,0.0,15,375286348032725,61,18.2,-534.3211059570312,0.9434999823570251,0,0.0,0.0,,,,,0,,5,,
Raw,10795318,11028881000000,,,-1287378671552259328,0.0,205.18360543064773,-11.823151894912918,21.24369026027062,7,26,0.0,7183,375300346029641,13,31.6,375.6682434082031,0.3334999978542328,0,0.0,0.0,,,,,0,,6,,
Raw,10795319,11028881000000,,,-1287378671552259328,0.0,205.18360543064773,-11.823151894912918,21.24369026027062,7,33,0.0,7183,375300340456125,13,31.3,142.90103149414062,0.34549999237060547,0,0.0,0.0,,,,,0,,6,,
Fix,gps,22.925401,120.294902,38.575684,0.590000,19.296001,1603354483000
NMEA,$GPGSV,3,1,11,31,25,243,30,32,31,316,25,10,69,320,,12,42,075,*70,1603354482415
NMEA,$GPGSV,3,2,11,15,11,092,,18,16,189,,20,68,165,,21,05,305,*77,1603354482415
NMEA,$GPGSV,3,3,11,23,75,146,,24,20,040,,25,54,136,*4B,1603354482416
NMEA,$GLGSV,1,1,01,79,21,208,22*53,1603354482417
NMEA,$GAGSV,2,1,07,26,18,234,32,33,11,284,31,07,56,033,,13,04,185,*67,1603354482417
NMEA,$GAGSV,2,2,07,21,15,202,,27,62,167,,30,47,053,*5F,1603354482418
NMEA,$PQGSV,1,1,0,*73,1603354482418
NMEA,$PQGSV,4,1,16,21,16,319,18,01,51,130,,02,41,241,,03,59,202,,0,4*67,1603354482419
NMEA,$PQGSV,4,2,16,04,37,115,,05,17,258,,06,53,358,,07,42,167,,0,4*6C,1603354482419
NMEA,$PQGSV,4,3,16,08,28,196,,09,44,317,,10,23,189,,13,40,224,,0,4*69,1603354482420
NMEA,$PQGSV,4,4,16,16,51,350,,19,47,109,,20,02,127,,22,63,352,,0,4*6F,1603354482420
NMEA,$GNGSA,A,2,31,32,,,,,,,,,,,3.6,3.4,1.0,1*30,1603354482421
NMEA,$GNGSA,A,2,79,,,,,,,,,,,,3.6,3.4,1.0,2*3E,1603354482422
NMEA,$GNGSA,A,2,01,26,,,,,,,,,,,3.6,3.4,1.0,3*34,1603354482422
NMEA,$GNVTG,97.7,T,97.7,M,1.1,N,2.1,K,A*3E,1603354482422
NMEA,$GNRMC,081443.00,A,2255.524066,N,12017.694097,E,1.1,97.7,221020,2.8,W,A*00,1603354482422
NMEA,$GNGGA,081443.00,2255.524066,N,12017.694097,E,1,05,3.4,21.1,M,17.5,M,,*48,1603354482423
NMEA,$GPGSV,3,1,11,31,25,243,29,32,31,316,26,10,69,320,,12,42,075,*7B,1603354483415
Raw,10796307,11029881000000,,,-1287378671552259328,0.0,195.3380269696936,-9.226264484801153,19.184158404195177,7,15,0.0,207,40483358912713,31,23.9,-719.483154296875,0.9084999561309814,0,0.0,0.0,,,,,0,,3,,
Raw,10796308,11029881000000,,,-1287378671552259328,0.0,195.3380269696936,-9.226264484801153,19.184158404195177,7,31,0.0,15,375301357042388,17,28.5,-455.5942687988281,0.07380000501871109,0,0.0,0.0,,,,,0,,1,,
Raw,10796309,11029881000000,,,-1287378671552259328,0.0,195.3380269696936,-9.226264484801153,19.184158404195177,7,32,0.0,15,375301357962571,24,25.5,-317.2504577636719,0.4223000109195709,0,0.0,0.0,,,,,0,,1,,
Raw,10796309,11029881000000,,,-1287378671552259328,0.0,195.3380269696936,-9.226264484801153,19.184158404195177,7,21,0.0,15,375287348034500,61,18.7,-534.6859741210938,0.9434999823570251,0,0.0,0.0,,,,,0,,5,,
Raw,10796310,11029881000000,,,-1287378671552259328,0.0,195.3380269696936,-9.226264484801153,19.184158404195177,7,26,0.0,7183,375301346028381,10,34.3,375.6571960449219,0.04910000041127205,0,0.0,0.0,,,,,0,,6,,
Raw,10796310,11029881000000,,,-1287378671552259328,0.0,195.3380269696936,-9.226264484801153,19.184158404195177,7,33,0.0,7183,375301340455638,12,32.7,142.74169921875,0.06289999932050705,0,0.0,0.0,,,,,0,,6,,
Fix,gps,22.925405,120.294911,38.760803,0.460000,18.224001,1603354484000
NMEA,$GPGSV,3,2,11,15,11,092,,18,16,189,,20,68,165,,21,05,305,*77,1603354483415
NMEA,$GPGSV,3,3,11,23,75,146,,24,20,040,,25,54,136,*4B,1603354483417
NMEA,$GLGSV,1,1,01,79,21,208,24*55,1603354483417
NMEA,$GAGSV,2,1,07,26,18,234,34,33,11,284,33,07,56,033,,13,04,185,*63,1603354483418
NMEA,$GAGSV,2,2,07,21,15,202,,27,62,167,,30,47,053,*5F,1603354483419
NMEA,$PQGSV,1,1,0,*73,1603354483419
NMEA,$PQGSV,4,1,16,21,16,319,19,01,51,130,,02,41,241,,03,59,202,,0,4*66,1603354483420
NMEA,$PQGSV,4,2,16,04,37,115,,05,17,258,,06,53,358,,07,42,167,,0,4*6C,1603354483420
NMEA,$PQGSV,4,3,16,08,28,196,,09,44,317,,10,23,189,,13,40,224,,0,4*69,1603354483420
NMEA,$PQGSV,4,4,16,16,51,350,,19,47,109,,20,02,127,,22,63,352,,0,4*6F,1603354483421
NMEA,$GNGSA,A,2,31,32,,,,,,,,,,,3.6,3.4,1.0,1*30,1603354483421
NMEA,$GNGSA,A,2,79,,,,,,,,,,,,3.6,3.4,1.0,2*3E,1603354483421
NMEA,$GNGSA,A,2,01,26,,,,,,,,,,,3.6,3.4,1.0,3*34,1603354483422
NMEA,$GNVTG,84.2,T,84.2,M,0.9,N,1.7,K,A*32,1603354483422
NMEA,$GNRMC,081444.00,A,2255.524307,N,12017.694657,E,0.9,84.2,221020,2.8,W,A*07,1603354483422
NMEA,$GNGGA,081444.00,2255.524307,N,12017.694657,E,1,05,3.4,21.3,M,17.5,M,,*43,1603354483422
Raw,10797316,11030881000000,,,-1287378671552259328,0.0,185.4192523751408,-8.989764482345377,19.05883360297453,7,15,0.0,207,40484358915178,24,25.0,-718.8187255859375,0.6237999796867371,0,0.0,0.0,,,,,0,,3,,
Raw,10797317,11030881000000,,,-1287378671552259328,0.0,185.4192523751408,-8.989764482345377,19.05883360297453,7,31,0.0,15,375302357043899,24,25.8,-455.0068359375,0.4223000109195709,0,0.0,0.0,,,,,0,,1,,
Raw,10797318,11030881000000,,,-1287378671552259328,0.0,185.4192523751408,-8.989764482345377,19.05883360297453,7,32,0.0,15,375302357963610,21,26.2,-316.696533203125,0.1517000049352646,0,0.0,0.0,,,,,0,,1,,
Raw,10797318,11030881000000,,,-1287378671552259328,0.0,185.4192523751408,-8.989764482345377,19.05883360297453,7,21,0.0,15,375288348036297,53,19.6,-532.8231811523438,0.8734999895095825,0,0.0,0.0,,,,,0,,5,,
Raw,10797319,11030881000000,,,-1287378671552259328,0.0,185.4192523751408,-8.989764482345377,19.05883360297453,7,26,0.0,7183,375302346027125,11,33.3,376.53424072265625,0.04990000277757645,0,0.0,0.0,,,,,0,,6,,
Raw,10797320,11030881000000,,,-1287378671552259328,0.0,185.4192523751408,-8.989764482345377,19.05883360297453,7,33,0.0,7183,375302340455158,12,32.4,143.83340454101562,0.06289999932050705,0,0.0,0.0,,,,,0,,6,,
Fix,gps,22.925408,120.294921,36.432800,0.000000,18.224001,1603354485000
NMEA,$GPGSV,3,1,11,31,25,243,26,32,31,316,26,10,69,320,,12,42,075,*74,1603354484416
NMEA,$GPGSV,3,2,11,15,11,092,,18,16,189,,20,68,165,,21,05,305,*77,1603354484416
NMEA,$GPGSV,3,3,11,23,75,146,,24,20,040,,25,54,136,*4B,1603354484416
NMEA,$GLGSV,1,1,01,79,21,208,25*54,1603354484417
NMEA,$GAGSV,2,1,07,26,18,234,33,33,11,284,32,07,56,033,,13,04,185,*65,1603354484418
NMEA,$GAGSV,2,2,07,21,15,202,,27,62,167,,30,47,053,*5F,1603354484418
NMEA,$PQGSV,1,1,0,*73,1603354484418
NMEA,$PQGSV,4,1,16,21,16,319,20,01,51,130,,02,41,241,,03,59,202,,0,4*6C,1603354484419
NMEA,$PQGSV,4,2,16,04,37,115,,05,17,258,,06,53,358,,07,42,167,,0,4*6C,1603354484419
NMEA,$PQGSV,4,3,16,08,28,196,,09,44,317,,10,23,189,,13,40,224,,0,4*69,1603354484419
NMEA,$PQGSV,4,4,16,16,51,350,,19,47,109,,20,02,127,,22,63,352,,0,4*6F,1603354484419
NMEA,$GNGSA,A,2,31,32,,,,,,,,,,,3.6,3.4,1.0,1*30,1603354484420
NMEA,$GNGSA,A,2,79,,,,,,,,,,,,3.6,3.4,1.0,2*3E,1603354484420
NMEA,$GNGSA,A,2,01,26,,,,,,,,,,,3.6,3.4,1.0,3*34,1603354484420
NMEA,$GNVTG,,T,,M,0.0,N,0.0,K,A*3D,1603354484421
NMEA,$GNRMC,081445.00,A,2255.524452,N,12017.695264,E,0.0,,221020,2.8,W,A*1D,1603354484421
NMEA,$GNGGA,081445.00,2255.524452,N,12017.695264,E,1,05,3.4,19.0,M,17.5,M,,*48,1603354484421
Raw,10798342,11031881000000,,,-1287378671552259328,0.0,181.92458082921803,-6.061517807914498,17.6386152211548,7,15,0.0,207,40485358917567,27,24.9,-718.5849609375,0.8585000038146973,0,0.0,0.0,,,,,0,,3,,
Raw,10798342,11031881000000,,,-1287378671552259328,0.0,181.92458082921803,-6.061517807914498,17.6386152211548,7,31,0.0,15,375303357045407,21,26.7,-454.61932373046875,0.1517000049352646,0,0.0,0.0,,,,,0,,1,,
Raw,10798343,11031881000000,,,-1287378671552259328,0.0,181.92458082921803,-6.061517807914498,17.6386152211548,7,32,0.0,15,375303357964662,21,26.3,-316.408203125,0.1517000049352646,0,0.0,0.0,,,,,0,,1,,
Raw,10798344,11031881000000,,,-1287378671552259328,0.0,181.92458082921803,-6.061517807914498,17.6386152211548,7,21,0.0,15,375289348038096,46,20.3,-532.861572265625,0.8134999871253967,0,0.0,0.0,,,,,0,,5,,
Raw,10798345,11031881000000,,,-1287378671552259328,0.0,181.92458082921803,-6.061517807914498,17.6386152211548,7,26,0.0,7183,375303346025878,11,33.8,376.9933166503906,0.04990000277757645,0,0.0,0.0,,,,,0,,6,,
Raw,10798345,11031881000000,,,-1287378671552259328,0.0,181.92458082921803,-6.061517807914498,17.6386152211548,7,33,0.0,7183,375303340454682,12,32.7,144.51759338378906,0.06289999932050705,0,0.0,0.0,,,,,0,,6,,
Fix,gps,22.925409,120.294943,34.502319,0.000000,17.152000,1603354486000
NMEA,$GPGSV,3,1,11,31,25,243,27,32,31,316,26,10,69,320,,12,42,075,*75,1603354485421
NMEA,$GPGSV,3,2,11,15,11,092,,18,16,189,,20,68,165,,21,05,305,*77,1603354485426
NMEA,$GPGSV,3,3,11,23,75,146,,24,20,040,,25,54,136,*4B,1603354485427
NMEA,$GLGSV,1,1,01,79,21,208,25*54,1603354485431
NMEA,$GAGSV,2,1,07,26,18,234,34,33,11,284,33,07,56,033,,13,04,185,*63,1603354485432
NMEA,$GAGSV,2,2,07,21,15,202,,27,62,167,,30,47,053,*5F,1603354485433
NMEA,$PQGSV,1,1,0,*73,1603354485434
NMEA,$PQGSV,4,1,16,21,16,319,20,01,51,130,,02,41,241,,03,59,202,,0,4*6C,1603354485435
NMEA,$PQGSV,4,2,16,04,37,115,,05,17,258,,06,53,358,,07,42,167,,0,4*6C,1603354485436
NMEA,$PQGSV,4,3,16,08,28,196,,09,44,317,,10,23,189,,13,40,224,,0,4*69,1603354485437
NMEA,$PQGSV,4,4,16,16,51,350,,19,47,109,,20,02,127,,22,63,352,,0,4*6F,1603354485438
NMEA,$GNGSA,A,2,31,32,,,,,,,,,,,3.6,3.4,1.0,1*30,1603354485441
NMEA,$GNGSA,A,2,79,,,,,,,,,,,,3.6,3.4,1.0,2*3E,1603354485442
NMEA,$GNGSA,A,2,01,26,,,,,,,,,,,3.6,3.4,1.0,3*34,1603354485442
NMEA,$GNVTG,,T,,M,0.0,N,0.0,K,A*3D,1603354485443
NMEA,$GNRMC,081446.00,A,2255.524568,N,12017.696588,E,0.0,,221020,2.8,W,A*10,1603354485444
NMEA,$GNGGA,081446.00,2255.524568,N,12017.696588,E,1,05,3.4,17.0,M,17.5,M,,*4B,1603354485445
Raw,10799735,11032881000000,,,-1287378671552259328,0.0,181.7769807530567,-4.730328499250045,18.586469821083917,7,15,0.0,207,40486358919883,27,24.4,-717.9580078125,0.8585000038146973,0,0.0,0.0,,,,,0,,3,,
Raw,10799735,11032881000000,,,-1287378671552259328,0.0,181.7769807530567,-4.730328499250045,18.586469821083917,7,31,0.0,15,375304357046966,21,26.9,-454.626953125,0.1517000049352646,0,0.0,0.0,,,,,0,,1,,
Raw,10799736,11032881000000,,,-1287378671552259328,0.0,181.7769807530567,-4.730328499250045,18.586469821083917,7,32,0.0,15,375304357965718,24,25.9,-316.58477783203125,0.4223000109195709,0,0.0,0.0,,,,,0,,1,,
Raw,10799736,11032881000000,,,-1287378671552259328,0.0,181.7769807530567,-4.730328499250045,18.586469821083917,7,21,0.0,15,375290348039800,61,18.8,-532.4678955078125,0.8734999895095825,0,0.0,0.0,,,,,0,,5,,
Raw,10799736,11032881000000,,,-1287378671552259328,0.0,181.7769807530567,-4.730328499250045,18.586469821083917,7,26,0.0,7183,375304346024615,11,33.8,377.73577880859375,0.04990000277757645,0,0.0,0.0,,,,,0,,6,,
Raw,10799737,11032881000000,,,-1287378671552259328,0.0,181.7769807530567,-4.730328499250045,18.586469821083917,7,33,0.0,7183,375304340454198,12,32.6,144.81216430664062,0.06289999932050705,0,0.0,0.0,,,,,0,,6,,
Fix,gps,22.925413,120.294944,35.498779,0.450000,18.224001,1603354487000
NMEA,$GPGSV,3,1,11,31,25,243,27,32,31,316,26,10,69,320,,12,42,075,*75,1603354486420
NMEA,$GPGSV,3,2,11,15,11,092,,18,16,189,,20,68,165,,21,05,305,*77,1603354486423
NMEA,$GPGSV,3,3,11,23,75,146,,24,20,040,,25,54,136,*4B,1603354486425
NMEA,$GLGSV,1,1,01,79,21,208,24*55,1603354486426
NMEA,$GAGSV,2,1,07,26,18,234,34,33,11,284,33,07,56,033,,13,04,185,*63,1603354486427
NMEA,$GAGSV,2,2,07,21,15,202,,27,62,167,,30,47,053,*5F,1603354486429
NMEA,$PQGSV,1,1,0,*73,1603354486430
NMEA,$PQGSV,4,1,16,21,16,319,19,01,51,130,,02,41,241,,03,59,202,,0,4*66,1603354486433
NMEA,$PQGSV,4,2,16,04,37,115,,05,17,258,,06,53,358,,07,42,167,,0,4*6C,1603354486434
NMEA,$PQGSV,4,3,16,08,28,196,,09,44,317,,10,23,189,,13,40,224,,0,4*69,1603354486439
NMEA,$PQGSV,4,4,16,16,51,350,,19,47,109,,20,02,127,,22,63,352,,0,4*6F,1603354486441
NMEA,$GNGSA,A,2,31,32,,,,,,,,,,,3.6,3.4,1.0,1*30,1603354486443
NMEA,$GNGSA,A,2,79,,,,,,,,,,,,3.6,3.4,1.0,2*3E,1603354486443
NMEA,$GNGSA,A,2,01,26,,,,,,,,,,,3.6,3.4,1.0,3*34,1603354486444
NMEA,$GNVTG,24.1,T,24.1,M,0.9,N,1.6,K,A*33,1603354486445
NMEA,$GNRMC,081447.00,A,2255.524766,N,12017.696659,E,0.9,24.1,221020,2.8,W,A*02,1603354486445
NMEA,$GNGGA,081447.00,2255.524766,N,12017.696659,E,1,05,3.4,18.0,M,17.5,M,,*46,1603354486446
Raw,10800332,11033881000000,,,-1287378671552259328,0.0,185.0019907578826,-2.5647760413271867,18.455738714742903,7,15,0.0,207,40487358922310,24,25.4,-717.5885009765625,0.6237999796867371,0,0.0,0.0,,,,,0,,3,,
Raw,10800333,11033881000000,,,-1287378671552259328,0.0,185.0019907578826,-2.5647760413271867,18.455738714742903,7,31,0.0,15,375305357048443,21,26.0,-453.80255126953125,0.1517000049352646,0,0.0,0.0,,,,,0,,1,,
Raw,10800333,11033881000000,,,-1287378671552259328,0.0,185.0019907578826,-2.5647760413271867,18.455738714742903,7,32,0.0,15,375305357966768,24,25.9,-315.6133117675781,0.4223000109195709,0,0.0,0.0,,,,,0,,1,,
Raw,10800334,11033881000000,,,-1287378671552259328,0.0,185.0019907578826,-2.5647760413271867,18.455738714742903,7,21,0.0,15,375291348041482,46,20.4,-532.5255126953125,0.8134999871253967,0,0.0,0.0,,,,,0,,5,,
Raw,10800334,11033881000000,,,-1287378671552259328,0.0,185.0019907578826,-2.5647760413271867,18.455738714742903,7,26,0.0,7183,375305346023356,11,33.9,377.8756408691406,0.29350000619888306,0,0.0,0.0,,,,,0,,6,,
Raw,10800334,11033881000000,,,-1287378671552259328,0.0,185.0019907578826,-2.5647760413271867,18.455738714742903,7,33,0.0,7183,375305340453710,11,33.0,145.4129180908203,0.30550000071525574,0,0.0,0.0,,,,,0,,6,,
Fix,gps,22.925414,120.294941,35.049072,0.000000,16.080000,1603354488000
NMEA,$GPGSV,3,1,11,31,25,243,26,32,31,316,26,10,69,320,,12,42,075,*74,1603354487420
NMEA,$GPGSV,3,2,11,15,11,092,,18,16,189,,20,68,165,,21,05,305,*77,1603354487421
NMEA,$GPGSV,3,3,11,23,75,146,,24,20,040,,25,54,136,*4B,1603354487422
NMEA,$GLGSV,1,1,01,79,21,208,25*54,1603354487422
NMEA,$GAGSV,2,1,07,26,18,234,34,33,11,284,33,07,56,033,,13,04,185,*63,1603354487423
NMEA,$GAGSV,2,2,07,21,15,202,,27,62,167,,30,47,053,*5F,1603354487424
NMEA,$PQGSV,1,1,0,*73,1603354487425
NMEA,$PQGSV,4,1,16,21,16,319,20,01,51,130,,02,41,241,,03,59,202,,0,4*6C,1603354487425
NMEA,$PQGSV,4,2,16,04,37,115,,05,17,258,,06,53,358,,07,42,167,,0,4*6C,1603354487426
NMEA,$PQGSV,4,3,16,08,28,196,,09,44,317,,10,23,189,,13,40,224,,0,4*69,1603354487427
NMEA,$PQGSV,4,4,16,16,51,350,,19,47,109,,20,02,127,,22,63,352,,0,4*6F,1603354487427
NMEA,$GNGSA,A,2,31,32,,,,,,,,,,,3.5,3.4,1.0,1*33,1603354487430
NMEA,$GNGSA,A,2,79,,,,,,,,,,,,3.5,3.4,1.0,2*3D,1603354487430
NMEA,$GNGSA,A,2,01,26,,,,,,,,,,,3.5,3.4,1.0,3*37,1603354487431
NMEA,$GNVTG,,T,,M,0.0,N,0.0,K,A*3D,1603354487432
NMEA,$GNRMC,081448.00,A,2255.524857,N,12017.696486,E,0.0,,221020,2.8,W,A*10,1603354487433
NMEA,$GNGGA,081448.00,2255.524857,N,12017.696486,E,1,05,3.4,17.6,M,17.5,M,,*4D,1603354487435
Raw,10801340,11034881000000,,,-1287378671552259328,0.0,169.0995995886624,-0.5064508716798062,16.908275728736864,7,15,0.0,207,40488358924748,31,23.5,-717.3966064453125,0.9084999561309814,0,0.0,0.0,,,,,0,,3,,
Raw,10801341,11034881000000,,,-1287378671552259328,0.0,169.0995995886624,-0.5064508716798062,16.908275728736864,7,31,0.0,15,375306357049954,19,27.9,-453.8451843261719,0.08180000633001328,0,0.0,0.0,,,,,0,,1,,
Raw,10801341,11034881000000,,,-1287378671552259328,0.0,169.0995995886624,-0.5064508716798062,16.908275728736864,7,32,0.0,15,375306357967864,21,26.7,-315.8464660644531,0.1517000049352646,0,0.0,0.0,,,,,0,,1,,
Raw,10801342,11034881000000,,,-1287378671552259328,0.0,169.0995995886624,-0.5064508716798062,16.908275728736864,7,21,0.0,15,375292348043258,54,20.4,-532.5255126953125,2.313500165939331,0,0.0,0.0,,,,,0,,5,,
Raw,10801342,11034881000000,,,-1287378671552259328,0.0,169.0995995886624,-0.5064508716798062,16.908275728736864,7,26,0.0,7183,375306346022094,10,34.1,378.510986328125,0.04910000041127205,0,0.0,0.0,,,,,0,,6,,
Raw,10801342,11034881000000,,,-1287378671552259328,0.0,169.0995995886624,-0.5064508716798062,16.908275728736864,7,33,0.0,7183,375306340453222,11,33.2,146.01771545410156,0.061900001019239426,0,0.0,0.0,,,,,0,,6,,
Fix,gps,22.925415,120.294946,34.690369,0.000000,16.080000,1603354489000
NMEA,$GPGSV,3,1,11,31,26,243,28,32,32,317,27,10,70,320,,12,42,074,*73,1603354488417
NMEA,$GPGSV,3,2,11,15,11,092,,18,16,189,,20,68,165,,21,05,305,*77,1603354488418
NMEA,$GPGSV,3,3,11,23,73,147,,24,19,040,,25,54,135,*45,1603354488419
NMEA,$GLGSV,1,1,01,79,21,208,24*55,1603354488420
NMEA,$GAGSV,2,1,07,26,18,234,34,33,11,284,33,07,56,033,,13,04,185,*63,1603354488420
NMEA,$GAGSV,2,2,07,21,15,202,,27,62,167,,30,47,053,*5F,1603354488420
NMEA,$PQGSV,1,1,0,*73,1603354488420
NMEA,$PQGSV,4,1,16,21,16,319,20,01,51,130,,02,41,241,,03,59,202,,0,4*6C,1603354488420
NMEA,$PQGSV,4,2,16,04,37,115,,05,17,258,,06,00,000,,07,42,167,,0,4*64,1603354488421
NMEA,$PQGSV,4,3,16,08,28,196,,09,44,319,,10,24,189,,13,39,224,,0,4*6E,1603354488421
NMEA,$PQGSV,4,4,16,16,51,350,,19,47,111,,20,01,127,,22,64,354,,0,4*64,1603354488421
NMEA,$GNGSA,A,2,31,32,,,,,,,,,,,3.5,3.4,1.0,1*33,1603354488422
NMEA,$GNGSA,A,2,79,,,,,,,,,,,,3.5,3.4,1.0,2*3D,1603354488422
NMEA,$GNGSA,A,2,01,26,,,,,,,,,,,3.5,3.4,1.0,3*37,1603354488422
NMEA,$GNVTG,,T,,M,0.0,N,0.0,K,A*3D,1603354488422
NMEA,$GNRMC,081449.00,A,2255.524910,N,12017.696754,E,0.0,,221020,2.8,W,A*1F,1603354488422
NMEA,$GNGGA,081449.00,2255.524910,N,12017.696754,E,1,05,3.4,17.2,M,17.5,M,,*46,1603354488423
NMEA,$GPGSV,3,1,11,31,26,243,28,32,32,317,27,10,70,320,,12,42,074,*73,1603354489422
Raw,10802321,11035881000000,,,-1287378671552259328,0.0,171.07681196648628,0.31874939860163615,16.994755933414538,7,15,0.0,207,40489358927162,27,24.2,-716.9568481445312,0.8585000038146973,0,0.0,0.0,,,,,0,,3,,
Raw,10802322,11035881000000,,,-1287378671552259328,0.0,171.07681196648628,0.31874939860163615,16.994755933414538,7,31,0.0,15,375307357051466,19,27.8,-453.6943359375,0.08180000633001328,0,0.0,0.0,,,,,0,,1,,
Raw,10802322,11035881000000,,,-1287378671552259328,0.0,171.07681196648628,0.31874939860163615,16.994755933414538,7,32,0.0,15,375307357968897,21,26.5,-315.7401123046875,0.1517000049352646,0,0.0,0.0,,,,,0,,1,,
Raw,10802323,11035881000000,,,-1287378671552259328,0.0,171.07681196648628,0.31874939860163615,16.994755933414538,7,21,0.0,15,375293348045173,73,17.3,-531.9302368164062,1.7735000848770142,0,0.0,0.0,,,,,0,,5,,
Raw,10802323,11035881000000,,,-1287378671552259328,0.0,171.07681196648628,0.31874939860163615,16.994755933414538,7,26,0.0,7183,375307346020839,11,33.3,378.1358947753906,0.04990000277757645,0,0.0,0.0,,,,,0,,6,,
Raw,10802324,11035881000000,,,-1287378671552259328,0.0,171.07681196648628,0.31874939860163615,16.994755933414538,7,33,0.0,7183,375307340452743,12,32.5,145.97604370117188,0.06289999932050705,0,0.0,0.0,,,,,0,,6,,
Fix,gps,22.925415,120.294955,33.711670,0.000000,16.080000,1603354490000
NMEA,$GPGSV,3,2,11,15,11,092,,18,16,189,,20,68,165,,21,05,305,*77,1603354489422
NMEA,$GPGSV,3,3,11,23,73,147,,24,19,040,,25,54,135,*45,1603354489423
NMEA,$GLGSV,1,1,01,79,21,208,24*55,1603354489425
NMEA,$GAGSV,2,1,07,26,18,234,33,33,11,284,33,07,56,033,,13,04,185,*64,1603354489425
NMEA,$GAGSV,2,2,07,21,15,202,,27,62,167,,30,47,053,*5F,1603354489432
NMEA,$PQGSV,1,1,0,*73,1603354489434
NMEA,$PQGSV,4,1,16,21,16,319,17,01,51,130,,02,41,241,,03,59,202,,0,4*68,1603354489434
NMEA,$PQGSV,4,2,16,04,37,115,,05,17,258,,06,00,000,,07,42,167,,0,4*64,1603354489435
NMEA,$PQGSV,4,3,16,08,28,196,,09,44,319,,10,24,189,,13,39,224,,0,4*6E,1603354489435
NMEA,$PQGSV,4,4,16,16,51,350,,19,47,111,,20,01,127,,22,64,354,,0,4*64,1603354489435
NMEA,$GNGSA,A,2,31,32,,,,,,,,,,,3.5,3.4,1.0,1*33,1603354489436
NMEA,$GNGSA,A,2,79,,,,,,,,,,,,3.5,3.4,1.0,2*3D,1603354489436
NMEA,$GNGSA,A,2,01,26,,,,,,,,,,,3.5,3.4,1.0,3*37,1603354489437
NMEA,$GNVTG,,T,,M,0.0,N,0.0,K,A*3D,1603354489437
NMEA,$GNRMC,081450.00,A,2255.524923,N,12017.697301,E,0.0,,221020,2.8,W,A*12,1603354489437
NMEA,$GNGGA,081450.00,2255.524923,N,12017.697301,E,1,05,3.4,16.2,M,17.5,M,,*4A,1603354489437
Raw,10803328,11036881000000,,,-1287378671552259328,0.0,175.46111484989524,-0.8300980194769125,19.166829279662554,7,15,0.0,207,40490358929425,27,24.4,-716.8164672851562,0.8585000038146973,0,0.0,0.0,,,,,0,,3,,
Raw,10803328,11036881000000,,,-1287378671552259328,0.0,175.46111484989524,-0.8300980194769125,19.166829279662554,7,31,0.0,15,375308357052987,16,29.6,-453.52423095703125,0.06720000505447388,0,0.0,0.0,,,,,0,,1,,
Raw,10803329,11036881000000,,,-1287378671552259328,0.0,175.46111484989524,-0.8300980194769125,19.166829279662554,7,32,0.0,15,375308357969970,24,25.1,-315.6195373535156,0.4223000109195709,0,0.0,0.0,,,,,0,,1,,
Raw,10803329,11036881000000,,,-1287378671552259328,0.0,175.46111484989524,-0.8300980194769125,19.166829279662554,7,21,0.0,15,375294348046947,87,17.3,-531.9302368164062,3.2735002040863037,0,0.0,0.0,,,,,0,,5,,
Raw,10803330,11036881000000,,,-1287378671552259328,0.0,175.46111484989524,-0.8300980194769125,19.166829279662554,7,26,0.0,7183,375308346019572,11,33.4,377.6478576660156,0.04990000277757645,0,0.0,0.0,,,,,0,,6,,
Raw,10803331,11036881000000,,,-1287378671552259328,0.0,175.46111484989524,-0.8300980194769125,19.166829279662554,7,33,0.0,7183,375308340452253,11,33.0,145.40480041503906,0.061900001019239426,0,0.0,0.0,,,,,0,,6,,
Fix,gps,22.925417,120.294957,45.827393,0.000000,17.152000,1603354491000
NMEA,$GPGSV,3,1,11,31,26,243,30,32,32,317,25,10,70,320,,12,42,074,*78,1603354490425
NMEA,$GPGSV,3,2,11,15,11,092,,18,16,189,,20,68,165,,21,05,305,*77,1603354490426
NMEA,$GPGSV,3,3,11,23,73,147,,24,19,040,,25,54,135,*45,1603354490428
NMEA,$GLGSV,1,1,01,79,21,208,24*55,1603354490429
NMEA,$GAGSV,2,1,07,26,18,234,33,33,11,284,33,07,56,033,,13,04,185,*64,1603354490432
NMEA,$GAGSV,2,2,07,21,15,202,,27,62,167,,30,47,053,*5F,1603354490436
NMEA,$PQGSV,1,1,0,*73,1603354490437
NMEA,$PQGSV,4,1,16,21,16,319,17,01,51,130,,02,41,241,,03,59,202,,0,4*68,1603354490438
NMEA,$PQGSV,4,2,16,04,37,115,,05,17,258,,06,00,000,,07,42,167,,0,4*64,1603354490439
NMEA,$PQGSV,4,3,16,08,28,196,,09,44,319,,10,24,189,,13,39,224,,0,4*6E,1603354490439
NMEA,$PQGSV,4,4,16,16,51,350,,19,47,111,,20,01,127,,22,64,354,,0,4*64,1603354490441
NMEA,$GNGSA,A,2,31,32,,,,,,,,,,,3.5,3.4,1.0,1*33,1603354490445
NMEA,$GNGSA,A,2,79,,,,,,,,,,,,3.5,3.4,1.0,2*3D,1603354490447
NMEA,$GNGSA,A,2,01,26,,,,,,,,,,,3.5,3.4,1.0,3*37,1603354490448
NMEA,$GNVTG,,T,,M,0.0,N,0.0,K,A*3D,1603354490448
NMEA,$GNRMC,081451.00,A,2255.525032,N,12017.697403,E,0.0,,221020,2.8,W,A*1E,1603354490449
NMEA,$GNGGA,081451.00,2255.525032,N,12017.697403,E,1,05,3.4,28.4,M,17.5,M,,*4D,1603354490450
Raw,10804659,11037881000000,,,-1287378671552259328,0.0,186.39274640008807,-2.2431360777512723,20.12719520529829,7,15,0.0,207,40491358931997,35,22.4,-717.4434204101562,0.9684999585151672,0,0.0,0.0,,,,,0,,3,,
Raw,10804662,11037881000000,,,-1287378671552259328,0.0,186.39274640008807,-2.2431360777512723,20.12719520529829,7,31,0.0,15,375309357054528,17,28.0,-453.5779113769531,0.07380000501871109,0,0.0,0.0,,,,,0,,1,,
Raw,10804665,11037881000000,,,-1287378671552259328,0.0,186.39274640008807,-2.2431360777512723,20.12719520529829,7,32,0.0,15,375309357971023,24,25.6,-315.8131408691406,0.4223000109195709,0,0.0,0.0,,,,,0,,1,,
Raw,10804667,11037881000000,,,-1287378671552259328,0.0,186.39274640008807,-2.2431360777512723,20.12719520529829,7,21,0.0,15,375295348048664,73,17.3,-532.3526611328125,1.7735000848770142,0,0.0,0.0,,,,,0,,5,,
Raw,10804670,11037881000000,,,-1287378671552259328,0.0,186.39274640008807,-2.2431360777512723,20.12719520529829,7,26,0.0,7183,375309346018315,11,33.0,378.69140625,0.04990000277757645,0,0.0,0.0,,,,,0,,6,,
Raw,10804673,11037881000000,,,-1287378671552259328,0.0,186.39274640008807,-2.2431360777512723,20.12719520529829,7,33,0.0,7183,375309340451765,11,33.2,146.3852996826172,0.061900001019239426,0,0.0,0.0,,,,,0,,6,,
NMEA,$GPGSV,3,1,11,31,26,243,28,32,32,317,26,10,70,320,,12,42,074,*72,1603354491425
NMEA,$GPGSV,3,2,11,15,11,092,,18,16,189,,20,68,165,,21,05,305,*77,1603354491426
NMEA,$GPGSV,3,3,11,23,73,147,,24,19,040,,25,54,135,*45,1603354491426
NMEA,$GLGSV,1,1,01,79,21,208,22*53,1603354491429
NMEA,$GAGSV,2,1,07,26,18,234,33,33,11,284,33,07,56,033,,13,04,185,*64,1603354491430
NMEA,$GAGSV,2,2,07,21,15,202,,27,62,167,,30,47,053,*5F,1603354491430
NMEA,$PQGSV,1,1,0,*73,1603354491432
NMEA,$PQGSV,4,1,16,21,16,319,17,01,51,130,,02,41,241,,03,59,202,,0,4*68,1603354491433
NMEA,$PQGSV,4,2,16,04,37,115,,05,17,258,,06,00,000,,07,42,167,,0,4*64,1603354491434
NMEA,$PQGSV,4,3,16,08,28,196,,09,44,319,,10,24,189,,13,39,224,,0,4*6E,1603354491436
NMEA,$PQGSV,4,4,16,16,51,350,,19,47,111,,20,01,127,,22,64,354,,0,4*64,1603354491445
NMEA,$GNGSA,A,2,31,32,,,,,,,,,,,3.5,3.4,1.0,1*33,1603354491447
NMEA,$GNGSA,A,2,79,,,,,,,,,,,,3.5,3.4,1.0,2*3D,1603354491448
NMEA,$GNGSA,A,2,01,26,,,,,,,,,,,3.5,3.4,1.0,3*37,1603354491449
NMEA,$GNVTG,,T,,M,0.0,N,0.0,K,A*3D,1603354491449
NMEA,$GNRMC,081452.00,A,2255.525052,N,12017.697758,E,0.0,,221020,2.8,W,A*16,1603354491451
NMEA,$GNGGA,081452.00,2255.525052,N,12017.697758,E,1,05,3.4,27.5,M,17.5,M,,*4B,1603354491452
Fix,gps,22.925418,120.294963,44.947998,0.000000,17.152000,1603354492000
NMEA,$GPGSV,3,1,11,31,26,243,30,32,32,317,24,10,70,320,,12,42,074,*79,1603354492419
Raw,10805336,11038881000000,,,-1287378671552259328,0.0,182.60891374666244,-0.4201985640764297,19.811674713085264,7,15,0.0,207,40492358934512,31,23.5,-716.4235229492188,0.9084999561309814,0,0.0,0.0,,,,,0,,3,,
Raw,10805339,11038881000000,,,-1287378671552259328,0.0,182.60891374666244,-0.4201985640764297,19.811674713085264,7,31,0.0,15,375310357056018,16,29.5,-453.02459716796875,0.06720000505447388,0,0.0,0.0,,,,,0,,1,,
Raw,10805341,11038881000000,,,-1287378671552259328,0.0,182.60891374666244,-0.4201985640764297,19.811674713085264,7,32,0.0,15,375310357972069,27,24.1,-315.54498291015625,0.7069999575614929,0,0.0,0.0,,,,,0,,1,,
Raw,10805344,11038881000000,,,-1287378671552259328,0.0,182.60891374666244,-0.4201985640764297,19.811674713085264,7,21,0.0,15,375296348050614,61,18.9,-531.4981079101562,0.8734999895095825,0,0.0,0.0,,,,,0,,5,,
Raw,10805346,11038881000000,,,-1287378671552259328,0.0,182.60891374666244,-0.4201985640764297,19.811674713085264,7,26,0.0,7183,375310346017051,11,33.4,377.71282958984375,0.04990000277757645,0,0.0,0.0,,,,,0,,6,,
Raw,10805351,11038881000000,,,-1287378671552259328,0.0,182.60891374666244,-0.4201985640764297,19.811674713085264,7,33,0.0,7183,375310340451286,11,33.0,145.45883178710938,0.061900001019239426,0,0.0,0.0,,,,,0,,6,,
Fix,gps,22.925416,120.294981,44.450073,0.000000,20.368000,1603354493000
NMEA,$GPGSV,3,2,11,15,11,092,,18,16,189,,20,68,165,,21,05,305,*77,1603354492423
NMEA,$GPGSV,3,3,11,23,73,147,,24,19,040,,25,54,135,*45,1603354492425
NMEA,$GLGSV,1,1,01,79,21,208,24*55,1603354492426
NMEA,$GAGSV,2,1,07,26,18,234,33,33,11,284,33,07,56,033,,13,04,185,*64,1603354492427
NMEA,$GAGSV,2,2,07,21,15,202,,27,62,167,,30,47,053,*5F,1603354492428
NMEA,$PQGSV,1,1,0,*73,1603354492430
NMEA,$PQGSV,4,1,16,21,16,319,19,01,51,130,,02,41,241,,03,59,202,,0,4*66,1603354492431
NMEA,$PQGSV,4,2,16,04,37,115,,05,17,258,,06,00,000,,07,42,167,,0,4*64,1603354492432
NMEA,$PQGSV,4,3,16,08,28,196,,09,44,319,,10,24,189,,13,39,224,,0,4*6E,1603354492434
NMEA,$PQGSV,4,4,16,16,51,350,,19,47,111,,20,01,127,,22,64,354,,0,4*64,1603354492435
NMEA,$GNGSA,A,2,31,32,,,,,,,,,,,3.5,3.4,1.0,1*33,1603354492436
NMEA,$GNGSA,A,2,79,,,,,,,,,,,,3.5,3.4,1.0,2*3D,1603354492436
NMEA,$GNGSA,A,2,01,26,,,,,,,,,,,3.5,3.4,1.0,3*37,1603354492436
NMEA,$GNVTG,,T,,M,0.0,N,0.0,K,A*3D,1603354492436
NMEA,$GNRMC,081453.00,A,2255.524966,N,12017.698879,E,0.0,,221020,2.8,W,A*1B,1603354492436
NMEA,$GNGGA,081453.00,2255.524966,N,12017.698879,E,1,05,3.4,27.0,M,17.5,M,,*43,1603354492437
Raw,10806341,11039881000000,,,-1287378671552259328,0.0,213.4339592885226,-4.227886081126726,20.598178383233485,7,15,0.0,207,40493358936641,31,23.6,-715.7872314453125,0.9084999561309814,0,0.0,0.0,,,,,0,,3,,
Raw,10806342,11039881000000,,,-1287378671552259328,0.0,213.4339592885226,-4.227886081126726,20.598178383233485,7,31,0.0,15,375311357057521,16,29.0,-452.48309326171875,0.06720000505447388,0,0.0,0.0,,,,,0,,1,,
Raw,10806344,11039881000000,,,-1287378671552259328,0.0,213.4339592885226,-4.227886081126726,20.598178383233485,7,32,0.0,15,375311357973111,27,24.4,-314.5554504394531,0.7069999575614929,0,0.0,0.0,,,,,0,,1,,
Raw,10806344,11039881000000,,,-1287378671552259328,0.0,213.4339592885226,-4.227886081126726,20.598178383233485,7,21,0.0,15,375297348052222,53,19.1,-531.7765502929688,0.8734999895095825,0,0.0,0.0,,,,,0,,5,,
Raw,10806345,11039881000000,,,-1287378671552259328,0.0,213.4339592885226,-4.227886081126726,20.598178383233485,7,26,0.0,7183,375311346015786,11,33.9,377.8587646484375,0.04990000277757645,0,0.0,0.0,,,,,0,,6,,
Raw,10806346,11039881000000,,,-1287378671552259328,0.0,213.4339592885226,-4.227886081126726,20.598178383233485,7,33,0.0,7183,375311340450802,12,32.7,146.06385803222656,0.06289999932050705,0,0.0,0.0,,,,,0,,6,,
Fix,gps,22.925417,120.294989,43.122253,0.680000,22.512001,1603354494000
NMEA,$GPGSV,3,1,11,31,26,243,29,32,32,317,24,10,70,320,,12,42,074,*71,1603354493422
NMEA,$GPGSV,3,2,11,15,11,092,,18,16,189,,20,68,165,,21,05,305,*77,1603354493423
NMEA,$GPGSV,3,3,11,23,73,147,,24,19,040,,25,54,135,*45,1603354493423
NMEA,$GLGSV,1,1,01,79,21,208,24*55,1603354493424
NMEA,$GAGSV,2,1,07,26,18,234,34,33,11,284,33,07,56,033,,13,04,185,*63,1603354493425
NMEA,$GAGSV,2,2,07,21,15,202,,27,62,167,,30,47,053,*5F,1603354493426
NMEA,$PQGSV,1,1,0,*73,1603354493427
NMEA,$PQGSV,4,1,16,21,16,319,19,01,51,130,,02,41,241,,03,59,202,,0,4*66,1603354493427
NMEA,$PQGSV,4,2,16,04,37,115,,05,17,258,,06,00,000,,07,42,167,,0,4*64,1603354493430
NMEA,$PQGSV,4,3,16,08,28,196,,09,44,319,,10,24,189,,13,39,224,,0,4*6E,1603354493430
NMEA,$PQGSV,4,4,16,16,51,350,,19,47,111,,20,01,127,,22,64,354,,0,4*64,1603354493431
NMEA,$GNGSA,A,2,31,32,,,,,,,,,,,3.5,3.4,1.0,1*33,1603354493433
NMEA,$GNGSA,A,2,79,,,,,,,,,,,,3.5,3.4,1.0,2*3D,1603354493434
NMEA,$GNGSA,A,2,01,26,,,,,,,,,,,3.5,3.4,1.0,3*37,1603354493435
NMEA,$GNVTG,59.6,T,59.6,M,1.3,N,2.4,K,A*39,1603354493436
NMEA,$GNRMC,081454.00,A,2255.525042,N,12017.699337,E,1.3,59.6,221020,2.8,W,A*04,1603354493436
NMEA,$GNGGA,081454.00,2255.525042,N,12017.699337,E,1,05,3.4,25.7,M,17.5,M,,*4F,1603354493437
Raw,10807398,11040881000000,,,-1287378671552259328,0.0,216.6447666240856,-2.669062537803179,20.261008812175714,7,15,0.0,207,40494358939175,31,23.8,-716.6293334960938,0.9084999561309814,0,0.0,0.0,,,,,0,,3,,
Raw,10807398,11040881000000,,,-1287378671552259328,0.0,216.6447666240856,-2.669062537803179,20.261008812175714,7,31,0.0,15,375312357059055,17,28.8,-452.9161682128906,0.07380000501871109,0,0.0,0.0,,,,,0,,1,,
Raw,10807399,11040881000000,,,-1287378671552259328,0.0,216.6447666240856,-2.669062537803179,20.261008812175714,7,32,0.0,15,375312357974138,27,24.8,-315.1263122558594,0.6570000052452087,0,0.0,0.0,,,,,0,,1,,
Raw,10807399,11040881000000,,,-1287378671552259328,0.0,216.6447666240856,-2.669062537803179,20.261008812175714,7,21,0.0,15,375298348054048,70,17.5,-531.3636474609375,1.0234999656677246,0,0.0,0.0,,,,,0,,5,,
Raw,10807399,11040881000000,,,-1287378671552259328,0.0,216.6447666240856,-2.669062537803179,20.261008812175714,7,26,0.0,7183,375312346014529,11,33.8,379.6242370605469,0.04990000277757645,0,0.0,0.0,,,,,0,,6,,
Raw,10807400,11040881000000,,,-1287378671552259328,0.0,216.6447666240856,-2.669062537803179,20.261008812175714,7,33,0.0,7183,375312340450298,11,33.0,147.7913055419922,0.061900001019239426,0,0.0,0.0,,,,,0,,6,,
Fix,gps,22.925416,120.295012,41.930420,1.440000,23.584000,1603354495000
NMEA,$GPGSV,3,1,11,31,26,243,29,32,32,317,25,10,70,320,,12,42,074,*70,1603354494416
NMEA,$GPGSV,3,2,11,15,11,092,,18,16,189,,20,68,165,,21,05,305,*77,1603354494418
NMEA,$GPGSV,3,3,11,23,73,147,,24,19,040,,25,54,135,*45,1603354494418
NMEA,$GLGSV,1,1,01,79,21,208,24*55,1603354494418
NMEA,$GAGSV,2,1,07,26,18,234,34,33,11,284,33,07,56,033,,13,04,185,*63,1603354494418
NMEA,$GAGSV,2,2,07,21,15,202,,27,62,167,,30,47,053,*5F,1603354494418
NMEA,$PQGSV,1,1,0,*73,1603354494420
NMEA,$PQGSV,4,1,16,21,16,319,18,01,51,130,,02,41,241,,03,59,202,,0,4*67,1603354494420
NMEA,$PQGSV,4,2,16,04,37,115,,05,17,258,,06,00,000,,07,42,167,,0,4*64,1603354494421
NMEA,$PQGSV,4,3,16,08,28,196,,09,44,319,,10,24,189,,13,39,224,,0,4*6E,1603354494421
NMEA,$PQGSV,4,4,16,16,51,350,,19,47,111,,20,01,127,,22,64,354,,0,4*64,1603354494421
NMEA,$GNGSA,A,2,31,32,,,,,,,,,,,3.5,3.4,1.0,1*33,1603354494422
NMEA,$GNGSA,A,2,79,,,,,,,,,,,,3.5,3.4,1.0,2*3D,1603354494422
NMEA,$GNGSA,A,2,01,26,,,,,,,,,,,3.5,3.4,1.0,3*37,1603354494422
NMEA,$GNVTG,84.1,T,84.1,M,2.8,N,5.2,K,A*30,1603354494423
NMEA,$GNRMC,081455.00,A,2255.524984,N,12017.700743,E,2.8,84.1,221020,2.8,W,A*0E,1603354494423
NMEA,$GNGGA,081455.00,2255.524984,N,12017.700743,E,1,05,3.4,24.5,M,17.5,M,,*49,1603354494423
Raw,10808341,11041881000000,,,-1287378671552259328,0.0,228.49619563203305,0.31245981213803103,21.805284320846884,7,15,0.0,207,40495358941426,31,23.5,-716.1802368164062,0.9084999561309814,0,0.0,0.0,,,,,0,,3,,
Raw,10808343,11041881000000,,,-1287378671552259328,0.0,228.49619563203305,0.31245981213803103,21.805284320846884,7,31,0.0,15,375313357060525,14,30.0,-452.6835632324219,0.06630000472068787,0,0.0,0.0,,,,,0,,1,,
Raw,10808344,11041881000000,,,-1287378671552259328,0.0,228.49619563203305,0.31245981213803103,21.805284320846884,7,32,0.0,15,375313357975182,27,24.2,-315.26904296875,0.7069999575614929,0,0.0,0.0,,,,,0,,1,,
Raw,10808345,11041881000000,,,-1287378671552259328,0.0,228.49619563203305,0.31245981213803103,21.805284320846884,7,21,0.0,15,375299348055762,61,18.7,-531.0756225585938,0.9434999823570251,0,0.0,0.0,,,,,0,,5,,
Raw,10808346,11041881000000,,,-1287378671552259328,0.0,228.49619563203305,0.31245981213803103,21.805284320846884,7,26,0.0,7183,375313346013265,11,33.5,377.97119140625,0.04990000277757645,0,0.0,0.0,,,,,0,,6,,
Raw,10808347,11041881000000,,,-1287378671552259328,0.0,228.49619563203305,0.31245981213803103,21.805284320846884,7,33,0.0,7183,375313340449814,12,32.9,145.9359130859375,0.06289999932050705,0,0.0,0.0,,,,,0,,6,,
Fix,gps,22.925415,120.295021,40.733459,0.370000,25.728001,1603354496000
NMEA,$GPGSV,3,1,11,31,26,243,30,32,32,317,24,10,70,320,,12,42,074,*79,1603354495420
NMEA,$GPGSV,3,2,11,15,11,092,,18,16,189,,20,68,165,,21,05,305,*77,1603354495420
NMEA,$GPGSV,3,3,11,23,73,147,,24,19,040,,25,54,135,*45,1603354495421
NMEA,$GLGSV,1,1,01,79,21,208,24*55,1603354495421
NMEA,$GAGSV,2,1,07,26,18,234,34,33,11,284,33,07,56,033,,13,04,185,*63,1603354495422
NMEA,$GAGSV,2,2,07,21,15,202,,27,62,167,,30,47,053,*5F,1603354495422
NMEA,$PQGSV,1,1,0,*73,1603354495426
NMEA,$PQGSV,4,1,16,21,16,319,19,01,51,130,,02,41,241,,03,59,202,,0,4*66,1603354495427
NMEA,$PQGSV,4,2,16,04,37,115,,05,17,258,,06,00,000,,07,42,167,,0,4*64,1603354495428
NMEA,$PQGSV,4,3,16,08,28,196,,09,44,319,,10,24,189,,13,39,224,,0,4*6E,1603354495430
NMEA,$PQGSV,4,4,16,16,51,350,,19,47,111,,20,01,127,,22,64,354,,0,4*64,1603354495431
NMEA,$GNGSA,A,2,31,32,,,,,,,,,,,3.5,3.4,1.0,1*33,1603354495434
NMEA,$GNGSA,A,2,79,,,,,,,,,,,,3.5,3.4,1.0,2*3D,1603354495435
NMEA,$GNGSA,A,2,01,26,,,,,,,,,,,3.5,3.4,1.0,3*37,1603354495435
NMEA,$GNVTG,92.9,T,92.9,M,0.7,N,1.3,K,A*38,1603354495436
NMEA,$GNRMC,081456.00,A,2255.524886,N,12017.701287,E,0.7,92.9,221020,2.8,W,A*00,1603354495437
NMEA,$GNGGA,081456.00,2255.524886,N,12017.701287,E,1,05,3.4,23.3,M,17.5,M,,*44,1603354495438
Raw,10809691,11042881000000,,,-1287378671552259328,0.0,233.93907758872956,-1.661293424255085,19.969057201773097,7,15,0.0,207,40496358943991,40,21.7,-715.394287109375,1.028499960899353,0,0.0,0.0,,,,,0,,3,,
Raw,10809693,11042881000000,,,-1287378671552259328,0.0,233.93907758872956,-1.661293424255085,19.969057201773097,7,31,0.0,15,375314357062059,16,29.8,-452.39129638671875,0.06720000505447388,0,0.0,0.0,,,,,0,,1,,
Raw,10809696,11042881000000,,,-1287378671552259328,0.0,233.93907758872956,-1.661293424255085,19.969057201773097,7,32,0.0,15,375314357976229,21,26.7,-314.975830078125,0.1517000049352646,0,0.0,0.0,,,,,0,,1,,
Raw,10809699,11042881000000,,,-1287378671552259328,0.0,233.93907758872956,-1.661293424255085,19.969057201773097,7,21,0.0,15,375300348057631,70,17.8,-530.9124145507812,0.9434999823570251,0,0.0,0.0,,,,,0,,5,,
Raw,10809701,11042881000000,,,-1287378671552259328,0.0,233.93907758872956,-1.661293424255085,19.969057201773097,7,26,0.0,7183,375314346012007,12,32.4,378.7148742675781,0.05090000107884407,0,0.0,0.0,,,,,0,,6,,
Raw,10809707,11042881000000,,,-1287378671552259328,0.0,233.93907758872956,-1.661293424255085,19.969057201773097,7,33,0.0,7183,375314340449320,12,32.9,146.99658203125,0.06289999932050705,0,0.0,0.0,,,,,0,,6,,
Fix,gps,22.925410,120.295033,39.221741,0.760000,24.656000,1603354497000
NMEA,$GPGSV,3,1,11,31,26,243,30,32,32,317,27,10,70,320,,12,42,074,*7A,1603354496431
NMEA,$GPGSV,3,2,11,15,11,092,,18,16,189,,20,68,165,,21,05,305,*77,1603354496432
NMEA,$GPGSV,3,3,11,23,73,147,,24,19,040,,25,54,135,*45,1603354496432
NMEA,$GLGSV,1,1,01,79,21,208,22*53,1603354496433
NMEA,$GAGSV,2,1,07,26,18,234,32,33,11,284,33,07,56,033,,13,04,185,*65,1603354496434
NMEA,$GAGSV,2,2,07,21,15,202,,27,62,167,,30,47,053,*5F,1603354496434
NMEA,$PQGSV,1,1,0,*73,1603354496435
NMEA,$PQGSV,4,1,16,21,16,319,18,01,51,130,,02,41,241,,03,59,202,,0,4*67,1603354496435
NMEA,$PQGSV,4,2,16,04,37,115,,05,17,258,,06,00,000,,07,42,167,,0,4*64,1603354496435
NMEA,$PQGSV,4,3,16,08,28,196,,09,44,319,,10,24,189,,13,39,224,,0,4*6E,1603354496435
NMEA,$PQGSV,4,4,16,16,51,350,,19,47,111,,20,01,127,,22,64,354,,0,4*64,1603354496435
NMEA,$GNGSA,A,2,31,32,,,,,,,,,,,3.5,3.4,1.0,1*33,1603354496442
NMEA,$GNGSA,A,2,79,,,,,,,,,,,,3.5,3.4,1.0,2*3D,1603354496443
NMEA,$GNGSA,A,2,01,26,,,,,,,,,,,3.5,3.4,1.0,3*37,1603354496443
NMEA,$GNVTG,95.0,T,95.0,M,1.5,N,2.7,K,A*3C,1603354496443
NMEA,$GNRMC,081457.00,A,2255.524617,N,12017.701984,E,1.5,95.0,221020,2.8,W,A*02,1603354496443
NMEA,$GNGGA,081457.00,2255.524617,N,12017.701984,E,1,05,3.4,21.8,M,17.5,M,,*42,1603354496443
Fix,gps,22.925408,120.295057,37.415649,1.140000,24.656000,1603354498000
Raw,10810363,11043881000000,,,-1287378671552259328,0.0,235.10360915679485,-0.23804704334757007,18.665585744294305,7,15,0.0,207,40497358946340,35,22.4,-715.4129638671875,0.9684999585151672,0,0.0,0.0,,,,,0,,3,,
Raw,10810365,11043881000000,,,-1287378671552259328,0.0,235.10360915679485,-0.23804704334757007,18.665585744294305,7,31,0.0,15,375315357063556,16,29.7,-451.9314880371094,0.06720000505447388,0,0.0,0.0,,,,,0,,1,,
Raw,10810368,11043881000000,,,-1287378671552259328,0.0,235.10360915679485,-0.23804704334757007,18.665585744294305,7,32,0.0,15,375315357977311,24,25.2,-314.5014953613281,0.4223000109195709,0,0.0,0.0,,,,,0,,1,,
Raw,10810370,11043881000000,,,-1287378671552259328,0.0,235.10360915679485,-0.23804704334757007,18.665585744294305,7,21,0.0,15,375301348059351,61,18.8,-530.7587280273438,0.8734999895095825,0,0.0,0.0,,,,,0,,5,,
Raw,10810372,11043881000000,,,-1287378671552259328,0.0,235.10360915679485,-0.23804704334757007,18.665585744294305,7,26,0.0,7183,375315346010740,12,32.1,379.440673828125,0.05090000107884407,0,0.0,0.0,,,,,0,,6,,
Raw,10810374,11043881000000,,,-1287378671552259328,0.0,235.10360915679485,-0.23804704334757007,18.665585744294305,7,33,0.0,7183,375315340448827,12,32.5,147.3417205810547,0.06289999932050705,0,0.0,0.0,,,,,0,,6,,
NMEA,$GPGSV,3,1,11,31,26,243,30,32,32,317,25,10,70,320,,12,42,074,*78,1603354497419
NMEA,$GPGSV,3,2,11,15,11,092,,18,16,189,,20,68,165,,21,05,305,*77,1603354497420
NMEA,$GPGSV,3,3,11,23,73,147,,24,19,040,,25,54,135,*45,1603354497420
NMEA,$GLGSV,1,1,01,79,21,208,22*53,1603354497421
NMEA,$GAGSV,2,1,07,26,18,234,32,33,11,284,33,07,56,033,,13,04,185,*65,1603354497422
NMEA,$GAGSV,2,2,07,21,15,202,,27,62,167,,30,47,053,*5F,1603354497423
NMEA,$PQGSV,1,1,0,*73,1603354497424
NMEA,$PQGSV,4,1,16,21,16,319,19,01,51,130,,02,41,241,,03,59,202,,0,4*66,1603354497425
NMEA,$PQGSV,4,2,16,04,37,115,,05,17,258,,06,00,000,,07,42,167,,0,4*64,1603354497426
NMEA,$PQGSV,4,3,16,08,28,196,,09,44,319,,10,24,189,,13,39,224,,0,4*6E,1603354497430
NMEA,$PQGSV,4,4,16,16,51,350,,19,47,111,,20,01,127,,22,64,354,,0,4*64,1603354497431
NMEA,$GNGSA,A,2,31,32,,,,,,,,,,,3.5,3.4,1.0,1*33,1603354497433
NMEA,$GNGSA,A,2,79,,,,,,,,,,,,3.5,3.4,1.0,2*3D,1603354497435
NMEA,$GNGSA,A,2,01,26,,,,,,,,,,,3.5,3.4,1.0,3*37,1603354497435
NMEA,$GNVTG,83.5,T,83.5,M,2.2,N,4.1,K,A*38,1603354497435
NMEA,$GNRMC,081458.00,A,2255.524481,N,12017.703430,E,2.2,83.5,221020,2.8,W,A*06,1603354497436
NMEA,$GNGGA,081458.00,2255.524481,N,12017.703430,E,1,05,3.4,19.9,M,17.5,M,,*4A,1603354497436
Raw,10811341,11044881000000,,,-1287378671552259328,0.0,236.9710709899664,0.60162879180777,20.08910771415022,7,15,0.0,207,40498358948700,35,22.0,-715.3755493164062,0.9684999585151672,0,0.0,0.0,,,,,0,,3,,
Raw,10811342,11044881000000,,,-1287378671552259328,0.0,236.9710709899664,0.60162879180777,20.08910771415022,7,31,0.0,15,375316357065066,13,31.0,-451.76373291015625,0.065700002014637,0,0.0,0.0,,,,,0,,1,,
