# 
# Header Description:
# 
# Version: v2.0.0.1 Platform: 8.0.0 Manufacturer: Sony Model: G8142
# 
# Raw,ElapsedRealtimeMillis,TimeNanos,LeapSecond,TimeUncertaintyNanos,FullBiasNanos,BiasNanos,BiasUncertaintyNanos,DriftNanosPerSecond,DriftUncertaintyNanosPerSecond,HardwareClockDiscontinuityCount,Svid,TimeOffsetNanos,State,ReceivedSvTimeNanos,ReceivedSvTimeUncertaintyNanos,Cn0DbHz,PseudorangeRateMetersPerSecond,PseudorangeRateUncertaintyMetersPerSecond,AccumulatedDeltaRangeState,AccumulatedDeltaRangeMeters,AccumulatedDeltaRangeUncertaintyMeters,CarrierFrequencyHz,CarrierCycles,CarrierPhase,CarrierPhaseUncertainty,MultipathIndicator,SnrInDb,ConstellationType,AgcDb,CarrierFrequencyHz
# 
# Fix,Provider,Latitude,Longitude,Altitude,Speed,Accuracy,(UTC)TimeInMs
# 
# Nav,Svid,Type,Status,MessageId,Sub-messageId,Data(Bytes)
# 
Fix,gps,22.925438,120.295191,13.692566,0.950000,35.375999,1603354214000
Raw,10526372,10759881000000,,,-1287378671552259840,0.0,298.97145577706397,0.3276221499400702,22.062973731014782,7,15,0.0,207,40213358258695,46,20.5,-734.5008544921875,1.0885000228881836,0,0.0,0.0,,,,,0,,3,,
Raw,10526372,10759881000000,,,-1287378671552259840,0.0,298.97145577706397,0.3276221499400702,22.062973731014782,7,31,0.0,15,375031356625891,14,30.8,-471.6496887207031,0.06480000168085098,0,0.0,0.0,,,,,0,,1,,
Raw,10526372,10759881000000,,,-1287378671552259840,0.0,298.97145577706397,0.3276221499400702,22.062973731014782,7,32,0.0,15,375031357679810,19,27.5,-313.0792236328125,0.08180000633001328,0,0.0,0.0,,,,,0,,1,,
Raw,10526373,10759881000000,,,-1287378671552259840,0.0,298.97145577706397,0.3276221499400702,22.062973731014782,7,21,0.0,15,375017347557158,12,32.4,-529.0303344726562,0.049400001764297485,0,0.0,0.0,,,,,0,,5,,
Raw,10526373,10759881000000,,,-1287378671552259840,0.0,298.97145577706397,0.3276221499400702,22.062973731014782,7,26,0.0,7183,375031346368053,27,24.5,375.5445556640625,0.5534999966621399,0,0.0,0.0,,,,,0,,6,,
Raw,10526373,10759881000000,,,-1287378671552259840,0.0,298.97145577706397,0.3276221499400702,22.062973731014782,7,33,0.0,7183,375031340579339,35,22.1,129.1713409423828,0.655500054359436,0,0.0,0.0,,,,,0,,6,,
NMEA,$GPGSV,3,1,11,31,23,240,31,32,30,314,28,10,66,323,,12,42,080,*7C,1603354213417
NMEA,$GPGSV,3,2,11,15,12,090,,18,18,191,,20,71,164,,21,04,306,*7A,1603354213417
NMEA,$GPGSV,3,3,11,23,77,142,,24,22,040,,25,52,139,*46,1603354213418
NMEA,$GLGSV,1,1,01,79,19,206,21*55,1603354213418
NMEA,$GAGSV,2,1,07,26,19,236,25,33,11,285,22,07,55,029,,13,06,187,*69,1603354213418
NMEA,$GAGSV,2,2,07,21,14,201,,27,60,168,,30,48,056,*5A,1603354213419
NMEA,$PQGSV,1,1,0,*73,1603354213419
NMEA,$PQGSV,4,1,16,21,15,319,32,01,51,130,,02,41,241,,03,59,202,,0,4*6C,1603354213419
NMEA,$PQGSV,4,2,16,04,37,115,,05,17,258,,06,53,358,,07,41,167,,0,4*6F,1603354213419
NMEA,$PQGSV,4,3,16,08,29,196,,09,44,317,,10,23,189,,13,40,224,,0,4*68,1603354213420
NMEA,$PQGSV,4,4,16,16,51,350,,19,49,106,,20,02,126,,22,62,351,,0,4*6D,1603354213420
NMEA,$GNGSA,A,2,31,32,,,,,,,,,,,3.7,3.6,1.0,1*33,1603354213421
NMEA,$GNGSA,A,2,79,,,,,,,,,,,,3.7,3.6,1.0,2*3D,1603354213421
NMEA,$GNGSA,A,2,01,26,,,,,,,,,,,3.7,3.6,1.0,3*37,1603354213422
NMEA,$GNVTG,89.5,T,89.5,M,1.8,N,3.4,K,A*33,1603354213422
NMEA,$GNRMC,081014.00,A,2255.526288,N,12017.711430,E,1.8,89.5,221020,2.8,W,A*07,1603354213423
NMEA,$GNGGA,081014.00,2255.526288,N,12017.711430,E,1,05,3.6,-3.8,M,17.5,M,,*5D,1603354213423
Raw,10527321,10760881000000,,,-1287378671552259840,0.0,304.65706367976964,-0.43833852502627546,20.345356079175712,7,15,0.0,207,40214358260994,35,22.4,-734.8751220703125,0.9684999585151672,0,0.0,0.0,,,,,0,,3,,
Raw,10527321,10760881000000,,,-1287378671552259840,0.0,304.65706367976964,-0.43833852502627546,20.345356079175712,7,31,0.0,15,375032356627482,12,32.0,-471.68194580078125,0.06289999932050705,0,0.0,0.0,,,,,0,,1,,
Raw,10527321,10760881000000,,,-1287378671552259840,0.0,304.65706367976964,-0.43833852502627546,20.345356079175712,7,32,0.0,15,375032357680861,21,26.4,-313.2067565917969,0.1517000049352646,0,0.0,0.0,,,,,0,,1,,
Raw,10527321,10760881000000,,,-1287378671552259840,0.0,304.65706367976964,-0.43833852502627546,20.345356079175712,7,21,0.0,15,375018347558899,17,28.8,-529.1639404296875,0.058800000697374344,0,0.0,0.0,,,,,0,,5,,
Raw,10527322,10760881000000,,,-1287378671552259840,0.0,304.65706367976964,-0.43833852502627546,20.345356079175712,7,26,0.0,7183,375032346366799,31,23.7,375.3828125,0.6035000085830688,0,0.0,0.0,,,,,0,,6,,
Raw,10527322,10760881000000,,,-1287378671552259840,0.0,304.65706367976964,-0.43833852502627546,20.345356079175712,7,33,0.0,7183,375032340578938,31,23.2,128.46726989746094,0.6155000329017639,0,0.0,0.0,,,,,0,,6,,
Fix,gps,22.925437,120.295201,15.000916,0.830000,40.736000,1603354215000
NMEA,$GPGSV,3,1,11,31,23,240,32,32,30,314,26,10,66,323,,12,42,080,*71,1603354214417
NMEA,$GPGSV,3,2,11,15,12,090,,18,18,191,,20,71,164,,21,04,306,*7A,1603354214418
NMEA,$GPGSV,3,3,11,23,77,142,,24,22,040,,25,52,139,*46,1603354214418
NMEA,$GLGSV,1,1,01,79,19,206,22*56,1603354214418
NMEA,$GAGSV,2,1,07,26,19,236,24,33,11,285,23,07,55,029,,13,06,187,*69,1603354214418
NMEA,$GAGSV,2,2,07,21,14,201,,27,60,168,,30,48,056,*5A,1603354214418
NMEA,$PQGSV,1,1,0,*73,1603354214418
NMEA,$PQGSV,4,1,16,21,15,319,29,01,51,130,,02,41,241,,03,59,202,,0,4*66,1603354214419
NMEA,$PQGSV,4,2,16,04,37,115,,05,17,258,,06,53,358,,07,41,167,,0,4*6F,1603354214419
NMEA,$PQGSV,4,3,16,08,29,196,,09,44,317,,10,23,189,,13,40,224,,0,4*68,1603354214419
NMEA,$PQGSV,4,4,16,16,51,350,,19,49,106,,20,02,126,,22,62,351,,0,4*6D,1603354214419
NMEA,$GNGSA,A,2,31,32,,,,,,,,,,,3.7,3.6,1.0,1*33,1603354214420
NMEA,$GNGSA,A,2,79,,,,,,,,,,,,3.7,3.6,1.0,2*3D,1603354214420
NMEA,$GNGSA,A,2,01,26,,,,,,,,,,,3.7,3.6,1.0,3*37,1603354214421
NMEA,$GNVTG,95.2,T,95.2,M,1.6,N,3.0,K,A*39,1603354214421
NMEA,$GNRMC,081015.00,A,2255.526241,N,12017.712084,E,1.6,95.2,221020,2.8,W,A*0F,1603354214421
NMEA,$GNGGA,081015.00,2255.526241,N,12017.712084,E,1,05,3.6,-2.5,M,17.5,M,,*5D,1603354214421
Raw,10528316,10761881000000,,,-1287378671552259840,0.0,346.34635085240006,-0.6231814431009077,19.927099884100215,7,15,0.0,207,40215358263578,40,21.3,-736.316162109375,1.028499960899353,0,0.0,0.0,,,,,0,,3,,
Raw,10528316,10761881000000,,,-1287378671552259840,0.0,346.34635085240006,-0.6231814431009077,19.927099884100215,7,31,0.0,15,375033356629070,13,31.7,-473.2720031738281,0.0642000064253807,0,0.0,0.0,,,,,0,,1,,
Raw,10528317,10761881000000,,,-1287378671552259840,0.0,346.34635085240006,-0.6231814431009077,19.927099884100215,7,32,0.0,15,375033357681912,21,26.1,-314.8747253417969,0.1517000049352646,0,0.0,0.0,,,,,0,,1,,
Raw,10528318,10761881000000,,,-1287378671552259840,0.0,346.34635085240006,-0.6231814431009077,19.927099884100215,7,21,0.0,15,375019347560673,16,29.1,-530.8074340820312,0.05220000073313713,0,0.0,0.0,,,,,0,,5,,
Raw,10528318,10761881000000,,,-1287378671552259840,0.0,346.34635085240006,-0.6231814431009077,19.927099884100215,7,26,0.0,7183,375033346365548,31,23.0,373.689208984375,0.6035000085830688,0,0.0,0.0,,,,,0,,6,,
Raw,10528319,10761881000000,,,-1287378671552259840,0.0,346.34635085240006,-0.6231814431009077,19.927099884100215,7,33,0.0,7183,375033340578521,31,23.0,127.12568664550781,0.6155000329017639,0,0.0,0.0,,,,,0,,6,,
Fix,gps,22.925436,120.295204,16.129517,0.380000,43.952000,1603354216000
NMEA,$GPGSV,3,1,11,31,23,240,32,32,30,314,26,10,66,323,,12,42,080,*71,1603354215417
NMEA,$GPGSV,3,2,11,15,12,090,,18,18,191,,20,71,164,,21,04,306,*7A,1603354215417
NMEA,$GPGSV,3,3,11,23,77,142,,24,22,040,,25,52,139,*46,1603354215418
NMEA,$GLGSV,1,1,01,79,19,206,21*55,1603354215418
NMEA,$GAGSV,2,1,07,26,19,236,23,33,11,285,23,07,55,029,,13,06,187,*6E,1603354215418
NMEA,$GAGSV,2,2,07,21,14,201,,27,60,168,,30,48,056,*5A,1603354215418
NMEA,$PQGSV,1,1,0,*73,1603354215418
NMEA,$PQGSV,4,1,16,21,15,319,29,01,51,130,,02,41,241,,03,59,202,,0,4*66,1603354215418
NMEA,$PQGSV,4,2,16,04,37,115,,05,17,258,,06,53,358,,07,41,167,,0,4*6F,1603354215419
NMEA,$PQGSV,4,3,16,08,29,196,,09,44,317,,10,23,189,,13,40,224,,0,4*68,1603354215419
NMEA,$PQGSV,4,4,16,16,51,350,,19,49,106,,20,02,126,,22,62,351,,0,4*6D,1603354215419
NMEA,$GNGSA,A,2,31,32,,,,,,,,,,,3.7,3.6,1.0,1*33,1603354215420
NMEA,$GNGSA,A,2,79,,,,,,,,,,,,3.7,3.6,1.0,2*3D,1603354215421
NMEA,$GNGSA,A,2,01,26,,,,,,,,,,,3.7,3.6,1.0,3*37,1603354215421
NMEA,$GNVTG,102.8,T,102.8,M,0.7,N,1.4,K,A*3F,1603354215421
NMEA,$GNRMC,081016.00,A,2255.526188,N,12017.712258,E,0.7,102.8,221020,2.8,W,A*3C,1603354215421
NMEA,$GNGGA,081016.00,2255.526188,N,12017.712258,E,1,05,3.6,-1.3,M,17.5,M,,*5E,1603354215422
Raw,10529613,10762881000000,,,-1287378671552259840,0.0,366.8346325866878,-4.8855494202242635,21.23693198123077,7,15,0.0,207,40216358266129,31,23.0,-736.5032958984375,0.9084999561309814,0,0.0,0.0,,,,,0,,3,,
Raw,10529614,10762881000000,,,-1287378671552259840,0.0,366.8346325866878,-4.8855494202242635,21.23693198123077,7,31,0.0,15,375034356630619,12,32.2,-473.793701171875,0.06289999932050705,0,0.0,0.0,,,,,0,,1,,
Raw,10529615,10762881000000,,,-1287378671552259840,0.0,366.8346325866878,-4.8855494202242635,21.23693198123077,7,32,0.0,15,375034357682963,27,24.4,-315.4022521972656,0.7069999575614929,0,0.0,0.0,,,,,0,,1,,
Raw,10529616,10762881000000,,,-1287378671552259840,0.0,366.8346325866878,-4.8855494202242635,21.23693198123077,7,21,0.0,15,375020347562428,19,27.4,-531.39453125,0.06680000573396683,0,0.0,0.0,,,,,0,,5,,
Raw,10529616,10762881000000,,,-1287378671552259840,0.0,366.8346325866878,-4.8855494202242635,21.23693198123077,7,26,0.0,7183,375034346364306,21,26.1,372.8614196777344,0.48350000381469727,0,0.0,0.0,,,,,0,,6,,
Raw,10529617,10762881000000,,,-1287378671552259840,0.0,366.8346325866878,-4.8855494202242635,21.23693198123077,7,33,0.0,7183,375034340578093,17,28.8,128.3896942138672,0.0723000019788742,0,0.0,0.0,,,,,0,,6,,
Fix,gps,22.925437,120.295197,16.941956,0.290000,39.664001,1603354217000
NMEA,$GPGSV,3,1,11,31,23,240,32,32,30,314,24,10,66,323,,12,42,080,*73,1603354216417
NMEA,$GPGSV,3,2,11,15,12,090,,18,18,191,,20,71,164,,21,04,306,*7A,1603354216417
NMEA,$GPGSV,3,3,11,23,77,142,,24,22,040,,25,52,139,*46,1603354216417
NMEA,$GLGSV,1,1,01,79,19,206,23*57,1603354216418
NMEA,$GAGSV,2,1,07,26,19,236,26,33,11,285,29,07,55,029,,13,06,187,*61,1603354216418
NMEA,$GAGSV,2,2,07,21,14,201,,27,60,168,,30,48,056,*5A,1603354216418
NMEA,$PQGSV,1,1,0,*73,1603354216419
NMEA,$PQGSV,4,1,16,21,15,319,27,01,51,130,,02,41,241,,03,59,202,,0,4*68,1603354216419
NMEA,$PQGSV,4,2,16,04,37,115,,05,17,258,,06,53,358,,07,41,167,,0,4*6F,1603354216420
NMEA,$PQGSV,4,3,16,08,29,196,,09,44,317,,10,23,189,,13,40,224,,0,4*68,1603354216420
NMEA,$PQGSV,4,4,16,16,51,350,,19,49,106,,20,02,126,,22,62,351,,0,4*6D,1603354216421
NMEA,$GNGSA,A,2,31,32,,,,,,,,,,,3.7,3.6,1.0,1*33,1603354216422
NMEA,$GNGSA,A,2,79,,,,,,,,,,,,3.7,3.6,1.0,2*3D,1603354216422
NMEA,$GNGSA,A,2,01,26,,,,,,,,,,,3.7,3.6,1.0,3*37,1603354216423
NMEA,$GNVTG,110.6,T,110.6,M,0.6,N,1.0,K,A*3A,1603354216423
NMEA,$GNRMC,081017.00,A,2255.526227,N,12017.711849,E,0.6,110.6,221020,2.8,W,A*3E,1603354216423
NMEA,$GNGGA,081017.00,2255.526227,N,12017.711849,E,1,05,3.6,-0.5,M,17.5,M,,*57,1603354216424
Raw,10530313,10763881000000,,,-1287378671552259840,0.0,324.32880834676325,-3.7112709999333795,23.508313378815995,7,15,0.0,207,40217358268658,31,23.1,-738.6178588867188,0.9084999561309814,0,0.0,0.0,,,,,0,,3,,
Raw,10530314,10763881000000,,,-1287378671552259840,0.0,324.32880834676325,-3.7112709999333795,23.508313378815995,7,31,0.0,15,375035356632207,13,31.6,-474.9082946777344,0.0642000064253807,0,0.0,0.0,,,,,0,,1,,
Raw,10530315,10763881000000,,,-1287378671552259840,0.0,324.32880834676325,-3.7112709999333795,23.508313378815995,7,32,0.0,15,375035357683994,19,27.9,-316.6956481933594,0.08180000633001328,0,0.0,0.0,,,,,0,,1,,
Raw,10530315,10763881000000,,,-1287378671552259840,0.0,324.32880834676325,-3.7112709999333795,23.508313378815995,7,21,0.0,15,375021347564229,17,28.6,-532.6476440429688,0.058800000697374344,0,0.0,0.0,,,,,0,,5,,
Raw,10530316,10763881000000,,,-1287378671552259840,0.0,324.32880834676325,-3.7112709999333795,23.508313378815995,7,26,0.0,7183,375035346363058,21,26.7,372.2049255371094,0.48350000381469727,0,0.0,0.0,,,,,0,,6,,
Raw,10530316,10763881000000,,,-1287378671552259840,0.0,324.32880834676325,-3.7112709999333795,23.508313378815995,7,33,0.0,7183,375035340577642,17,28.9,125.63188171386719,0.4255000054836273,0,0.0,0.0,,,,,0,,6,,
Fix,gps,22.925434,120.295209,16.156982,0.840000,34.304001,1603354218000
NMEA,$GPGSV,3,1,11,31,23,240,32,32,30,314,28,10,66,323,,12,42,080,*7F,1603354217416
NMEA,$GPGSV,3,2,11,15,12,090,,18,18,191,,20,71,164,,21,04,306,*7A,1603354217416
NMEA,$GPGSV,3,3,11,23,77,142,,24,22,040,,25,52,139,*46,1603354217417
NMEA,$GLGSV,1,1,01,79,19,206,23*57,1603354217417
NMEA,$GAGSV,2,1,07,26,19,236,27,33,11,285,29,07,55,029,,13,06,187,*60,1603354217418
NMEA,$GAGSV,2,2,07,21,14,201,,27,60,168,,30,48,056,*5A,1603354217418
NMEA,$PQGSV,1,1,0,*73,1603354217419
NMEA,$PQGSV,4,1,16,21,15,319,29,01,51,130,,02,41,241,,03,59,202,,0,4*66,1603354217420
NMEA,$PQGSV,4,2,16,04,37,115,,05,17,258,,06,53,358,,07,41,167,,0,4*6F,1603354217420
NMEA,$PQGSV,4,3,16,08,29,196,,09,44,317,,10,23,189,,13,40,224,,0,4*68,1603354217420
NMEA,$PQGSV,4,4,16,16,51,350,,19,49,106,,20,02,126,,22,62,351,,0,4*6D,1603354217420
NMEA,$GNGSA,A,2,31,32,,,,,,,,,,,3.7,3.6,1.0,1*33,1603354217421
NMEA,$GNGSA,A,2,79,,,,,,,,,,,,3.7,3.6,1.0,2*3D,1603354217421
NMEA,$GNGSA,A,2,01,26,,,,,,,,,,,3.7,3.6,1.0,3*37,1603354217422
NMEA,$GNVTG,112.1,T,112.1,M,1.6,N,3.0,K,A*39,1603354217422
NMEA,$GNRMC,081018.00,A,2255.526018,N,12017.712538,E,1.6,112.1,221020,2.8,W,A*33,1603354217422
NMEA,$GNGGA,081018.00,2255.526018,N,12017.712538,E,1,05,3.6,-1.3,M,17.5,M,,*59,1603354217422
Raw,10531399,10764881000000,,,-1287378671552259840,0.0,289.31864653714,-11.77585030386421,22.702835947626046,7,15,0.0,207,40218358270982,40,21.2,-737.8693237304688,1.028499960899353,0,0.0,0.0,,,,,0,,3,,
Raw,10531400,10764881000000,,,-1287378671552259840,0.0,289.31864653714,-11.77585030386421,22.702835947626046,7,31,0.0,15,375036356633799,13,31.1,-474.8982849121094,0.0642000064253807,0,0.0,0.0,,,,,0,,1,,
Raw,10531400,10764881000000,,,-1287378671552259840,0.0,289.31864653714,-11.77585030386421,22.702835947626046,7,32,0.0,15,375036357685050,17,28.7,-316.73736572265625,0.07380000501871109,0,0.0,0.0,,,,,0,,1,,
Raw,10531401,10764881000000,,,-1287378671552259840,0.0,289.31864653714,-11.77585030386421,22.702835947626046,7,21,0.0,15,375022347566005,17,28.6,-532.6640625,0.058800000697374344,0,0.0,0.0,,,,,0,,5,,
Raw,10531402,10764881000000,,,-1287378671552259840,0.0,289.31864653714,-11.77585030386421,22.702835947626046,7,26,0.0,7183,375036346361823,16,29.5,372.935791015625,0.053700003772974014,0,0.0,0.0,,,,,0,,6,,
Raw,10531403,10764881000000,,,-1287378671552259840,0.0,289.31864653714,-11.77585030386421,22.702835947626046,7,33,0.0,7183,375036340577249,17,28.8,126.45591735839844,0.0723000019788742,0,0.0,0.0,,,,,0,,6,,
Fix,gps,22.925430,120.295222,16.900574,1.190000,34.304001,1603354219000
NMEA,$GPGSV,3,1,11,31,23,240,31,32,30,314,29,10,66,323,,12,42,080,*7D,1603354218421
NMEA,$GPGSV,3,2,11,15,12,090,,18,18,191,,20,71,164,,21,04,306,*7A,1603354218422
NMEA,$GPGSV,3,3,11,23,77,142,,24,22,040,,25,52,139,*46,1603354218427
NMEA,$GLGSV,1,1,01,79,19,206,21*55,1603354218428
NMEA,$GAGSV,2,1,07,26,19,236,30,33,11,285,29,07,55,029,,13,06,187,*66,1603354218434
NMEA,$GAGSV,2,2,07,21,14,201,,27,60,168,,30,48,056,*5A,1603354218445
NMEA,$PQGSV,1,1,0,*73,1603354218446
NMEA,$PQGSV,4,1,16,21,15,319,29,01,51,130,,02,41,241,,03,59,202,,0,4*66,1603354218447
NMEA,$PQGSV,4,2,16,04,37,115,,05,17,258,,06,53,358,,07,41,167,,0,4*6F,1603354218453
NMEA,$PQGSV,4,3,16,08,29,196,,09,44,317,,10,23,189,,13,40,224,,0,4*68,1603354218453
NMEA,$PQGSV,4,4,16,16,51,350,,19,49,106,,20,02,126,,22,62,351,,0,4*6D,1603354218454
NMEA,$GNGSA,A,2,31,32,,,,,,,,,,,3.7,3.5,1.0,1*30,1603354218455
NMEA,$GNGSA,A,2,79,,,,,,,,,,,,3.7,3.5,1.0,2*3E,1603354218455
NMEA,$GNGSA,A,2,01,26,,,,,,,,,,,3.7,3.5,1.0,3*34,1603354218455
NMEA,$GNVTG,100.8,T,100.8,M,2.3,N,4.3,K,A*3B,1603354218456
NMEA,$GNRMC,081019.00,A,2255.525797,N,12017.713290,E,2.3,100.8,221020,2.8,W,A*39,1603354218456
NMEA,$GNGGA,081019.00,2255.525797,N,12017.713290,E,1,05,3.5,-0.6,M,17.5,M,,*58,1603354218456
Raw,10532298,10765881000000,,,-1287378671552259840,0.0,298.1032303068787,-10.87364788680204,21.770215707933136,7,15,0.0,207,40219358273533,46,20.3,-737.4295654296875,1.0885000228881836,0,0.0,0.0,,,,,0,,3,,
Raw,10532299,10765881000000,,,-1287378671552259840,0.0,298.1032303068787,-10.87364788680204,21.770215707933136,7,31,0.0,15,375037356635375,14,30.5,-474.44415283203125,0.06480000168085098,0,0.0,0.0,,,,,0,,1,,
Raw,10532300,10765881000000,,,-1287378671552259840,0.0,298.1032303068787,-10.87364788680204,21.770215707933136,7,32,0.0,15,375037357686102,17,28.3,-316.34637451171875,0.07380000501871109,0,0.0,0.0,,,,,0,,1,,
Raw,10532300,10765881000000,,,-1287378671552259840,0.0,298.1032303068787,-10.87364788680204,21.770215707933136,7,21,0.0,15,375023347567775,17,28.5,-532.2688598632812,0.058800000697374344,0,0.0,0.0,,,,,0,,5,,
Raw,10532301,10765881000000,,,-1287378671552259840,0.0,298.1032303068787,-10.87364788680204,21.770215707933136,7,26,0.0,7183,375037346360576,17,28.2,372.5491638183594,0.06030000001192093,0,0.0,0.0,,,,,0,,6,,
Raw,10532302,10765881000000,,,-1287378671552259840,0.0,298.1032303068787,-10.87364788680204,21.770215707933136,7,33,0.0,7183,375037340576816,16,29.8,126.07769775390625,0.065700002014637,0,0.0,0.0,,,,,0,,6,,
Fix,gps,22.925428,120.295227,17.343872,0.650000,28.944000,1603354220000
NMEA,$GPGSV,3,1,11,31,23,240,31,32,30,314,28,10,66,323,,12,42,080,*7C,1603354219417
NMEA,$GPGSV,3,2,11,15,12,090,,18,18,191,,20,71,164,,21,04,306,*7A,1603354219417
NMEA,$GPGSV,3,3,11,23,77,142,,24,22,040,,25,52,139,*46,1603354219417
NMEA,$GLGSV,1,1,01,79,19,206,20*54,1603354219417
NMEA,$GAGSV,2,1,07,26,19,236,28,33,11,285,30,07,55,029,,13,06,187,*67,1603354219418
NMEA,$GAGSV,2,2,07,21,14,201,,27,60,168,,30,48,056,*5A,1603354219420
NMEA,$PQGSV,1,1,0,*73,1603354219420
NMEA,$PQGSV,4,1,16,21,15,319,29,01,51,130,,02,41,241,,03,59,202,,0,4*66,1603354219420
NMEA,$PQGSV,4,2,16,04,37,115,,05,17,258,,06,53,358,,07,41,167,,0,4*6F,1603354219421
NMEA,$PQGSV,4,3,16,08,29,196,,09,44,317,,10,23,189,,13,40,224,,0,4*68,1603354219421
NMEA,$PQGSV,4,4,16,16,51,350,,19,49,106,,20,02,126,,22,62,351,,0,4*6D,1603354219421
NMEA,$GNGSA,A,2,31,32,,,,,,,,,,,3.7,3.5,1.0,1*30,1603354219422
NMEA,$GNGSA,A,2,79,,,,,,,,,,,,3.7,3.5,1.0,2*3E,1603354219422
NMEA,$GNGSA,A,2,01,26,,,,,,,,,,,3.7,3.5,1.0,3*34,1603354219423
NMEA,$GNVTG,95.2,T,95.2,M,1.3,N,2.3,K,A*3E,1603354219423
NMEA,$GNRMC,081020.00,A,2255.525666,N,12017.713595,E,1.3,95.2,221020,2.8,W,A*0A,1603354219423
NMEA,$GNGGA,081020.00,2255.525666,N,12017.713595,E,1,05,3.5,-0.1,M,17.5,M,,*58,1603354219423
Raw,10533315,10766881000000,,,-1287378671552259840,0.0,268.2766644284129,-9.902734178758038,20.96890553753029,7,15,0.0,207,40220358275834,61,18.3,-737.9067993164062,1.2385001182556152,0,0.0,0.0,,,,,0,,3,,
Raw,10533316,10766881000000,,,-1287378671552259840,0.0,268.2766644284129,-9.902734178758038,20.96890553753029,7,31,0.0,15,375038356636971,13,31.3,-473.68878173828125,0.0642000064253807,0,0.0,0.0,,,,,0,,1,,
Raw,10533317,10766881000000,,,-1287378671552259840,0.0,268.2766644284129,-9.902734178758038,20.96890553753029,7,32,0.0,15,375038357687177,19,27.9,-315.6609191894531,0.08180000633001328,0,0.0,0.0,,,,,0,,1,,
Raw,10533317,10766881000000,,,-1287378671552259840,0.0,268.2766644284129,-9.902734178758038,20.96890553753029,7,21,0.0,15,375024347569555,17,28.9,-531.5828247070312,0.058800000697374344,0,0.0,0.0,,,,,0,,5,,
Raw,10533318,10766881000000,,,-1287378671552259840,0.0,268.2766644284129,-9.902734178758038,20.96890553753029,7,26,0.0,7183,375038346359340,19,27.1,371.879150390625,0.06830000132322311,0,0.0,0.0,,,,,0,,6,,
Raw,10533319,10766881000000,,,-1287378671552259840,0.0,268.2766644284129,-9.902734178758038,20.96890553753029,7,33,0.0,7183,375038340576402,14,30.3,125.70625305175781,0.06480000168085098,0,0.0,0.0,,,,,0,,6,,
Fix,gps,22.925426,120.295225,18.411438,0.280000,30.016001,1603354221000
NMEA,$GPGSV,3,1,11,31,23,240,31,32,30,314,28,10,66,323,,12,42,080,*7C,1603354220418
NMEA,$GPGSV,3,2,11,15,12,090,,18,18,191,,20,71,164,,21,04,306,*7A,1603354220418
NMEA,$GPGSV,3,3,11,23,77,142,,24,22,040,,25,52,139,*46,1603354220418
NMEA,$GLGSV,1,1,01,79,19,206,18*5F,1603354220420
NMEA,$GAGSV,2,1,07,26,19,236,27,33,11,285,30,07,55,029,,13,06,187,*68,1603354220420
NMEA,$GAGSV,2,2,07,21,14,201,,27,60,168,,30,48,056,*5A,1603354220420
NMEA,$PQGSV,1,1,0,*73,1603354220420
NMEA,$PQGSV,4,1,16,21,15,319,29,01,51,130,,02,41,241,,03,59,202,,0,4*66,1603354220420
NMEA,$PQGSV,4,2,16,04,37,115,,05,17,258,,06,53,358,,07,41,167,,0,4*6F,1603354220420
NMEA,$PQGSV,4,3,16,08,29,196,,09,44,317,,10,23,189,,13,40,224,,0,4*68,1603354220421
NMEA,$PQGSV,4,4,16,16,51,350,,19,49,106,,20,02,126,,22,62,351,,0,4*6D,1603354220422
NMEA,$GNGSA,A,2,31,32,,,,,,,,,,,3.7,3.5,1.0,1*30,1603354220423
NMEA,$GNGSA,A,2,79,,,,,,,,,,,,3.7,3.5,1.0,2*3E,1603354220423
NMEA,$GNGSA,A,2,01,26,,,,,,,,,,,3.7,3.5,1.0,3*34,1603354220424
NMEA,$GNVTG,95.3,T,95.3,M,0.5,N,1.0,K,A*39,1603354220424
NMEA,$GNRMC,081021.00,A,2255.525582,N,12017.713491,E,0.5,95.3,221020,2.8,W,A*01,1603354220424
NMEA,$GNGGA,081021.00,2255.525582,N,12017.713491,E,1,05,3.5,0.9,M,17.5,M,,*70,1603354220425
Fix,gps,22.925427,120.295204,19.494690,1.680000,26.800001,1603354222000
Raw,10534645,10767881000000,,,-1287378671552259840,0.0,284.57154985517263,-9.21701936902824,21.531259884616567,7,15,0.0,207,40221358278477,40,21.9,-736.550048828125,1.028499960899353,0,0.0,0.0,,,,,0,,3,,
Raw,10534646,10767881000000,,,-1287378671552259840,0.0,284.57154985517263,-9.21701936902824,21.531259884616567,7,31,0.0,15,375039356638557,14,30.6,-473.0540771484375,0.06480000168085098,0,0.0,0.0,,,,,0,,1,,
Raw,10534646,10767881000000,,,-1287378671552259840,0.0,284.57154985517263,-9.21701936902824,21.531259884616567,7,32,0.0,15,375039357688227,17,28.4,-315.10137939453125,0.07380000501871109,0,0.0,0.0,,,,,0,,1,,
Raw,10534647,10767881000000,,,-1287378671552259840,0.0,284.57154985517263,-9.21701936902824,21.531259884616567,7,21,0.0,15,375025347571321,17,28.2,-531.0454711914062,0.058800000697374344,0,0.0,0.0,,,,,0,,5,,
Raw,10534648,10767881000000,,,-1287378671552259840,0.0,284.57154985517263,-9.21701936902824,21.531259884616567,7,26,0.0,7183,375039346358078,17,28.3,373.2079162597656,0.06030000001192093,0,0.0,0.0,,,,,0,,6,,
Raw,10534648,10767881000000,,,-1287378671552259840,0.0,284.57154985517263,-9.21701936902824,21.531259884616567,7,33,0.0,7183,375039340575965,14,30.3,125.99976348876953,0.06480000168085098,0,0.0,0.0,,,,,0,,6,,
NMEA,$GPGSV,3,1,11,31,23,240,31,32,30,314,28,10,66,323,,12,42,080,*7C,1603354221417
NMEA,$GPGSV,3,2,11,15,12,090,,18,18,191,,20,71,164,,21,04,306,*7A,1603354221417
NMEA,$GPGSV,3,3,11,23,77,142,,24,22,040,,25,52,139,*46,1603354221418
NMEA,$GLGSV,1,1,01,79,19,206,22*56,1603354221419
NMEA,$GAGSV,2,1,07,26,19,236,28,33,11,285,30,07,55,029,,13,06,187,*67,1603354221419
NMEA,$GAGSV,2,2,07,21,14,201,,27,60,168,,30,48,056,*5A,1603354221420
NMEA,$PQGSV,1,1,0,*73,1603354221421
NMEA,$PQGSV,4,1,16,21,15,319,28,01,51,130,,02,41,241,,03,59,202,,0,4*67,1603354221422
NMEA,$PQGSV,4,2,16,04,37,115,,05,17,258,,06,53,358,,07,41,167,,0,4*6F,1603354221422
NMEA,$PQGSV,4,3,16,08,29,196,,09,44,317,,10,23,189,,13,40,224,,0,4*68,1603354221422
NMEA,$PQGSV,4,4,16,16,51,350,,19,49,106,,20,02,126,,22,62,351,,0,4*6D,1603354221423
NMEA,$GNGSA,A,2,31,32,,,,,,,,,,,3.7,3.5,1.0,1*30,1603354221424
NMEA,$GNGSA,A,2,79,,,,,,,,,,,,3.7,3.5,1.0,2*3E,1603354221424
NMEA,$GNGSA,A,2,01,26,,,,,,,,,,,3.7,3.5,1.0,3*34,1603354221425
NMEA,$GNVTG,278.7,T,278.7,M,3.3,N,6.0,K,A*3B,1603354221425
NMEA,$GNRMC,081022.00,A,2255.525626,N,12017.712236,E,3.3,278.7,221020,2.8,W,A*35,1603354221425
NMEA,$GNGGA,081022.00,2255.525626,N,12017.712236,E,1,05,3.5,2.0,M,17.5,M,,*7F,1603354221425
Raw,10535340,10768881000000,,,-1287378671552259840,0.0,259.8802384454757,-3.868456259484724,17.571748181654897,7,15,0.0,207,40222358280906,46,20.1,-735.0155029296875,1.0885000228881836,0,0.0,0.0,,,,,0,,3,,
Raw,10535343,10768881000000,,,-1287378671552259840,0.0,259.8802384454757,-3.868456259484724,17.571748181654897,7,31,0.0,15,375040356640099,12,32.4,-472.1718444824219,0.06289999932050705,0,0.0,0.0,,,,,0,,1,,
Raw,10535345,10768881000000,,,-1287378671552259840,0.0,259.8802384454757,-3.868456259484724,17.571748181654897,7,32,0.0,15,375040357689261,17,28.3,-314.2675476074219,0.07380000501871109,0,0.0,0.0,,,,,0,,1,,
Raw,10535348,10768881000000,,,-1287378671552259840,0.0,259.8802384454757,-3.868456259484724,17.571748181654897,7,21,0.0,15,375026347573114,17,28.7,-530.216552734375,0.058800000697374344,0,0.0,0.0,,,,,0,,5,,
Raw,10535352,10768881000000,,,-1287378671552259840,0.0,259.8802384454757,-3.868456259484724,17.571748181654897,7,26,0.0,7183,375040346356834,14,30.8,373.09735107421875,0.052800003439188004,0,0.0,0.0,,,,,0,,6,,
Raw,10535354,10768881000000,,,-1287378671552259840,0.0,259.8802384454757,-3.868456259484724,17.571748181654897,7,33,0.0,7183,375040340575552,16,29.9,126.73050689697266,0.065700002014637,0,0.0,0.0,,,,,0,,6,,
Fix,gps,22.925429,120.295174,19.109009,1.800000,25.728001,1603354223000
NMEA,$GPGSV,3,1,11,31,23,240,32,32,30,314,28,10,66,323,,12,42,080,*7F,1603354222423
NMEA,$GPGSV,3,2,11,15,12,090,,18,18,191,,20,71,164,,21,04,306,*7A,1603354222423
NMEA,$GPGSV,3,3,11,23,77,142,,24,22,040,,25,52,139,*46,1603354222424
NMEA,$GLGSV,1,1,01,79,19,206,20*54,1603354222425
NMEA,$GAGSV,2,1,07,26,19,236,31,33,11,285,30,07,55,029,,13,06,187,*6F,1603354222425
NMEA,$GAGSV,2,2,07,21,14,201,,27,60,168,,30,48,056,*5A,1603354222426
NMEA,$PQGSV,1,1,0,*73,1603354222428
NMEA,$PQGSV,4,1,16,21,15,319,29,01,51,130,,02,41,241,,03,59,202,,0,4*66,1603354222435
NMEA,$PQGSV,4,2,16,04,37,115,,05,17,258,,06,53,358,,07,41,167,,0,4*6F,1603354222435
NMEA,$PQGSV,4,3,16,08,29,196,,09,44,317,,10,23,189,,13,40,224,,0,4*68,1603354222435
NMEA,$PQGSV,4,4,16,16,51,350,,19,49,106,,20,02,126,,22,62,351,,0,4*6D,1603354222435
NMEA,$GNGSA,A,2,31,32,,,,,,,,,,,3.7,3.5,1.0,1*30,1603354222436
NMEA,$GNGSA,A,2,79,,,,,,,,,,,,3.7,3.5,1.0,2*3E,1603354222436
NMEA,$GNGSA,A,2,01,26,,,,,,,,,,,3.7,3.5,1.0,3*34,1603354222436
NMEA,$GNVTG,273.9,T,273.9,M,3.5,N,6.5,K,A*38,1603354222437
NMEA,$GNRMC,081023.00,A,2255.525714,N,12017.710466,E,3.5,273.9,221020,2.8,W,A*36,1603354222437
NMEA,$GNGGA,081023.00,2255.525714,N,12017.710466,E,1,05,3.5,1.6,M,17.5,M,,*7A,1603354222437
Fix,gps,22.925430,120.295141,18.925293,1.960000,24.656000,1603354224000
Raw,10536360,10769881000000,,,-1287378671552259840,0.0,248.7767778802663,-1.627817257680761,19.54192728611316,7,15,0.0,207,40223358283319,61,18.2,-733.0880126953125,1.2385001182556152,0,0.0,0.0,,,,,0,,3,,
Raw,10536362,10769881000000,,,-1287378671552259840,0.0,248.7767778802663,-1.627817257680761,19.54192728611316,7,31,0.0,15,375041356641681,12,32.1,-471.3251647949219,0.06289999932050705,0,0.0,0.0,,,,,0,,1,,
Raw,10536364,10769881000000,,,-1287378671552259840,0.0,248.7767778802663,-1.627817257680761,19.54192728611316,7,32,0.0,15,375041357690300,17,28.3,-313.5241394042969,0.07380000501871109,0,0.0,0.0,,,,,0,,1,,
Raw,10536367,10769881000000,,,-1287378671552259840,0.0,248.7767778802663,-1.627817257680761,19.54192728611316,7,21,0.0,15,375027347574875,17,28.4,-529.468017578125,0.058800000697374344,0,0.0,0.0,,,,,0,,5,,
Raw,10536369,10769881000000,,,-1287378671552259840,0.0,248.7767778802663,-1.627817257680761,19.54192728611316,7,26,0.0,7183,375041346355577,14,30.3,374.4048156738281,0.052800003439188004,0,0.0,0.0,,,,,0,,6,,
Raw,10536372,10769881000000,,,-1287378671552259840,0.0,248.7767778802663,-1.627817257680761,19.54192728611316,7,33,0.0,7183,375041340575138,17,28.2,127.93840026855469,0.0723000019788742,0,0.0,0.0,,,,,0,,6,,
NMEA,$GPGSV,3,1,11,31,23,240,32,32,30,314,28,10,66,323,,12,42,080,*7F,1603354223422
NMEA,$GPGSV,3,2,11,15,12,090,,18,18,191,,20,71,164,,21,04,306,*7A,1603354223423
NMEA,$GPGSV,3,3,11,23,77,142,,24,22,040,,25,52,139,*46,1603354223426
NMEA,$GLGSV,1,1,01,79,19,206,18*5F,1603354223427
NMEA,$GAGSV,2,1,07,26,19,236,30,33,11,285,28,07,55,029,,13,06,187,*67,1603354223428
NMEA,$GAGSV,2,2,07,21,14,201,,27,60,168,,30,48,056,*5A,1603354223432
NMEA,$PQGSV,1,1,0,*73,1603354223434
NMEA,$PQGSV,4,1,16,21,15,319,28,01,51,130,,02,41,241,,03,59,202,,0,4*67,1603354223435
NMEA,$PQGSV,4,2,16,04,37,115,,05,17,258,,06,53,358,,07,41,167,,0,4*6F,1603354223435
NMEA,$PQGSV,4,3,16,08,29,196,,09,44,317,,10,23,189,,13,40,224,,0,4*68,1603354223436
NMEA,$PQGSV,4,4,16,16,51,350,,19,49,106,,20,02,126,,22,62,351,,0,4*6D,1603354223437
NMEA,$GNGSA,A,2,31,32,,,,,,,,,,,3.7,3.5,1.0,1*30,1603354223440
NMEA,$GNGSA,A,2,79,,,,,,,,,,,,3.7,3.5,1.0,2*3E,1603354223441
NMEA,$GNGSA,A,2,01,26,,,,,,,,,,,3.7,3.5,1.0,3*34,1603354223441
NMEA,$GNVTG,274.1,T,274.1,M,3.8,N,7.1,K,A*30,1603354223442
NMEA,$GNRMC,081024.00,A,2255.525783,N,12017.708467,E,3.8,274.1,221020,2.8,W,A*35,1603354223442
NMEA,$GNGGA,081024.00,2255.525783,N,12017.708467,E,1,05,3.5,1.5,M,17.5,M,,*78,1603354223443
NMEA,$GPGSV,3,1,11,31,23,240,31,32,30,314,28,10,66,323,,12,42,080,*7C,1603354224424
Raw,10537335,10770881000000,,,-1287378671552259840,0.0,239.1087036812678,2.389862824936973,18.544956268968132,7,15,0.0,207,40224358285588,53,19.5,-734.6505737304688,1.158500075340271,0,0.0,0.0,,,,,0,,3,,
Raw,10537336,10770881000000,,,-1287378671552259840,0.0,239.1087036812678,2.389862824936973,18.544956268968132,7,31,0.0,15,375042356643261,14,30.8,-471.1802673339844,0.06480000168085098,0,0.0,0.0,,,,,0,,1,,
Raw,10537337,10770881000000,,,-1287378671552259840,0.0,239.1087036812678,2.389862824936973,18.544956268968132,7,32,0.0,15,375042357691331,17,28.4,-313.4621276855469,0.07380000501871109,0,0.0,0.0,,,,,0,,1,,
Raw,10537337,10770881000000,,,-1287378671552259840,0.0,239.1087036812678,2.389862824936973,18.544956268968132,7,21,0.0,15,375028347576651,16,29.0,-529.406982421875,0.05220000073313713,0,0.0,0.0,,,,,0,,5,,
Raw,10537338,10770881000000,,,-1287378671552259840,0.0,239.1087036812678,2.389862824936973,18.544956268968132,7,26,0.0,7183,375042346354333,14,30.1,376.30584716796875,0.052800003439188004,0,0.0,0.0,,,,,0,,6,,
Raw,10537339,10770881000000,,,-1287378671552259840,0.0,239.1087036812678,2.389862824936973,18.544956268968132,7,33,0.0,7183,375042340574694,17,28.6,129.35865783691406,0.0723000019788742,0,0.0,0.0,,,,,0,,6,,
Fix,gps,22.925431,120.295112,19.673340,1.520000,27.872002,1603354225000
NMEA,$GPGSV,3,2,11,15,12,090,,18,18,191,,20,71,164,,21,04,306,*7A,1603354224425
NMEA,$GPGSV,3,3,11,23,77,142,,24,22,040,,25,52,139,*46,1603354224426
NMEA,$GLGSV,1,1,01,79,19,206,20*54,1603354224426
NMEA,$GAGSV,2,1,07,26,19,236,30,33,11,285,29,07,55,029,,13,06,187,*66,1603354224427
NMEA,$GAGSV,2,2,07,21,14,201,,27,60,168,,30,48,056,*5A,1603354224428
NMEA,$PQGSV,1,1,0,*73,1603354224429
NMEA,$PQGSV,4,1,16,21,15,319,29,01,51,130,,02,41,241,,03,59,202,,0,4*66,1603354224430
NMEA,$PQGSV,4,2,16,04,37,115,,05,17,258,,06,53,358,,07,41,167,,0,4*6F,1603354224431
NMEA,$PQGSV,4,3,16,08,29,196,,09,44,317,,10,23,189,,13,40,224,,0,4*68,1603354224431
NMEA,$PQGSV,4,4,16,16,51,350,,19,49,106,,20,02,126,,22,62,351,,0,4*6D,1603354224437
NMEA,$GNGSA,A,2,31,32,,,,,,,,,,,3.7,3.5,1.0,1*30,1603354224442
NMEA,$GNGSA,A,2,79,,,,,,,,,,,,3.7,3.5,1.0,2*3E,1603354224442
NMEA,$GNGSA,A,2,01,26,,,,,,,,,,,3.7,3.5,1.0,3*34,1603354224443
NMEA,$GNVTG,275.6,T,275.6,M,3.0,N,5.5,K,A*3E,1603354224444
NMEA,$GNRMC,081025.00,A,2255.525855,N,12017.706697,E,3.0,275.6,221020,2.8,W,A*3D,1603354224445
NMEA,$GNGGA,081025.00,2255.525855,N,12017.706697,E,1,05,3.5,2.2,M,17.5,M,,*7A,1603354224447
Raw,10538340,10771881000000,,,-1287378671552259840,0.0,271.26757777296007,5.244148970823949,19.799470364986245,7,15,0.0,207,40225358288099,53,19.9,-734.4634399414062,1.158500075340271,0,0.0,0.0,,,,,0,,3,,
Raw,10538340,10771881000000,,,-1287378671552259840,0.0,271.26757777296007,5.244148970823949,19.799470364986245,7,31,0.0,15,375043356644833,13,31.1,-470.6827087402344,0.0642000064253807,0,0.0,0.0,,,,,0,,1,,
Raw,10538341,10771881000000,,,-1287378671552259840,0.0,271.26757777296007,5.244148970823949,19.799470364986245,7,32,0.0,15,375043357692364,19,27.8,-313.0455017089844,0.08180000633001328,0,0.0,0.0,,,,,0,,1,,
Raw,10538342,10771881000000,,,-1287378671552259840,0.0,271.26757777296007,5.244148970823949,19.799470364986245,7,21,0.0,15,375029347578394,16,29.3,-528.9684448242188,0.05220000073313713,0,0.0,0.0,,,,,0,,5,,
Raw,10538342,10771881000000,,,-1287378671552259840,0.0,271.26757777296007,5.244148970823949,19.799470364986245,7,26,0.0,7183,375043346353086,16,29.8,375.57269287109375,0.053700003772974014,0,0.0,0.0,,,,,0,,6,,
Raw,10538343,10771881000000,,,-1287378671552259840,0.0,271.26757777296007,5.244148970823949,19.799470364986245,7,33,0.0,7183,375043340574271,17,28.1,128.8029327392578,0.0723000019788742,0,0.0,0.0,,,,,0,,6,,
Fix,gps,22.925432,120.295078,20.056396,2.070000,28.944000,1603354226000
NMEA,$GPGSV,3,1,11,31,23,240,31,32,30,314,28,10,66,323,,12,42,080,*7C,1603354225421
NMEA,$GPGSV,3,2,11,15,12,090,,18,18,191,,20,71,164,,21,04,306,*7A,1603354225422
NMEA,$GPGSV,3,3,11,23,77,142,,24,22,040,,25,52,139,*46,1603354225422
NMEA,$GLGSV,1,1,01,79,19,206,20*54,1603354225423
NMEA,$GAGSV,2,1,07,26,19,236,30,33,11,285,28,07,55,029,,13,06,187,*67,1603354225424
NMEA,$GAGSV,2,2,07,21,14,201,,27,60,168,,30,48,056,*5A,1603354225424
NMEA,$PQGSV,1,1,0,*73,1603354225430
NMEA,$PQGSV,4,1,16,21,15,319,29,01,51,130,,02,41,241,,03,59,202,,0,4*66,1603354225436
NMEA,$PQGSV,4,2,16,04,37,115,,05,17,258,,06,53,358,,07,41,167,,0,4*6F,1603354225436
NMEA,$PQGSV,4,3,16,08,29,196,,09,44,317,,10,23,189,,13,40,224,,0,4*68,1603354225437
NMEA,$PQGSV,4,4,16,16,51,350,,19,49,106,,20,02,126,,22,62,351,,0,4*6D,1603354225438
NMEA,$GNGSA,A,2,31,32,,,,,,,,,,,3.7,3.5,1.0,1*30,1603354225440
NMEA,$GNGSA,A,2,79,,,,,,,,,,,,3.7,3.5,1.0,2*3E,1603354225441
NMEA,$GNGSA,A,2,01,26,,,,,,,,,,,3.7,3.5,1.0,3*34,1603354225443
NMEA,$GNVTG,278.1,T,278.1,M,4.0,N,7.5,K,A*3B,1603354225444
NMEA,$GNRMC,081026.00,A,2255.525945,N,12017.704699,E,4.0,278.1,221020,2.8,W,A*3F,1603354225444
NMEA,$GNGGA,081026.00,2255.525945,N,12017.704699,E,1,05,3.5,2.6,M,17.5,M,,*71,1603354225450
Fix,gps,22.925434,120.295054,18.987671,1.500000,26.800001,1603354227000
NMEA,$GPGSV,3,1,11,31,23,240,32,32,30,314,29,10,66,323,,12,42,080,*7E,1603354226423
NMEA,$GPGSV,3,2,11,15,12,090,,18,18,191,,20,71,164,,21,04,306,*7A,1603354226428
Raw,10539684,10772881000000,,,-1287378671552259840,0.0,282.98108372837305,5.797111473203114,17.844910535691852,7,15,0.0,207,40226358290751,53,19.0,-733.8084716796875,1.158500075340271,0,0.0,0.0,,,,,0,,3,,
Raw,10539688,10772881000000,,,-1287378671552259840,0.0,282.98108372837305,5.797111473203114,17.844910535691852,7,31,0.0,15,375044356646395,12,32.2,-470.58441162109375,0.06289999932050705,0,0.0,0.0,,,,,0,,1,,
Raw,10539690,10772881000000,,,-1287378671552259840,0.0,282.98108372837305,5.797111473203114,17.844910535691852,7,32,0.0,15,375044357693432,16,29.1,-312.9867858886719,0.06720000505447388,0,0.0,0.0,,,,,0,,1,,
Raw,10539692,10772881000000,,,-1287378671552259840,0.0,282.98108372837305,5.797111473203114,17.844910535691852,7,21,0.0,15,375030347580180,16,29.4,-528.9392700195312,0.05220000073313713,0,0.0,0.0,,,,,0,,5,,
Raw,10539695,10772881000000,,,-1287378671552259840,0.0,282.98108372837305,5.797111473203114,17.844910535691852,7,26,0.0,7183,375044346351809,19,27.9,376.10211181640625,0.06830000132322311,0,0.0,0.0,,,,,0,,6,,
Raw,10539696,10772881000000,,,-1287378671552259840,0.0,282.98108372837305,5.797111473203114,17.844910535691852,7,33,0.0,7183,375044340573844,21,26.8,129.8724822998047,0.1502000093460083,0,0.0,0.0,,,,,0,,6,,
NMEA,$GPGSV,3,3,11,23,77,142,,24,22,040,,25,52,139,*46,1603354226429
NMEA,$GLGSV,1,1,01,79,19,206,19*5E,1603354226429
NMEA,$GAGSV,2,1,07,26,19,236,28,33,11,285,27,07,55,029,,13,06,187,*61,1603354226430
NMEA,$GAGSV,2,2,07,21,14,201,,27,60,168,,30,48,056,*5A,1603354226433
NMEA,$PQGSV,1,1,0,*73,1603354226434
NMEA,$PQGSV,4,1,16,21,15,319,29,01,51,130,,02,41,241,,03,59,202,,0,4*66,1603354226435
NMEA,$PQGSV,4,2,16,04,37,115,,05,17,258,,06,53,358,,07,41,167,,0,4*6F,1603354226437
NMEA,$PQGSV,4,3,16,08,29,196,,09,44,317,,10,23,189,,13,40,224,,0,4*68,1603354226438
NMEA,$PQGSV,4,4,16,16,51,350,,19,49,106,,20,02,126,,22,62,351,,0,4*6D,1603354226439
NMEA,$GNGSA,A,2,31,32,,,,,,,,,,,3.7,3.5,1.0,1*30,1603354226442
NMEA,$GNGSA,A,2,79,,,,,,,,,,,,3.7,3.5,1.0,2*3E,1603354226443
NMEA,$GNGSA,A,2,01,26,,,,,,,,,,,3.7,3.5,1.0,3*34,1603354226444
NMEA,$GNVTG,282.3,T,282.3,M,2.9,N,5.4,K,A*37,1603354226445
NMEA,$GNRMC,081027.00,A,2255.526041,N,12017.703236,E,2.9,282.3,221020,2.8,W,A*3E,1603354226445
NMEA,$GNGGA,081027.00,2255.526041,N,12017.703236,E,1,05,3.5,1.5,M,17.5,M,,*78,1603354226446
NMEA,$GPGSV,3,1,11,31,23,240,32,32,30,314,28,10,66,323,,12,42,080,*7F,1603354227421
Raw,10540334,10773881000000,,,-1287378671552259840,0.0,264.97189537622035,5.945613879076296,16.699899964921368,7,15,0.0,207,40227358293064,35,22.8,-733.8552856445312,0.9684999585151672,0,0.0,0.0,,,,,0,,3,,
Raw,10540335,10773881000000,,,-1287378671552259840,0.0,264.97189537622035,5.945613879076296,16.699899964921368,7,31,0.0,15,375045356647966,13,31.9,-470.1688232421875,0.0642000064253807,0,0.0,0.0,,,,,0,,1,,
Raw,10540335,10773881000000,,,-1287378671552259840,0.0,264.97189537622035,5.945613879076296,16.699899964921368,7,32,0.0,15,375045357694425,17,28.3,-312.65618896484375,0.07380000501871109,0,0.0,0.0,,,,,0,,1,,
Raw,10540336,10773881000000,,,-1287378671552259840,0.0,264.97189537622035,5.945613879076296,16.699899964921368,7,21,0.0,15,375031347581930,16,29.8,-528.6387329101562,0.05220000073313713,0,0.0,0.0,,,,,0,,5,,
Raw,10540336,10773881000000,,,-1287378671552259840,0.0,264.97189537622035,5.945613879076296,16.699899964921368,7,26,0.0,7183,375045346350564,19,27.5,375.6754150390625,0.06830000132322311,0,0.0,0.0,,,,,0,,6,,
Raw,10540337,10773881000000,,,-1287378671552259840,0.0,264.97189537622035,5.945613879076296,16.699899964921368,7,33,0.0,7183,375045340573422,24,25.6,129.7259063720703,0.42080000042915344,0,0.0,0.0,,,,,0,,6,,
Fix,gps,22.925435,120.295029,19.424561,1.490000,28.944000,1603354228000
NMEA,$GPGSV,3,2,11,15,12,090,,18,18,191,,20,71,164,,21,04,306,*7A,1603354227421
NMEA,$GPGSV,3,3,11,23,77,142,,24,22,040,,25,52,139,*46,1603354227425
NMEA,$GLGSV,1,1,01,79,19,206,23*57,1603354227425
NMEA,$GAGSV,2,1,07,26,19,236,28,33,11,285,26,07,55,029,,13,06,187,*60,1603354227426
NMEA,$GAGSV,2,2,07,21,14,201,,27,60,168,,30,48,056,*5A,1603354227427
NMEA,$PQGSV,1,1,0,*73,1603354227428
NMEA,$PQGSV,4,1,16,21,15,319,30,01,51,130,,02,41,241,,03,59,202,,0,4*6E,1603354227429
NMEA,$PQGSV,4,2,16,04,37,115,,05,17,258,,06,53,358,,07,41,167,,0,4*6F,1603354227430
NMEA,$PQGSV,4,3,16,08,29,196,,09,44,317,,10,23,189,,13,40,224,,0,4*68,1603354227430
NMEA,$PQGSV,4,4,16,16,51,350,,19,49,106,,20,02,126,,22,62,351,,0,4*6D,1603354227431
NMEA,$GNGSA,A,2,31,32,,,,,,,,,,,3.7,3.5,1.0,1*30,1603354227434
NMEA,$GNGSA,A,2,79,,,,,,,,,,,,3.7,3.5,1.0,2*3E,1603354227434
NMEA,$GNGSA,A,2,01,26,,,,,,,,,,,3.7,3.5,1.0,3*34,1603354227435
NMEA,$GNVTG,277.9,T,277.9,M,2.9,N,5.4,K,A*37,1603354227435
NMEA,$GNRMC,081028.00,A,2255.526120,N,12017.701727,E,2.9,277.9,221020,2.8,W,A*30,1603354227435
NMEA,$GNGGA,081028.00,2255.526120,N,12017.701727,E,1,05,3.5,2.0,M,17.5,M,,*70,1603354227435
Fix,gps,22.925436,120.295002,20.775818,1.460000,31.088001,1603354229000
Raw,10541360,10774881000000,,,-1287378671552259840,0.0,283.6884232237935,5.987081305023061,17.924139388488456,7,15,0.0,207,40228358295462,40,21.4,-733.1535034179688,1.028499960899353,0,0.0,0.0,,,,,0,,3,,
Raw,10541362,10774881000000,,,-1287378671552259840,0.0,283.6884232237935,5.987081305023061,17.924139388488456,7,31,0.0,15,375046356649549,13,31.8,-469.9823303222656,0.0642000064253807,0,0.0,0.0,,,,,0,,1,,
Raw,10541365,10774881000000,,,-1287378671552259840,0.0,283.6884232237935,5.987081305023061,17.924139388488456,7,32,0.0,15,375046357695508,17,28.7,-312.4669189453125,0.07380000501871109,0,0.0,0.0,,,,,0,,1,,
Raw,10541367,10774881000000,,,-1287378671552259840,0.0,283.6884232237935,5.987081305023061,17.924139388488456,7,21,0.0,15,375032347583690,16,29.2,-528.5242309570312,0.05220000073313713,0,0.0,0.0,,,,,0,,5,,
Raw,10541370,10774881000000,,,-1287378671552259840,0.0,283.6884232237935,5.987081305023061,17.924139388488456,7,26,0.0,7183,375046346349315,19,27.3,376.9399719238281,0.06830000132322311,0,0.0,0.0,,,,,0,,6,,
Raw,10541372,10774881000000,,,-1287378671552259840,0.0,283.6884232237935,5.987081305023061,17.924139388488456,7,33,0.0,7183,375046340572966,24,25.4,131.25787353515625,0.42080000042915344,0,0.0,0.0,,,,,0,,6,,
NMEA,$GPGSV,3,1,11,31,23,240,32,32,30,314,29,10,66,323,,12,42,080,*7E,1603354228420
NMEA,$GPGSV,3,2,11,15,12,090,,18,18,191,,20,71,164,,21,04,306,*7A,1603354228421
NMEA,$GPGSV,3,3,11,23,77,142,,24,22,040,,25,52,139,*46,1603354228422
NMEA,$GLGSV,1,1,01,79,19,206,21*55,1603354228422
NMEA,$GAGSV,2,1,07,26,19,236,27,33,11,285,25,07,55,029,,13,06,187,*6C,1603354228423
NMEA,$GAGSV,2,2,07,21,14,201,,27,60,168,,30,48,056,*5A,1603354228427
NMEA,$PQGSV,1,1,0,*73,1603354228428
NMEA,$PQGSV,4,1,16,21,15,319,29,01,51,130,,02,41,241,,03,59,202,,0,4*66,1603354228430
NMEA,$PQGSV,4,2,16,04,37,115,,05,17,258,,06,53,358,,07,41,167,,0,4*6F,1603354228431
NMEA,$PQGSV,4,3,16,08,29,196,,09,44,317,,10,23,189,,13,40,224,,0,4*68,1603354228435
NMEA,$PQGSV,4,4,16,16,51,350,,19,49,106,,20,02,126,,22,62,351,,0,4*6D,1603354228436
NMEA,$GNGSA,A,2,31,32,,,,,,,,,,,3.7,3.5,1.0,1*30,1603354228438
NMEA,$GNGSA,A,2,79,,,,,,,,,,,,3.7,3.5,1.0,2*3E,1603354228439
NMEA,$GNGSA,A,2,01,26,,,,,,,,,,,3.7,3.5,1.0,3*34,1603354228439
NMEA,$GNVTG,279.5,T,279.5,M,2.8,N,5.3,K,A*31,1603354228442
NMEA,$GNRMC,081029.00,A,2255.526170,N,12017.700118,E,2.8,279.5,221020,2.8,W,A*3C,1603354228450
NMEA,$GNGGA,081029.00,2255.526170,N,12017.700118,E,1,05,3.5,3.3,M,17.5,M,,*7D,1603354228450
NMEA,$GPGSV,3,1,11,31,23,240,31,32,30,314,27,10,66,323,,12,42,080,*73,1603354229420
Raw,10542334,10775881000000,,,-1287378671552259840,0.0,297.3975788336247,8.09852339265508,18.32919395587962,7,15,0.0,207,40229358298065,46,20.5,-734.6787109375,1.0885000228881836,0,0.0,0.0,,,,,0,,3,,
Raw,10542334,10775881000000,,,-1287378671552259840,0.0,297.3975788336247,8.09852339265508,18.32919395587962,7,31,0.0,15,375047356651080,13,31.3,-470.70458984375,0.0642000064253807,0,0.0,0.0,,,,,0,,1,,
Raw,10542335,10775881000000,,,-1287378671552259840,0.0,297.3975788336247,8.09852339265508,18.32919395587962,7,32,0.0,15,375047357696545,19,27.2,-313.3456726074219,0.08180000633001328,0,0.0,0.0,,,,,0,,1,,
Raw,10542336,10775881000000,,,-1287378671552259840,0.0,297.3975788336247,8.09852339265508,18.32919395587962,7,21,0.0,15,375033347585462,17,28.6,-529.2955932617188,0.058800000697374344,0,0.0,0.0,,,,,0,,5,,
Raw,10542336,10775881000000,,,-1287378671552259840,0.0,297.3975788336247,8.09852339265508,18.32919395587962,7,26,0.0,7183,375047346348057,19,27.5,377.3929138183594,0.06830000132322311,0,0.0,0.0,,,,,0,,6,,
Raw,10542337,10775881000000,,,-1287378671552259840,0.0,297.3975788336247,8.09852339265508,18.32919395587962,7,33,0.0,7183,375047340572549,21,26.7,131.23245239257812,0.1502000093460083,0,0.0,0.0,,,,,0,,6,,
Fix,gps,22.925437,120.294984,18.948181,1.250000,30.016001,1603354230000
NMEA,$GPGSV,3,2,11,15,12,090,,18,18,191,,20,71,164,,21,04,306,*7A,1603354229421
NMEA,$GPGSV,3,3,11,23,77,142,,24,22,040,,25,52,139,*46,1603354229422
NMEA,$GLGSV,1,1,01,79,19,206,21*55,1603354229422
NMEA,$GAGSV,2,1,07,26,19,236,28,33,11,285,27,07,55,029,,13,06,187,*61,1603354229423
NMEA,$GAGSV,2,2,07,21,14,201,,27,60,168,,30,48,056,*5A,1603354229425
NMEA,$PQGSV,1,1,0,*73,1603354229426
NMEA,$PQGSV,4,1,16,21,15,319,29,01,51,130,,02,41,241,,03,59,202,,0,4*66,1603354229427
NMEA,$PQGSV,4,2,16,04,37,115,,05,17,258,,06,53,358,,07,41,167,,0,4*6F,1603354229428
NMEA,$PQGSV,4,3,16,08,29,196,,09,44,317,,10,23,189,,13,40,224,,0,4*68,1603354229429
NMEA,$PQGSV,4,4,16,16,51,350,,19,49,106,,20,02,126,,22,62,351,,0,4*6D,1603354229431
NMEA,$GNGSA,A,2,31,32,,,,,,,,,,,3.7,3.5,1.0,1*30,1603354229438
NMEA,$GNGSA,A,2,79,,,,,,,,,,,,3.7,3.5,1.0,2*3E,1603354229439
NMEA,$GNGSA,A,2,01,26,,,,,,,,,,,3.7,3.5,1.0,3*34,1603354229440
NMEA,$GNVTG,282.2,T,282.2,M,2.4,N,4.5,K,A*3A,1603354229440
NMEA,$GNRMC,081030.00,A,2255.526242,N,12017.699020,E,2.4,282.2,221020,2.8,W,A*32,1603354229441
NMEA,$GNGGA,081030.00,2255.526242,N,12017.699020,E,1,05,3.5,1.5,M,17.5,M,,*78,1603354229441
Raw,10543385,10776881000000,,,-1287378671552259840,0.0,286.1087559722364,6.6781674276070735,20.712612636893333,7,15,0.0,207,40230358300498,40,21.6,-734.0704956054688,1.028499960899353,0,0.0,0.0,,,,,0,,3,,
Raw,10543385,10776881000000,,,-1287378671552259840,0.0,286.1087559722364,6.6781674276070735,20.712612636893333,7,31,0.0,15,375048356652671,13,31.7,-470.53009033203125,0.0642000064253807,0,0.0,0.0,,,,,0,,1,,
Raw,10543386,10776881000000,,,-1287378671552259840,0.0,286.1087559722364,6.6781674276070735,20.712612636893333,7,32,0.0,15,375048357697619,19,27.9,-313.2501525878906,0.08180000633001328,0,0.0,0.0,,,,,0,,1,,
Raw,10543386,10776881000000,,,-1287378671552259840,0.0,286.1087559722364,6.6781674276070735,20.712612636893333,7,21,0.0,15,375034347587224,17,28.7,-529.2173461914062,0.058800000697374344,0,0.0,0.0,,,,,0,,5,,
Raw,10543387,10776881000000,,,-1287378671552259840,0.0,286.1087559722364,6.6781674276070735,20.712612636893333,7,26,0.0,7183,375048346346810,19,27.1,376.402099609375,0.06830000132322311,0,0.0,0.0,,,,,0,,6,,
Raw,10543387,10776881000000,,,-1287378671552259840,0.0,286.1087559722364,6.6781674276070735,20.712612636893333,7,33,0.0,7183,375048340572095,19,27.0,130.69747924804688,0.08030000329017639,0,0.0,0.0,,,,,0,,6,,
Fix,gps,22.925437,120.294985,18.968140,0.400000,26.800001,1603354231000
NMEA,$GPGSV,3,1,11,31,23,240,32,32,30,314,28,10,66,323,,12,42,080,*7F,1603354230422
NMEA,$GPGSV,3,2,11,15,12,090,,18,18,191,,20,71,164,,21,04,306,*7A,1603354230423
NMEA,$GPGSV,3,3,11,23,77,142,,24,22,040,,25,52,139,*46,1603354230423
NMEA,$GLGSV,1,1,01,79,19,206,22*56,1603354230424
NMEA,$GAGSV,2,1,07,26,19,236,27,33,11,285,27,07,55,029,,13,06,187,*6E,1603354230425
NMEA,$GAGSV,2,2,07,21,14,201,,27,60,168,,30,48,056,*5A,1603354230425
NMEA,$PQGSV,1,1,0,*73,1603354230426
NMEA,$PQGSV,4,1,16,21,15,319,29,01,51,130,,02,41,241,,03,59,202,,0,4*66,1603354230427
NMEA,$PQGSV,4,2,16,04,37,115,,05,17,258,,06,53,358,,07,41,167,,0,4*6F,1603354230427
NMEA,$PQGSV,4,3,16,08,29,196,,09,44,317,,10,23,189,,13,40,224,,0,4*68,1603354230429
NMEA,$PQGSV,4,4,16,16,51,350,,19,49,106,,20,02,126,,22,62,351,,0,4*6D,1603354230430
NMEA,$GNGSA,A,2,31,32,,,,,,,,,,,3.7,3.5,1.0,1*30,1603354230433
NMEA,$GNGSA,A,2,79,,,,,,,,,,,,3.7,3.5,1.0,2*3E,1603354230434
NMEA,$GNGSA,A,2,01,26,,,,,,,,,,,3.7,3.5,1.0,3*34,1603354230435
NMEA,$GNVTG,291.6,T,291.6,M,0.8,N,1.4,K,A*30,1603354230437
NMEA,$GNRMC,081031.00,A,2255.526194,N,12017.699103,E,0.8,291.6,221020,2.8,W,A*33,1603354230437
NMEA,$GNGGA,081031.00,2255.526194,N,12017.699103,E,1,05,3.5,1.5,M,17.5,M,,*71,1603354230438
Fix,gps,22.925434,120.294995,17.335693,0.000000,25.728001,1603354232000
Raw,10544646,10777881000000,,,-1287378671552259840,0.0,242.3706027911976,3.079679881413921,19.346904252949464,7,15,0.0,207,40231358302978,40,21.2,-733.387451171875,1.028499960899353,0,0.0,0.0,,,,,0,,3,,
Raw,10544649,10777881000000,,,-1287378671552259840,0.0,242.3706027911976,3.079679881413921,19.346904252949464,7,31,0.0,15,375049356654228,13,31.4,-470.22857666015625,0.0642000064253807,0,0.0,0.0,,,,,0,,1,,
Raw,10544651,10777881000000,,,-1287378671552259840,0.0,242.3706027911976,3.079679881413921,19.346904252949464,7,32,0.0,15,375049357698646,19,27.4,-313.0307312011719,0.08180000633001328,0,0.0,0.0,,,,,0,,1,,
Raw,10544653,10777881000000,,,-1287378671552259840,0.0,242.3706027911976,3.079679881413921,19.346904252949464,7,21,0.0,15,375035347589004,19,27.9,-528.9630737304688,0.06680000573396683,0,0.0,0.0,,,,,0,,5,,
Raw,10544655,10777881000000,,,-1287378671552259840,0.0,242.3706027911976,3.079679881413921,19.346904252949464,7,26,0.0,7183,375049346345561,19,27.5,375.81243896484375,0.06830000132322311,0,0.0,0.0,,,,,0,,6,,
Raw,10544658,10777881000000,,,-1287378671552259840,0.0,242.3706027911976,3.079679881413921,19.346904252949464,7,33,0.0,7183,375049340571665,21,26.9,129.5142059326172,0.1502000093460083,0,0.0,0.0,,,,,0,,6,,
NMEA,$GPGSV,3,1,11,31,23,240,31,32,30,314,27,10,66,323,,12,42,080,*73,1603354231423
NMEA,$GPGSV,3,2,11,15,12,090,,18,18,191,,20,71,164,,21,04,306,*7A,1603354231424
NMEA,$GPGSV,3,3,11,23,77,142,,24,22,040,,25,52,139,*46,1603354231425
NMEA,$GLGSV,1,1,01,79,19,206,21*55,1603354231426
NMEA,$GAGSV,2,1,07,26,19,236,28,33,11,285,27,07,55,029,,13,06,187,*61,1603354231426
NMEA,$GAGSV,2,2,07,21,14,201,,27,60,168,,30,48,056,*5A,1603354231430
NMEA,$PQGSV,1,1,0,*73,1603354231436
NMEA,$PQGSV,4,1,16,21,15,319,28,01,51,130,,02,41,241,,03,59,202,,0,4*67,1603354231437
NMEA,$PQGSV,4,2,16,04,37,115,,05,17,258,,06,53,358,,07,41,167,,0,4*6F,1603354231438
NMEA,$PQGSV,4,3,16,08,29,196,,09,44,317,,10,23,189,,13,40,224,,0,4*68,1603354231439
NMEA,$PQGSV,4,4,16,16,51,350,,19,49,106,,20,02,126,,22,62,351,,0,4*6D,1603354231440
NMEA,$GNGSA,A,2,31,32,,,,,,,,,,,3.7,3.5,1.0,1*30,1603354231443
NMEA,$GNGSA,A,2,79,,,,,,,,,,,,3.7,3.5,1.0,2*3E,1603354231443
NMEA,$GNGSA,A,2,01,26,,,,,,,,,,,3.7,3.5,1.0,3*34,1603354231444
NMEA,$GNVTG,,T,,M,0.0,N,0.0,K,A*3D,1603354231445
NMEA,$GNRMC,081032.00,A,2255.526048,N,12017.699707,E,0.0,,221020,2.8,W,A*18,1603354231445
NMEA,$GNGGA,081032.00,2255.526048,N,12017.699707,E,1,05,3.5,-0.1,M,17.5,M,,*58,1603354231446
Raw,10545340,10778881000000,,,-1287378671552259840,0.0,230.5757225258276,2.3335797530296527,18.04130940113831,7,15,0.0,207,40232358305417,53,19.1,-733.1348266601562,1.158500075340271,0,0.0,0.0,,,,,0,,3,,
Raw,10545341,10778881000000,,,-1287378671552259840,0.0,230.5757225258276,2.3335797530296527,18.04130940113831,7,31,0.0,15,375050356655792,13,31.7,-469.9928894042969,0.0642000064253807,0,0.0,0.0,,,,,0,,1,,
Raw,10545341,10778881000000,,,-1287378671552259840,0.0,230.5757225258276,2.3335797530296527,18.04130940113831,7,32,0.0,15,375050357699697,17,28.0,-312.8476257324219,0.07380000501871109,0,0.0,0.0,,,,,0,,1,,
Raw,10545342,10778881000000,,,-1287378671552259840,0.0,230.5757225258276,2.3335797530296527,18.04130940113831,7,21,0.0,15,375036347590765,17,28.7,-528.8082275390625,0.058800000697374344,0,0.0,0.0,,,,,0,,5,,
Raw,10545343,10778881000000,,,-1287378671552259840,0.0,230.5757225258276,2.3335797530296527,18.04130940113831,7,26,0.0,7183,375050346344311,19,27.4,376.143798828125,0.06830000132322311,0,0.0,0.0,,,,,0,,6,,
Raw,10545344,10778881000000,,,-1287378671552259840,0.0,230.5757225258276,2.3335797530296527,18.04130940113831,7,33,0.0,7183,375050340571237,19,27.5,129.36264038085938,0.08030000329017639,0,0.0,0.0,,,,,0,,6,,
Fix,gps,22.925435,120.294994,15.945374,1.430000,23.584000,1603354233000
NMEA,$GPGSV,3,1,11,31,23,240,32,32,30,314,28,10,66,323,,12,42,080,*7F,1603354232422
NMEA,$GPGSV,3,2,11,15,12,090,,18,18,191,,20,71,164,,21,04,306,*7A,1603354232427
NMEA,$GPGSV,3,3,11,23,77,142,,24,22,040,,25,52,139,*46,1603354232428
NMEA,$GLGSV,1,1,01,79,19,206,19*5E,1603354232429
NMEA,$GAGSV,2,1,07,26,19,236,27,33,11,285,28,07,55,029,,13,06,187,*61,1603354232429
NMEA,$GAGSV,2,2,07,21,14,201,,27,60,168,,30,48,056,*5A,1603354232431
NMEA,$PQGSV,1,1,0,*73,1603354232431
NMEA,$PQGSV,4,1,16,21,15,319,29,01,51,130,,02,41,241,,03,59,202,,0,4*66,1603354232432
NMEA,$PQGSV,4,2,16,04,37,115,,05,17,258,,06,53,358,,07,41,167,,0,4*6F,1603354232433
NMEA,$PQGSV,4,3,16,08,29,196,,09,44,317,,10,23,189,,13,40,224,,0,4*68,1603354232434
NMEA,$PQGSV,4,4,16,16,51,350,,19,49,106,,20,02,126,,22,62,351,,0,4*6D,1603354232434
NMEA,$GNGSA,A,2,31,32,,,,,,,,,,,3.7,3.5,1.0,1*30,1603354232437
NMEA,$GNGSA,A,2,79,,,,,,,,,,,,3.7,3.5,1.0,2*3E,1603354232437
NMEA,$GNGSA,A,2,01,26,,,,,,,,,,,3.7,3.5,1.0,3*34,1603354232438
NMEA,$GNVTG,293.9,T,293.9,M,2.8,N,5.1,K,A*33,1603354232439
NMEA,$GNRMC,081033.00,A,2255.526117,N,12017.699632,E,2.8,293.9,221020,2.8,W,A*30,1603354232439
NMEA,$GNGGA,081033.00,2255.526117,N,12017.699632,E,1,05,3.5,-1.5,M,17.5,M,,*50,1603354232440
Fix,gps,22.925438,120.294988,14.524597,1.730000,22.512001,1603354234000
Raw,10546359,10779881000000,,,-1287378671552259840,0.0,223.3237901236862,4.886005114963006,18.661957682517443,7,15,0.0,207,40233358307884,46,20.9,-733.0973510742188,1.0885000228881836,0,0.0,0.0,,,,,0,,3,,
Raw,10546362,10779881000000,,,-1287378671552259840,0.0,223.3237901236862,4.886005114963006,18.661957682517443,7,31,0.0,15,375051356657368,12,32.1,-469.556640625,0.06289999932050705,0,0.0,0.0,,,,,0,,1,,
Raw,10546364,10779881000000,,,-1287378671552259840,0.0,223.3237901236862,4.886005114963006,18.661957682517443,7,32,0.0,15,375051357700758,17,28.2,-312.4790344238281,0.07380000501871109,0,0.0,0.0,,,,,0,,1,,
Raw,10546366,10779881000000,,,-1287378671552259840,0.0,223.3237901236862,4.886005114963006,18.661957682517443,7,21,0.0,15,375037347592534,19,27.9,-528.4620361328125,0.06680000573396683,0,0.0,0.0,,,,,0,,5,,
Raw,10546370,10779881000000,,,-1287378671552259840,0.0,223.3237901236862,4.886005114963006,18.661957682517443,7,26,0.0,7183,375051346343036,21,26.7,375.7203674316406,0.13819999992847443,0,0.0,0.0,,,,,0,,6,,
Raw,10546372,10779881000000,,,-1287378671552259840,0.0,223.3237901236862,4.886005114963006,18.661957682517443,7,33,0.0,7183,375051340570808,19,27.0,129.73873901367188,0.08030000329017639,0,0.0,0.0,,,,,0,,6,,
NMEA,$GPGSV,3,1,11,31,23,240,32,32,30,314,28,10,66,323,,12,42,080,*7F,1603354233416
NMEA,$GPGSV,3,2,11,15,12,090,,18,18,191,,20,71,164,,21,04,306,*7A,1603354233418
NMEA,$GPGSV,3,3,11,23,77,142,,24,22,040,,25,52,139,*46,1603354233419
NMEA,$GLGSV,1,1,01,79,19,206,21*55,1603354233419
NMEA,$GAGSV,2,1,07,26,19,236,27,33,11,285,27,07,55,029,,13,06,187,*6E,1603354233420
NMEA,$GAGSV,2,2,07,21,14,201,,27,60,168,,30,48,056,*5A,1603354233420
NMEA,$PQGSV,1,1,0,*73,1603354233420
NMEA,$PQGSV,4,1,16,21,15,319,28,01,51,130,,02,41,241,,03,59,202,,0,4*67,1603354233420
NMEA,$PQGSV,4,2,16,04,37,115,,05,17,258,,06,53,358,,07,41,167,,0,4*6F,1603354233420
NMEA,$PQGSV,4,3,16,08,29,196,,09,44,317,,10,23,189,,13,40,224,,0,4*68,1603354233421
NMEA,$PQGSV,4,4,16,16,51,350,,19,49,106,,20,02,126,,22,62,351,,0,4*6D,1603354233421
NMEA,$GNGSA,A,2,31,32,,,,,,,,,,,3.7,3.5,1.0,1*30,1603354233421
NMEA,$GNGSA,A,2,79,,,,,,,,,,,,3.7,3.5,1.0,2*3E,1603354233421
NMEA,$GNGSA,A,2,01,26,,,,,,,,,,,3.7,3.5,1.0,3*34,1603354233422
NMEA,$GNVTG,283.3,T,283.3,M,3.4,N,6.2,K,A*3E,1603354233422
NMEA,$GNRMC,081034.00,A,2255.526300,N,12017.699271,E,3.4,283.3,221020,2.8,W,A*36,1603354233422
NMEA,$GNGGA,081034.00,2255.526300,N,12017.699271,E,1,05,3.5,-2.9,M,17.5,M,,*5F,1603354233422
Fix,gps,22.925439,120.294986,14.287415,1.030000,21.440001,1603354235000
Raw,10547361,10780881000000,,,-1287378671552259840,0.0,218.58664695173502,6.218238624660563,17.773341808067265,7,15,0.0,207,40234358310292,40,21.4,-733.162841796875,1.028499960899353,0,0.0,0.0,,,,,0,,3,,
Raw,10547364,10780881000000,,,-1287378671552259840,0.0,218.58664695173502,6.218238624660563,17.773341808067265,7,31,0.0,15,375052356658944,13,31.2,-470.11553955078125,0.0642000064253807,0,0.0,0.0,,,,,0,,1,,
Raw,10547366,10780881000000,,,-1287378671552259840,0.0,218.58664695173502,6.218238624660563,17.773341808067265,7,32,0.0,15,375052357701775,19,27.9,-313.1160583496094,0.08180000633001328,0,0.0,0.0,,,,,0,,1,,
Raw,10547368,10780881000000,,,-1287378671552259840,0.0,218.58664695173502,6.218238624660563,17.773341808067265,7,21,0.0,15,375038347594303,19,27.9,-529.1060180664062,0.06680000573396683,0,0.0,0.0,,,,,0,,5,,
Raw,10547371,10780881000000,,,-1287378671552259840,0.0,218.58664695173502,6.218238624660563,17.773341808067265,7,26,0.0,7183,375052346341782,21,26.5,377.3568420410156,0.13819999992847443,0,0.0,0.0,,,,,0,,6,,
Raw,10547373,10780881000000,,,-1287378671552259840,0.0,218.58664695173502,6.218238624660563,17.773341808067265,7,33,0.0,7183,375052340570359,19,27.0,131.2146453857422,0.08030000329017639,0,0.0,0.0,,,,,0,,6,,
NMEA,$GPGSV,3,1,11,31,23,240,31,32,30,314,28,10,66,323,,12,42,080,*7C,1603354234420
NMEA,$GPGSV,3,2,11,15,12,090,,18,18,191,,20,71,164,,21,04,306,*7A,1603354234421
NMEA,$GPGSV,3,3,11,23,77,142,,24,22,040,,25,52,139,*46,1603354234421
NMEA,$GLGSV,1,1,01,79,19,206,21*55,1603354234426
NMEA,$GAGSV,2,1,07,26,19,236,27,33,11,285,27,07,55,029,,13,06,187,*6E,1603354234426
NMEA,$GAGSV,2,2,07,21,14,201,,27,60,168,,30,48,056,*5A,1603354234428
NMEA,$PQGSV,1,1,0,*73,1603354234429
NMEA,$PQGSV,4,1,16,21,15,319,28,01,51,130,,02,41,241,,03,59,202,,0,4*67,1603354234430
NMEA,$PQGSV,4,2,16,04,37,115,,05,17,258,,06,53,358,,07,41,167,,0,4*6F,1603354234432
NMEA,$PQGSV,4,3,16,08,29,196,,09,44,317,,10,23,189,,13,40,224,,0,4*68,1603354234433
NMEA,$PQGSV,4,4,16,16,51,350,,19,49,106,,20,02,126,,22,62,351,,0,4*6D,1603354234434
NMEA,$GNGSA,A,2,31,32,,,,,,,,,,,3.7,3.5,1.0,1*30,1603354234437
NMEA,$GNGSA,A,2,79,,,,,,,,,,,,3.7,3.5,1.0,2*3E,1603354234437
NMEA,$GNGSA,A,2,01,26,,,,,,,,,,,3.7,3.5,1.0,3*34,1603354234438
NMEA,$GNVTG,281.9,T,281.9,M,2.0,N,3.7,K,A*3B,1603354234438
NMEA,$GNRMC,081035.00,A,2255.526313,N,12017.699180,E,2.0,281.9,221020,2.8,W,A*35,1603354234439
NMEA,$GNGGA,081035.00,2255.526313,N,12017.699180,E,1,05,3.5,-3.2,M,17.5,M,,*5B,1603354234439
Raw,10548340,10781881000000,,,-1287378671552259840,0.0,209.82128626201302,5.686760976058868,19.474000935283406,7,15,0.0,207,40235358312734,35,22.9,-733.4248657226562,0.9684999585151672,0,0.0,0.0,,,,,0,,3,,
Raw,10548341,10781881000000,,,-1287378671552259840,0.0,209.82128626201302,5.686760976058868,19.474000935283406,7,31,0.0,15,375053356660504,13,31.4,-469.8968200683594,0.0642000064253807,0,0.0,0.0,,,,,0,,1,,
Raw,10548341,10781881000000,,,-1287378671552259840,0.0,209.82128626201302,5.686760976058868,19.474000935283406,7,32,0.0,15,375053357702839,21,26.8,-313.0089416503906,0.1517000049352646,0,0.0,0.0,,,,,0,,1,,
Raw,10548342,10781881000000,,,-1287378671552259840,0.0,209.82128626201302,5.686760976058868,19.474000935283406,7,21,0.0,15,375039347596048,17,28.2,-528.9609375,0.058800000697374344,0,0.0,0.0,,,,,0,,5,,
Raw,10548342,10781881000000,,,-1287378671552259840,0.0,209.82128626201302,5.686760976058868,19.474000935283406,7,26,0.0,7183,375053346340536,21,26.2,376.62225341796875,0.13819999992847443,0,0.0,0.0,,,,,0,,6,,
Raw,10548342,10781881000000,,,-1287378671552259840,0.0,209.82128626201302,5.686760976058868,19.474000935283406,7,33,0.0,7183,375053340569926,17,28.0,130.18470764160156,0.0723000019788742,0,0.0,0.0,,,,,0,,6,,
Fix,gps,22.925438,120.294990,13.993042,0.930000,20.368000,1603354236000
NMEA,$GPGSV,3,1,11,31,23,240,31,32,30,314,27,10,66,323,,12,42,080,*73,1603354235424
NMEA,$GPGSV,3,2,11,15,12,090,,18,18,191,,20,71,164,,21,04,306,*7A,1603354235425
NMEA,$GPGSV,3,3,11,23,77,142,,24,22,040,,25,52,139,*46,1603354235429
NMEA,$GLGSV,1,1,01,79,19,206,23*57,1603354235430
NMEA,$GAGSV,2,1,07,26,19,236,26,33,11,285,28,07,55,029,,13,06,187,*60,1603354235431
NMEA,$GAGSV,2,2,07,21,14,201,,27,60,168,,30,48,056,*5A,1603354235432
NMEA,$PQGSV,1,1,0,*73,1603354235433
NMEA,$PQGSV,4,1,16,21,15,319,28,01,51,130,,02,41,241,,03,59,202,,0,4*67,1603354235434
NMEA,$PQGSV,4,2,16,04,37,115,,05,17,258,,06,53,358,,07,41,167,,0,4*6F,1603354235435
NMEA,$PQGSV,4,3,16,08,29,196,,09,44,317,,10,23,189,,13,40,224,,0,4*68,1603354235435
NMEA,$PQGSV,4,4,16,16,51,350,,19,49,106,,20,02,126,,22,62,351,,0,4*6D,1603354235435
NMEA,$GNGSA,A,2,31,32,,,,,,,,,,,3.7,3.5,1.0,1*30,1603354235439
NMEA,$GNGSA,A,2,79,,,,,,,,,,,,3.7,3.5,1.0,2*3E,1603354235442
NMEA,$GNGSA,A,2,01,26,,,,,,,,,,,3.7,3.5,1.0,3*34,1603354235443
NMEA,$GNVTG,281.4,T,281.4,M,1.8,N,3.3,K,A*34,1603354235443
NMEA,$GNRMC,081036.00,A,2255.526302,N,12017.699397,E,1.8,281.4,221020,2.8,W,A*34,1603354235443
NMEA,$GNGGA,081036.00,2255.526302,N,12017.699397,E,1,05,3.5,-3.5,M,17.5,M,,*5B,1603354235444
Raw,10549621,10782881000000,,,-1287378671552259840,0.0,196.8972064787522,4.738656260954651,18.34799434614815,7,15,0.0,207,40236358315075,35,22.5,-732.8353881835938,0.9684999585151672,0,0.0,0.0,,,,,0,,3,,
Raw,10549624,10782881000000,,,-1287378671552259840,0.0,196.8972064787522,4.738656260954651,18.34799434614815,7,31,0.0,15,375054356662085,14,30.0,-469.4573669433594,0.06480000168085098,0,0.0,0.0,,,,,0,,1,,
