# 
# Header Description:
# 
# Version: v2.0.0.1 Platform: 8.0.0 Manufacturer: Sony Model: G8142
# 
# Raw,ElapsedRealtimeMillis,TimeNanos,LeapSecond,TimeUncertaintyNanos,FullBiasNanos,BiasNanos,BiasUncertaintyNanos,DriftNanosPerSecond,DriftUncertaintyNanosPerSecond,HardwareClockDiscontinuityCount,Svid,TimeOffsetNanos,State,ReceivedSvTimeNanos,ReceivedSvTimeUncertaintyNanos,Cn0DbHz,PseudorangeRateMetersPerSecond,PseudorangeRateUncertaintyMetersPerSecond,AccumulatedDeltaRangeState,AccumulatedDeltaRangeMeters,AccumulatedDeltaRangeUncertaintyMeters,CarrierFrequencyHz,CarrierCycles,CarrierPhase,CarrierPhaseUncertainty,MultipathIndicator,SnrInDb,ConstellationType,AgcDb,CarrierFrequencyHz
# 
# Fix,Provider,Latitude,Longitude,Altitude,Speed,Accuracy,(UTC)TimeInMs
# 
# Nav,Svid,Type,Status,MessageId,Sub-messageId,Data(Bytes)
# 
Raw,8649335,8882881000000,,,-1287378671552265728,0.0,52.264884288888425,7.981635703970763,18.359801054859084,7,18,0.0,207,38336354184153,13,31.7,512.2837524414062,0.24620001018047333,0,0.0,0.0,,,,,0,,3,,
Raw,8649335,8882881000000,,,-1287378671552265728,0.0,52.264884288888425,7.981635703970763,18.359801054859084,7,15,0.0,207,38336353378051,35,22.7,-810.2256469726562,0.9459999799728394,0,0.0,0.0,,,,,0,,3,,
Raw,8649335,8882881000000,,,-1287378671552265728,0.0,52.264884288888425,7.981635703970763,18.359801054859084,7,19,0.0,207,38336354373797,27,24.3,237.12335205078125,0.8375000357627869,0,0.0,0.0,,,,,0,,3,,
Raw,8649336,8882881000000,,,-1287378671552265728,0.0,52.264884288888425,7.981635703970763,18.359801054859084,7,3,0.0,207,38336364949541,751,10.8,-267.6123962402344,17.072500228881836,0,0.0,0.0,,,,,0,,3,,
Raw,8649336,8882881000000,,,-1287378671552265728,0.0,52.264884288888425,7.981635703970763,18.359801054859084,7,4,0.0,207,38336356622363,16,29.0,-522.8628540039062,0.2506999969482422,0,0.0,0.0,,,,,0,,3,,
Raw,8649337,8882881000000,,,-1287378671552265728,0.0,52.264884288888425,7.981635703970763,18.359801054859084,7,10,0.0,15,373154362259225,46,20.3,-430.42529296875,0.9194999933242798,0,0.0,0.0,,,,,0,,1,,
Raw,8649337,8882881000000,,,-1287378671552265728,0.0,52.264884288888425,7.981635703970763,18.359801054859084,7,18,0.0,15,373154357449571,13,31.3,561.192138671875,0.050700001418590546,0,0.0,0.0,,,,,0,,1,,
Raw,8649338,8882881000000,,,-1287378671552265728,0.0,52.264884288888425,7.981635703970763,18.359801054859084,7,23,0.0,15,373154365995846,141,13.0,-46.365055084228516,3.8540000915527344,0,0.0,0.0,,,,,0,,1,,
Raw,8649338,8882881000000,,,-1287378671552265728,0.0,52.264884288888425,7.981635703970763,18.359801054859084,7,31,0.0,15,373154353300811,10,34.8,-585.6642456054688,0.041600000113248825,0,0.0,0.0,,,,,0,,1,,
Raw,8649338,8882881000000,,,-1287378671552265728,0.0,52.264884288888425,7.981635703970763,18.359801054859084,7,32,0.0,15,373154355760028,16,29.1,-300.4239196777344,0.04920000210404396,0,0.0,0.0,,,,,0,,1,,
Raw,8649338,8882881000000,,,-1287378671552265728,0.0,52.264884288888425,7.981635703970763,18.359801054859084,7,5,0.0,783,373140300593166,83,23.4,8.660981178283691,5.143500328063965,0,0.0,0.0,,,,,0,,5,,
Raw,8649339,8882881000000,,,-1287378671552265728,0.0,52.264884288888425,7.981635703970763,18.359801054859084,7,10,0.0,15,373140300849940,35,22.0,-235.0179443359375,0.6664999723434448,0,0.0,0.0,,,,,0,,5,,
Raw,8649339,8882881000000,,,-1287378671552265728,0.0,52.264884288888425,7.981635703970763,18.359801054859084,7,13,0.0,15,373140310634685,61,18.7,279.1678161621094,0.9314999580383301,0,0.0,0.0,,,,,0,,5,,
Raw,8649339,8882881000000,,,-1287378671552265728,0.0,52.264884288888425,7.981635703970763,18.359801054859084,7,21,0.0,15,373140344328901,31,23.5,-497.4783020019531,0.6225000023841858,0,0.0,0.0,,,,,0,,5,,
Raw,8649339,8882881000000,,,-1287378671552265728,0.0,52.264884288888425,7.981635703970763,18.359801054859084,7,7,0.0,7183,373154351899767,61,18.5,-84.85194396972656,0.8689999580383301,0,0.0,0.0,,,,,0,,6,,
Raw,8649339,8882881000000,,,-1287378671552265728,0.0,52.264884288888425,7.981635703970763,18.359801054859084,7,13,0.0,7183,373154342392478,302,21.0,469.8921813964844,11.193500518798828,0,0.0,0.0,,,,,0,,6,,
Raw,8649340,8882881000000,,,-1287378671552265728,0.0,52.264884288888425,7.981635703970763,18.359801054859084,7,26,0.0,7183,373154348588080,21,26.3,325.0596618652344,0.4805000126361847,0,0.0,0.0,,,,,0,,6,,
Raw,8649340,8882881000000,,,-1287378671552265728,0.0,52.264884288888425,7.981635703970763,18.359801054859084,7,33,0.0,7183,373154340974781,40,21.6,-5.642207145690918,0.6904999613761902,0,0.0,0.0,,,,,0,,6,,
Fix,gps,22.925348,120.294525,44.037109,0.000000,9.648001,1603352337000
NMEA,$GPGSV,3,1,11,10,52,329,20,18,29,199,31,23,82,035,13,31,14,230,35*79,1603352336427
NMEA,$GPGSV,3,2,11,32,24,302,29,12,41,099,,15,18,078,,20,87,135,*7B,1603352336427
NMEA,$GPGSV,3,3,11,21,00,000,,24,33,035,,25,40,151,*4C,1603352336428
NMEA,$GLGSV,2,1,05,82,09,240,32,79,05,201,23,83,09,285,24,67,46,016,11*61,1603352336429
NMEA,$GLGSV,2,2,05,68,15,326,29*56,1603352336429
NMEA,$GAGSV,2,1,07,07,52,011,19,13,14,194,21,26,26,247,26,33,12,296,22*67,1603352336429
NMEA,$GAGSV,2,2,07,21,03,201,,27,47,171,,30,52,074,*5A,1603352336429
NMEA,$PQGSV,1,1,01,194,63,111,18,0,5*6A,1603352336429
NMEA,$PQGSV,4,1,16,05,17,258,23,10,18,188,22,13,48,227,19,21,06,313,24,0,4*6E,1603352336429
NMEA,$PQGSV,4,2,16,01,51,130,,02,41,241,,03,60,202,,04,37,115,,0,4*6D,1603352336430
NMEA,$PQGSV,4,3,16,06,53,352,,07,35,165,,08,37,196,,09,45,310,,0,4*64,1603352336430
NMEA,$PQGSV,4,4,16,16,52,343,,19,54,085,,20,10,118,,22,51,341,,0,4*65,1603352336430
NMEA,$GNGSA,A,3,10,18,31,32,,,,,,,,,1.3,1.0,0.9,1*30,1603352336431
NMEA,$GNGSA,A,3,68,79,82,83,,,,,,,,,1.3,1.0,0.9,2*39,1603352336431
NMEA,$GNGSA,A,2,01,07,26,,,,,,,,,,1.3,1.0,0.9,3*3A,1603352336431
NMEA,$PQGSA,A,2,05,10,13,,,,,,,,,,1.3,1.0,0.9,4*31,1603352336431
NMEA,$GNVTG,,T,,M,0.0,N,0.0,K,A*3D,1603352336431
NMEA,$GNRMC,073857.00,A,2255.520893,N,12017.671472,E,0.0,,221020,2.8,W,A*11,1603352336431
NMEA,$GNGGA,073857.00,2255.520893,N,12017.671472,E,1,12,1.0,26.6,M,17.5,M,,*4E,1603352336432
Fix,gps,22.925351,120.294528,43.794006,0.000000,9.648001,1603352338000
Raw,8650346,8883881000000,,,-1287378671552265728,0.0,53.43084194464609,5.703187061541156,15.583430358869876,7,18,0.0,207,38337354182425,12,32.5,511.8779602050781,0.24490001797676086,0,0.0,0.0,,,,,0,,3,,
Raw,8650347,8883881000000,,,-1287378671552265728,0.0,53.43084194464609,5.703187061541156,15.583430358869876,7,15,0.0,207,38337353380966,24,25.6,-810.1255493164062,0.6013000011444092,0,0.0,0.0,,,,,0,,3,,
Raw,8650347,8883881000000,,,-1287378671552265728,0.0,53.43084194464609,5.703187061541156,15.583430358869876,7,19,0.0,207,38337354373042,24,25.6,237.0506134033203,0.6028000116348267,0,0.0,0.0,,,,,0,,3,,
Raw,8650347,8883881000000,,,-1287378671552265728,0.0,53.43084194464609,5.703187061541156,15.583430358869876,7,3,0.0,207,38337364950434,863,10.8,-267.6123962402344,18.572500228881836,0,0.0,0.0,,,,,0,,3,,
Raw,8650348,8883881000000,,,-1287378671552265728,0.0,53.43084194464609,5.703187061541156,15.583430358869876,7,4,0.0,207,38337356624171,21,26.9,-523.3198852539062,0.3352000117301941,0,0.0,0.0,,,,,0,,3,,
Raw,8650348,8883881000000,,,-1287378671552265728,0.0,53.43084194464609,5.703187061541156,15.583430358869876,7,10,0.0,15,373155362260683,61,18.5,-429.9590148925781,0.999500036239624,0,0.0,0.0,,,,,0,,1,,
Raw,8650348,8883881000000,,,-1287378671552265728,0.0,53.43084194464609,5.703187061541156,15.583430358869876,7,18,0.0,15,373155357447680,14,30.8,560.7925415039062,0.05130000039935112,0,0.0,0.0,,,,,0,,1,,
Raw,8650348,8883881000000,,,-1287378671552265728,0.0,53.43084194464609,5.703187061541156,15.583430358869876,7,23,0.0,15,373155365996000,167,13.0,-46.365055084228516,5.354000091552734,0,0.0,0.0,,,,,0,,1,,
Raw,8650348,8883881000000,,,-1287378671552265728,0.0,53.43084194464609,5.703187061541156,15.583430358869876,7,31,0.0,15,373155353302773,10,34.0,-586.0371704101562,0.041600000113248825,0,0.0,0.0,,,,,0,,1,,
Raw,8650349,8883881000000,,,-1287378671552265728,0.0,53.43084194464609,5.703187061541156,15.583430358869876,7,32,0.0,15,373155355761010,12,32.1,-300.8378601074219,0.046400003135204315,0,0.0,0.0,,,,,0,,1,,
Raw,8650349,8883881000000,,,-1287378671552265728,0.0,53.43084194464609,5.703187061541156,15.583430358869876,7,5,0.0,783,373141300593214,31,25.3,2.3524837493896484,2.053500175476074,0,0.0,0.0,,,,,0,,5,,
Raw,8650349,8883881000000,,,-1287378671552265728,0.0,53.43084194464609,5.703187061541156,15.583430358869876,7,10,0.0,15,373141300850724,42,22.0,-235.0179443359375,2.1665000915527344,0,0.0,0.0,,,,,0,,5,,
Raw,8650349,8883881000000,,,-1287378671552265728,0.0,53.43084194464609,5.703187061541156,15.583430358869876,7,13,0.0,15,373141310633704,70,17.4,278.88934326171875,1.0115000009536743,0,0.0,0.0,,,,,0,,5,,
Raw,8650350,8883881000000,,,-1287378671552265728,0.0,53.43084194464609,5.703187061541156,15.583430358869876,7,21,0.0,15,373141344330510,35,22.4,-497.8719787597656,0.67249995470047,0,0.0,0.0,,,,,0,,5,,
Raw,8650350,8883881000000,,,-1287378671552265728,0.0,53.43084194464609,5.703187061541156,15.583430358869876,7,7,0.0,7183,373155351900120,61,18.4,-85.63214874267578,0.8689999580383301,0,0.0,0.0,,,,,0,,6,,
Raw,8650350,8883881000000,,,-1287378671552265728,0.0,53.43084194464609,5.703187061541156,15.583430358869876,7,13,0.0,7183,373155342390911,380,21.0,469.8921813964844,12.693500518798828,0,0.0,0.0,,,,,0,,6,,
Raw,8650350,8883881000000,,,-1287378671552265728,0.0,53.43084194464609,5.703187061541156,15.583430358869876,7,26,0.0,7183,373155348586993,17,28.8,325.31915283203125,0.05730000138282776,0,0.0,0.0,,,,,0,,6,,
Raw,8650350,8883881000000,,,-1287378671552265728,0.0,53.43084194464609,5.703187061541156,15.583430358869876,7,33,0.0,7183,373155340974760,40,21.8,-6.060853481292725,0.6904999613761902,0,0.0,0.0,,,,,0,,6,,
NMEA,$GPGSV,3,1,11,10,52,329,19,18,29,199,31,23,82,035,13,31,14,230,34*72,1603352337428
NMEA,$GPGSV,3,2,11,32,24,302,32,12,41,099,,15,18,078,,20,87,135,*71,1603352337428
NMEA,$GPGSV,3,3,11,21,00,000,,24,33,035,,25,40,151,*4C,1603352337428
NMEA,$GLGSV,2,1,05,82,09,240,33,79,05,201,26,83,09,285,26,67,46,016,11*67,1603352337428
NMEA,$GLGSV,2,2,05,68,15,326,27*58,1603352337429
NMEA,$GAGSV,2,1,07,07,52,011,18,13,14,194,21,26,26,247,29,33,12,296,22*69,1603352337429
NMEA,$GAGSV,2,2,07,21,03,201,,27,47,171,,30,52,074,*5A,1603352337429
NMEA,$PQGSV,1,1,01,194,63,111,17,0,5*65,1603352337430
NMEA,$PQGSV,4,1,16,05,17,258,25,10,18,188,22,13,48,227,17,21,06,313,22,0,4*60,1603352337431
NMEA,$PQGSV,4,2,16,01,51,130,,02,41,241,,03,60,202,,04,37,115,,0,4*6D,1603352337431
NMEA,$PQGSV,4,3,16,06,53,352,,07,35,165,,08,37,196,,09,45,310,,0,4*64,1603352337431
NMEA,$PQGSV,4,4,16,16,52,343,,19,54,085,,20,10,118,,22,51,341,,0,4*65,1603352337432
NMEA,$GNGSA,A,3,10,18,23,31,32,,,,,,,,1.3,1.0,0.9,1*31,1603352337433
NMEA,$GNGSA,A,3,68,79,82,83,,,,,,,,,1.3,1.0,0.9,2*39,1603352337433
NMEA,$GNGSA,A,2,01,07,26,,,,,,,,,,1.3,1.0,0.9,3*3A,1603352337433
NMEA,$PQGSA,A,2,05,10,13,,,,,,,,,,1.3,1.0,0.9,4*31,1603352337434
NMEA,$GNVTG,,T,,M,0.0,N,0.0,K,A*3D,1603352337434
NMEA,$GNRMC,073858.00,A,2255.521073,N,12017.671676,E,0.0,,221020,2.8,W,A*1F,1603352337435
NMEA,$GNGGA,073858.00,2255.521073,N,12017.671676,E,1,12,1.0,26.3,M,17.5,M,,*45,1603352337435
Fix,gps,22.925353,120.294531,43.882690,0.000000,9.648001,1603352339000
NMEA,$GPGSV,3,1,11,10,52,329,21,18,29,199,31,23,82,035,16,31,14,230,34*7C,1603352338427
NMEA,$GPGSV,3,2,11,32,24,302,31,12,41,099,,15,18,078,,20,87,135,*72,1603352338428
NMEA,$GPGSV,3,3,11,21,00,000,,24,33,035,,25,40,151,*4C,1603352338428
NMEA,$GLGSV,2,1,05,82,09,240,33,79,05,201,26,83,09,285,26,67,46,016,11*67,1603352338428
Raw,8651332,8884881000000,,,-1287378671552265728,0.0,53.281291911844164,2.6195731348412434,15.164833784478184,7,18,0.0,207,38338354180692,12,32.7,510.2681579589844,0.24490001797676086,0,0.0,0.0,,,,,0,,3,,
Raw,8651333,8884881000000,,,-1287378671552265728,0.0,53.281291911844164,2.6195731348412434,15.164833784478184,7,15,0.0,207,38338353383605,24,25.7,-811.7384643554688,0.6013000011444092,0,0.0,0.0,,,,,0,,3,,
Raw,8651333,8884881000000,,,-1287378671552265728,0.0,53.281291911844164,2.6195731348412434,15.164833784478184,7,19,0.0,207,38338354372241,24,25.7,235.0844268798828,0.6028000116348267,0,0.0,0.0,,,,,0,,3,,
Raw,8651334,8884881000000,,,-1287378671552265728,0.0,53.281291911844164,2.6195731348412434,15.164833784478184,7,3,0.0,207,38338364951327,985,10.8,-267.6123962402344,20.072500228881836,0,0.0,0.0,,,,,0,,3,,
Raw,8651334,8884881000000,,,-1287378671552265728,0.0,53.281291911844164,2.6195731348412434,15.164833784478184,7,4,0.0,207,38338356625846,21,26.7,-524.7620239257812,0.3352000117301941,0,0.0,0.0,,,,,0,,3,,
Raw,8651335,8884881000000,,,-1287378671552265728,0.0,53.281291911844164,2.6195731348412434,15.164833784478184,7,10,0.0,15,373156362262135,40,21.2,-431.63360595703125,0.8495000004768372,0,0.0,0.0,,,,,0,,1,,
Raw,8651335,8884881000000,,,-1287378671552265728,0.0,53.281291911844164,2.6195731348412434,15.164833784478184,7,18,0.0,15,373156357445824,14,30.5,559.203369140625,0.05130000039935112,0,0.0,0.0,,,,,0,,1,,
Raw,8651335,8884881000000,,,-1287378671552265728,0.0,53.281291911844164,2.6195731348412434,15.164833784478184,7,23,0.0,15,373156365996067,84,16.3,-48.5153694152832,2.0139999389648438,0,0.0,0.0,,,,,0,,1,,
Raw,8651336,8884881000000,,,-1287378671552265728,0.0,53.281291911844164,2.6195731348412434,15.164833784478184,7,31,0.0,15,373156353304710,10,34.0,-587.5995483398438,0.041600000113248825,0,0.0,0.0,,,,,0,,1,,
Raw,8651336,8884881000000,,,-1287378671552265728,0.0,53.281291911844164,2.6195731348412434,15.164833784478184,7,32,0.0,15,373156355762020,13,31.4,-302.44866943359375,0.047700002789497375,0,0.0,0.0,,,,,0,,1,,
Raw,8651337,8884881000000,,,-1287378671552265728,0.0,53.281291911844164,2.6195731348412434,15.164833784478184,7,5,0.0,783,373142300593184,19,27.5,-4.023227691650391,0.48350000381469727,0,0.0,0.0,,,,,0,,5,,
Raw,8651337,8884881000000,,,-1287378671552265728,0.0,53.281291911844164,2.6195731348412434,15.164833784478184,7,10,0.0,15,373142300851474,73,17.0,-236.83270263671875,1.746500015258789,0,0.0,0.0,,,,,0,,5,,
Raw,8651337,8884881000000,,,-1287378671552265728,0.0,53.281291911844164,2.6195731348412434,15.164833784478184,7,13,0.0,15,373142310632774,78,17.4,278.88934326171875,2.511500120162964,0,0.0,0.0,,,,,0,,5,,
Raw,8651338,8884881000000,,,-1287378671552265728,0.0,53.281291911844164,2.6195731348412434,15.164833784478184,7,21,0.0,15,373142344332183,35,22.5,-499.41790771484375,0.67249995470047,0,0.0,0.0,,,,,0,,5,,
Raw,8651339,8884881000000,,,-1287378671552265728,0.0,53.281291911844164,2.6195731348412434,15.164833784478184,7,7,0.0,7183,373156351900417,70,17.6,-86.88809204101562,0.9389999508857727,0,0.0,0.0,,,,,0,,6,,
Raw,8651339,8884881000000,,,-1287378671552265728,0.0,53.281291911844164,2.6195731348412434,15.164833784478184,7,13,0.0,7183,373156342389344,467,21.0,469.8921813964844,14.193500518798828,0,0.0,0.0,,,,,0,,6,,
Raw,8651339,8884881000000,,,-1287378671552265728,0.0,53.281291911844164,2.6195731348412434,15.164833784478184,7,26,0.0,7183,373156348585918,17,28.9,323.2899169921875,0.41050001978874207,0,0.0,0.0,,,,,0,,6,,
Raw,8651340,8884881000000,,,-1287378671552265728,0.0,53.281291911844164,2.6195731348412434,15.164833784478184,7,33,0.0,7183,373156340974815,40,21.2,-8.211172103881836,0.6904999613761902,0,0.0,0.0,,,,,0,,6,,
NMEA,$GLGSV,2,2,05,68,15,326,27*58,1603352338428
NMEA,$GAGSV,2,1,07,07,52,011,18,13,14,194,21,26,26,247,29,33,12,296,21*6A,1603352338429
NMEA,$GAGSV,2,2,07,21,03,201,,27,47,171,,30,52,074,*5A,1603352338429
NMEA,$PQGSV,1,1,01,194,63,111,17,0,5*65,1603352338430
NMEA,$PQGSV,4,1,16,05,17,258,28,10,18,188,17,13,48,227,17,21,06,313,23,0,4*6A,1603352338430
NMEA,$PQGSV,4,2,16,01,51,130,,02,41,241,,03,60,202,,04,37,115,,0,4*6D,1603352338430
NMEA,$PQGSV,4,3,16,06,53,352,,07,35,165,,08,37,196,,09,45,310,,0,4*64,1603352338431
NMEA,$PQGSV,4,4,16,16,52,343,,19,54,085,,20,10,118,,22,51,341,,0,4*65,1603352338431
NMEA,$GNGSA,A,3,10,18,23,31,32,,,,,,,,1.3,1.0,0.9,1*31,1603352338432
NMEA,$GNGSA,A,3,68,79,82,83,,,,,,,,,1.3,1.0,0.9,2*39,1603352338433
NMEA,$GNGSA,A,2,01,07,26,,,,,,,,,,1.3,1.0,0.9,3*3A,1603352338433
NMEA,$PQGSA,A,2,05,10,13,,,,,,,,,,1.3,1.0,0.9,4*31,1603352338433
NMEA,$GNVTG,,T,,M,0.0,N,0.0,K,A*3D,1603352338433
NMEA,$GNRMC,073859.00,A,2255.521196,N,12017.671862,E,0.0,,221020,2.8,W,A*1F,1603352338434
NMEA,$GNGGA,073859.00,2255.521196,N,12017.671862,E,1,12,1.0,26.4,M,17.5,M,,*42,1603352338434
Fix,gps,22.925355,120.294533,43.897034,0.000000,9.648001,1603352340000
NMEA,$GPGSV,3,1,11,10,52,329,20,18,29,199,31,23,82,035,16,31,14,230,35*7C,1603352339426
Raw,8652333,8885881000000,,,-1287378671552265728,0.0,54.51542529044673,-1.9459060032915605,14.512482509966034,7,18,0.0,207,38339354179012,12,32.4,510.0146789550781,0.24490001797676086,0,0.0,0.0,,,,,0,,3,,
Raw,8652333,8885881000000,,,-1287378671552265728,0.0,54.51542529044673,-1.9459060032915605,14.512482509966034,7,15,0.0,207,38339353386244,24,25.2,-811.9429321289062,0.6013000011444092,0,0.0,0.0,,,,,0,,3,,
Raw,8652334,8885881000000,,,-1287378671552265728,0.0,54.51542529044673,-1.9459060032915605,14.512482509966034,7,19,0.0,207,38339354371574,24,25.1,235.3848114013672,0.7975000143051147,0,0.0,0.0,,,,,0,,3,,
Raw,8652335,8885881000000,,,-1287378671552265728,0.0,54.51542529044673,-1.9459060032915605,14.512482509966034,7,3,0.0,207,38339364952246,314,10.3,-269.0321350097656,8.822500228881836,0,0.0,0.0,,,,,0,,3,,
Raw,8652335,8885881000000,,,-1287378671552265728,0.0,54.51542529044673,-1.9459060032915605,14.512482509966034,7,4,0.0,207,38339356627663,27,24.0,-525.3079223632812,0.840499997138977,0,0.0,0.0,,,,,0,,3,,
Raw,8652336,8885881000000,,,-1287378671552265728,0.0,54.51542529044673,-1.9459060032915605,14.512482509966034,7,10,0.0,15,373157362263530,46,20.2,-432.0046691894531,0.9194999933242798,0,0.0,0.0,,,,,0,,1,,
Raw,8652336,8885881000000,,,-1287378671552265728,0.0,54.51542529044673,-1.9459060032915605,14.512482509966034,7,18,0.0,15,373157357443969,14,30.8,558.9841918945312,0.05130000039935112,0,0.0,0.0,,,,,0,,1,,
Raw,8652337,8885881000000,,,-1287378671552265728,0.0,54.51542529044673,-1.9459060032915605,14.512482509966034,7,23,0.0,15,373157365996326,80,16.2,-49.352664947509766,1.2640000581741333,0,0.0,0.0,,,,,0,,1,,
Raw,8652337,8885881000000,,,-1287378671552265728,0.0,54.51542529044673,-1.9459060032915605,14.512482509966034,7,31,0.0,15,373157353306687,10,34.5,-587.8090209960938,0.041600000113248825,0,0.0,0.0,,,,,0,,1,,
Raw,8652338,8885881000000,,,-1287378671552265728,0.0,54.51542529044673,-1.9459060032915605,14.512482509966034,7,32,0.0,15,373157355763017,12,32.4,-302.723388671875,0.046400003135204315,0,0.0,0.0,,,,,0,,1,,
Raw,8652338,8885881000000,,,-1287378671552265728,0.0,54.51542529044673,-1.9459060032915605,14.512482509966034,7,5,0.0,783,373143300593198,26,27.5,-4.023227691650391,1.9835001230239868,0,0.0,0.0,,,,,0,,5,,
Raw,8652339,8885881000000,,,-1287378671552265728,0.0,54.51542529044673,-1.9459060032915605,14.512482509966034,7,10,0.0,15,373143300852283,40,21.0,-237.64886474609375,0.7264999747276306,0,0.0,0.0,,,,,0,,5,,
Raw,8652339,8885881000000,,,-1287378671552265728,0.0,54.51542529044673,-1.9459060032915605,14.512482509966034,7,13,0.0,15,373143310631844,97,17.4,278.88934326171875,4.011500358581543,0,0.0,0.0,,,,,0,,5,,
Raw,8652340,8885881000000,,,-1287378671552265728,0.0,54.51542529044673,-1.9459060032915605,14.512482509966034,7,21,0.0,15,373143344333829,27,24.5,-499.61956787109375,0.5824999809265137,0,0.0,0.0,,,,,0,,5,,
Raw,8652341,8885881000000,,,-1287378671552265728,0.0,54.51542529044673,-1.9459060032915605,14.512482509966034,7,7,0.0,7183,373157351900623,46,20.2,-87.097412109375,0.7489999532699585,0,0.0,0.0,,,,,0,,6,,
Raw,8652341,8885881000000,,,-1287378671552265728,0.0,54.51542529044673,-1.9459060032915605,14.512482509966034,7,13,0.0,7183,373157342387776,565,21.0,469.8921813964844,15.693500518798828,0,0.0,0.0,,,,,0,,6,,
Raw,8652341,8885881000000,,,-1287378671552265728,0.0,54.51542529044673,-1.9459060032915605,14.512482509966034,7,26,0.0,7183,373157348584857,16,29.0,324.191162109375,0.050700001418590546,0,0.0,0.0,,,,,0,,6,,
Raw,8652342,8885881000000,,,-1287378671552265728,0.0,54.51542529044673,-1.9459060032915605,14.512482509966034,7,33,0.0,7183,373157340974842,31,23.1,-8.18262767791748,0.6004999876022339,0,0.0,0.0,,,,,0,,6,,
NMEA,$GPGSV,3,2,11,32,24,302,32,12,41,099,,15,18,078,,20,87,135,*71,1603352339427
NMEA,$GPGSV,3,3,11,21,00,000,,24,33,035,,25,40,151,*4C,1603352339428
NMEA,$GLGSV,2,1,05,82,09,240,32,79,05,201,25,83,09,285,25,67,46,016,10*67,1603352339430
NMEA,$GLGSV,2,2,05,68,15,326,24*5B,1603352339430
NMEA,$GAGSV,2,1,07,07,52,011,20,13,14,194,21,26,26,247,29,33,12,296,23*63,1603352339430
NMEA,$GAGSV,2,2,07,21,03,201,,27,47,171,,30,52,074,*5A,1603352339430
NMEA,$PQGSV,1,1,01,194,63,111,17,0,5*65,1603352339430
NMEA,$PQGSV,4,1,16,05,17,258,28,10,18,188,21,13,48,227,17,21,06,313,25,0,4*69,1603352339431
NMEA,$PQGSV,4,2,16,01,51,130,,02,41,241,,03,60,202,,04,37,115,,0,4*6D,1603352339431
NMEA,$PQGSV,4,3,16,06,53,352,,07,35,165,,08,37,196,,09,45,310,,0,4*64,1603352339432
NMEA,$PQGSV,4,4,16,16,52,343,,19,54,085,,20,10,118,,22,51,341,,0,4*65,1603352339432
NMEA,$GNGSA,A,3,10,18,23,31,32,,,,,,,,1.3,0.9,0.9,1*39,1603352339433
NMEA,$GNGSA,A,3,68,79,82,83,,,,,,,,,1.3,0.9,0.9,2*31,1603352339434
NMEA,$GNGSA,A,2,01,07,26,,,,,,,,,,1.3,0.9,0.9,3*32,1603352339434
NMEA,$PQGSA,A,2,05,10,13,,,,,,,,,,1.3,0.9,0.9,4*39,1603352339435
NMEA,$GNVTG,,T,,M,0.0,N,0.0,K,A*3D,1603352339435
NMEA,$GNRMC,073900.00,A,2255.521287,N,12017.672000,E,0.0,,221020,2.8,W,A*1E,1603352339435
NMEA,$GNGGA,073900.00,2255.521287,N,12017.672000,E,1,12,0.9,26.4,M,17.5,M,,*4B,1603352339435
Raw,8653333,8886881000000,,,-1287378671552265728,0.0,58.68451626156457,-2.617045142431511,15.794899757124652,7,18,0.0,207,38340354177315,13,31.7,508.1710205078125,0.24620001018047333,0,0.0,0.0,,,,,0,,3,,
Raw,8653333,8886881000000,,,-1287378671552265728,0.0,58.68451626156457,-2.617045142431511,15.794899757124652,7,15,0.0,207,38340353389075,24,25.1,-813.90283203125,0.7960000038146973,0,0.0,0.0,,,,,0,,3,,
Raw,8653334,8886881000000,,,-1287378671552265728,0.0,58.68451626156457,-2.617045142431511,15.794899757124652,7,19,0.0,207,38340354370766,31,23.7,233.6929931640625,0.887499988079071,0,0.0,0.0,,,,,0,,3,,
Raw,8653334,8886881000000,,,-1287378671552265728,0.0,58.68451626156457,-2.617045142431511,15.794899757124652,7,3,0.0,207,38340364953143,371,10.3,-269.0321350097656,10.322500228881836,0,0.0,0.0,,,,,0,,3,,
Raw,8653335,8886881000000,,,-1287378671552265728,0.0,58.68451626156457,-2.617045142431511,15.794899757124652,7,4,0.0,207,38340356629345,35,22.8,-527.1940307617188,0.950499951839447,0,0.0,0.0,,,,,0,,3,,
Raw,8653335,8886881000000,,,-1287378671552265728,0.0,58.68451626156457,-2.617045142431511,15.794899757124652,7,10,0.0,15,373158362265015,61,18.3,-433.2606506347656,1.0794999599456787,0,0.0,0.0,,,,,0,,1,,
Raw,8653336,8886881000000,,,-1287378671552265728,0.0,58.68451626156457,-2.617045142431511,15.794899757124652,7,18,0.0,15,373158357442093,16,29.0,557.1375732421875,0.05220000073313713,0,0.0,0.0,,,,,0,,1,,
Raw,8653336,8886881000000,,,-1287378671552265728,0.0,58.68451626156457,-2.617045142431511,15.794899757124652,7,23,0.0,15,373158365996547,53,19.7,-51.12239456176758,0.9239999651908875,0,0.0,0.0,,,,,0,,1,,
Raw,8653337,8886881000000,,,-1287378671552265728,0.0,58.68451626156457,-2.617045142431511,15.794899757124652,7,31,0.0,15,373158353308648,11,33.3,-589.6079711914062,0.04240000247955322,0,0.0,0.0,,,,,0,,1,,
Raw,8653337,8886881000000,,,-1287378671552265728,0.0,58.68451626156457,-2.617045142431511,15.794899757124652,7,32,0.0,15,373158355764052,13,31.6,-304.5594787597656,0.047700002789497375,0,0.0,0.0,,,,,0,,1,,
Raw,8653337,8886881000000,,,-1287378671552265728,0.0,58.68451626156457,-2.617045142431511,15.794899757124652,7,5,0.0,783,373144300593211,43,27.5,-4.023227691650391,3.4835002422332764,0,0.0,0.0,,,,,0,,5,,
Raw,8653338,8886881000000,,,-1287378671552265728,0.0,58.68451626156457,-2.617045142431511,15.794899757124652,7,10,0.0,15,373144300853084,46,20.9,-239.751708984375,0.7264999747276306,0,0.0,0.0,,,,,0,,5,,
Raw,8653338,8886881000000,,,-1287378671552265728,0.0,58.68451626156457,-2.617045142431511,15.794899757124652,7,13,0.0,15,373144310631006,78,17.0,275.5862731933594,2.511500120162964,0,0.0,0.0,,,,,0,,5,,
Raw,8653338,8886881000000,,,-1287378671552265728,0.0,58.68451626156457,-2.617045142431511,15.794899757124652,7,21,0.0,15,373144344335592,27,24.2,-501.7127685546875,0.5824999809265137,0,0.0,0.0,,,,,0,,5,,
Raw,8653339,8886881000000,,,-1287378671552265728,0.0,58.68451626156457,-2.617045142431511,15.794899757124652,7,7,0.0,7183,373158351900951,53,19.6,-88.13451385498047,0.8089999556541443,0,0.0,0.0,,,,,0,,6,,
Raw,8653340,8886881000000,,,-1287378671552265728,0.0,58.68451626156457,-2.617045142431511,15.794899757124652,7,13,0.0,7183,373158342386209,672,21.0,469.8921813964844,17.193500518798828,0,0.0,0.0,,,,,0,,6,,
Raw,8653341,8886881000000,,,-1287378671552265728,0.0,58.68451626156457,-2.617045142431511,15.794899757124652,7,26,0.0,7183,373158348583781,19,27.6,321.1015319824219,0.44050002098083496,0,0.0,0.0,,,,,0,,6,,
Raw,8653341,8886881000000,,,-1287378671552265728,0.0,58.68451626156457,-2.617045142431511,15.794899757124652,7,33,0.0,7183,373158340974858,31,23.1,-10.247314453125,0.6004999876022339,0,0.0,0.0,,,,,0,,6,,
Fix,gps,22.925356,120.294535,44.104675,0.000000,9.648001,1603352341000
NMEA,$GPGSV,3,1,11,10,52,329,18,18,29,199,29,23,82,035,20,31,14,230,33*7D,1603352340427
NMEA,$GPGSV,3,2,11,32,24,302,32,12,41,099,,15,18,078,,20,87,135,*71,1603352340429
NMEA,$GPGSV,3,3,11,21,00,000,,24,33,035,,25,40,151,*4C,1603352340429
NMEA,$GLGSV,2,1,05,82,09,240,32,79,05,201,25,83,09,285,24,67,46,016,10*66,1603352340430
NMEA,$GLGSV,2,2,05,68,15,326,23*5C,1603352340430
NMEA,$GAGSV,2,1,07,07,52,011,20,13,14,194,21,26,26,247,28,33,12,296,23*62,1603352340430
NMEA,$GAGSV,2,2,07,21,03,201,,27,47,171,,30,52,074,*5A,1603352340431
NMEA,$PQGSV,1,1,01,194,63,111,17,0,5*65,1603352340431
NMEA,$PQGSV,4,1,16,05,17,258,28,10,18,188,21,13,48,227,17,21,06,313,24,0,4*68,1603352340431
NMEA,$PQGSV,4,2,16,01,51,130,,02,41,241,,03,60,202,,04,37,115,,0,4*6D,1603352340431
NMEA,$PQGSV,4,3,16,06,53,352,,07,35,165,,08,37,196,,09,45,310,,0,4*64,1603352340431
NMEA,$PQGSV,4,4,16,16,52,343,,19,54,085,,20,10,118,,22,51,341,,0,4*65,1603352340432
NMEA,$GNGSA,A,3,10,18,23,31,32,,,,,,,,1.3,0.9,0.9,1*39,1603352340433
NMEA,$GNGSA,A,3,67,68,79,82,83,,,,,,,,1.3,0.9,0.9,2*30,1603352340433
NMEA,$GNGSA,A,2,01,07,26,,,,,,,,,,1.3,0.9,0.9,3*32,1603352340433
NMEA,$PQGSA,A,2,05,10,13,,,,,,,,,,1.3,0.9,0.9,4*39,1603352340433
NMEA,$GNVTG,,T,,M,0.0,N,0.0,K,A*3D,1603352340433
NMEA,$GNRMC,073901.00,A,2255.521344,N,12017.672116,E,0.0,,221020,2.8,W,A*17,1603352340434
NMEA,$GNGGA,073901.00,2255.521344,N,12017.672116,E,1,12,0.9,26.6,M,17.5,M,,*40,1603352340434
Fix,gps,22.925356,120.294537,44.028381,0.000000,10.720000,1603352342000
Raw,8654376,8887881000000,,,-1287378671552265728,0.0,57.29204713134095,-7.978982653973478,14.947240739646942,7,18,0.0,207,38341354175593,12,32.4,508.215576171875,0.24490001797676086,0,0.0,0.0,,,,,0,,3,,
Raw,8654377,8887881000000,,,-1287378671552265728,0.0,57.29204713134095,-7.978982653973478,14.947240739646942,7,15,0.0,207,38341353391748,19,27.1,-813.7269287109375,0.26080000400543213,0,0.0,0.0,,,,,0,,3,,
Raw,8654378,8887881000000,,,-1287378671552265728,0.0,57.29204713134095,-7.978982653973478,14.947240739646942,7,19,0.0,207,38341354370086,24,25.0,233.74818420410156,0.6028000116348267,0,0.0,0.0,,,,,0,,3,,
Raw,8654378,8887881000000,,,-1287378671552265728,0.0,57.29204713134095,-7.978982653973478,14.947240739646942,7,3,0.0,207,38341364954040,438,10.3,-269.0321350097656,11.822500228881836,0,0.0,0.0,,,,,0,,3,,
Raw,8654379,8887881000000,,,-1287378671552265728,0.0,57.29204713134095,-7.978982653973478,14.947240739646942,7,4,0.0,207,38341356631055,27,24.3,-527.1846923828125,0.840499997138977,0,0.0,0.0,,,,,0,,3,,
Raw,8654379,8887881000000,,,-1287378671552265728,0.0,57.29204713134095,-7.978982653973478,14.947240739646942,7,10,0.0,15,373159362266523,53,19.0,-433.7173156738281,0.999500036239624,0,0.0,0.0,,,,,0,,1,,
Raw,8654380,8887881000000,,,-1287378671552265728,0.0,57.29204713134095,-7.978982653973478,14.947240739646942,7,18,0.0,15,373159357440211,16,29.6,557.177490234375,0.05220000073313713,0,0.0,0.0,,,,,0,,1,,
Raw,8654380,8887881000000,,,-1287378671552265728,0.0,57.29204713134095,-7.978982653973478,14.947240739646942,7,23,0.0,15,373159365996510,80,16.8,-52.349788665771484,1.1740000247955322,0,0.0,0.0,,,,,0,,1,,
Raw,8654381,8887881000000,,,-1287378671552265728,0.0,57.29204713134095,-7.978982653973478,14.947240739646942,7,31,0.0,15,373159353310610,11,33.5,-589.5283203125,0.04240000247955322,0,0.0,0.0,,,,,0,,1,,
Raw,8654381,8887881000000,,,-1287378671552265728,0.0,57.29204713134095,-7.978982653973478,14.947240739646942,7,32,0.0,15,373159355765062,12,32.0,-304.5566101074219,0.046400003135204315,0,0.0,0.0,,,,,0,,1,,
Raw,8654382,8887881000000,,,-1287378671552265728,0.0,57.29204713134095,-7.978982653973478,14.947240739646942,7,5,0.0,783,373145300593155,31,25.2,6.827003479003906,2.053500175476074,0,0.0,0.0,,,,,0,,5,,
Raw,8654382,8887881000000,,,-1287378671552265728,0.0,57.29204713134095,-7.978982653973478,14.947240739646942,7,10,0.0,15,373145300853885,53,19.8,-238.76271057128906,0.7864999771118164,0,0.0,0.0,,,,,0,,5,,
Raw,8654383,8887881000000,,,-1287378671552265728,0.0,57.29204713134095,-7.978982653973478,14.947240739646942,7,13,0.0,15,373145310630039,46,20.1,274.8085021972656,0.8014999628067017,0,0.0,0.0,,,,,0,,5,,
Raw,8654383,8887881000000,,,-1287378671552265728,0.0,57.29204713134095,-7.978982653973478,14.947240739646942,7,21,0.0,15,373145344337287,24,25.6,-501.64117431640625,0.387800008058548,0,0.0,0.0,,,,,0,,5,,
Raw,8654384,8887881000000,,,-1287378671552265728,0.0,57.29204713134095,-7.978982653973478,14.947240739646942,7,7,0.0,7183,373159351901235,46,20.7,-89.21918487548828,0.7489999532699585,0,0.0,0.0,,,,,0,,6,,
Raw,8654384,8887881000000,,,-1287378671552265728,0.0,57.29204713134095,-7.978982653973478,14.947240739646942,7,13,0.0,7183,373159342384641,790,21.0,469.8921813964844,18.693500518798828,0,0.0,0.0,,,,,0,,6,,
Raw,8654385,8887881000000,,,-1287378671552265728,0.0,57.29204713134095,-7.978982653973478,14.947240739646942,7,26,0.0,7183,373159348582701,17,28.6,321.50115966796875,0.41050001978874207,0,0.0,0.0,,,,,0,,6,,
Raw,8654386,8887881000000,,,-1287378671552265728,0.0,57.29204713134095,-7.978982653973478,14.947240739646942,7,33,0.0,7183,373159340974896,35,22.7,-9.971388816833496,0.640500009059906,0,0.0,0.0,,,,,0,,6,,
NMEA,$GPGSV,3,1,11,10,52,329,19,18,29,199,30,23,82,035,17,31,14,230,34*77,1603352341440
NMEA,$GPGSV,3,2,11,32,24,302,32,12,41,099,,15,18,078,,20,87,135,*71,1603352341441
NMEA,$GPGSV,3,3,11,21,00,000,,24,33,035,,25,40,151,*4C,1603352341441
NMEA,$GLGSV,2,1,05,82,09,240,32,79,05,201,27,83,09,285,25,67,46,016,10*65,1603352341442
NMEA,$GLGSV,2,2,05,68,15,326,24*5B,1603352341442
NMEA,$GAGSV,2,1,07,07,52,011,21,13,14,194,21,26,26,247,29,33,12,296,23*62,1603352341444
NMEA,$GAGSV,2,2,07,21,03,201,,27,47,171,,30,52,074,*5A,1603352341447
NMEA,$PQGSV,1,1,01,194,63,111,18,0,5*6A,1603352341448
NMEA,$PQGSV,4,1,16,05,17,258,25,10,18,188,20,13,48,227,20,21,06,313,26,0,4*62,1603352341449
NMEA,$PQGSV,4,2,16,01,51,130,,02,41,241,,03,60,202,,04,37,115,,0,4*6D,1603352341450
NMEA,$PQGSV,4,3,16,06,53,352,,07,35,165,,08,37,196,,09,45,310,,0,4*64,1603352341452
NMEA,$PQGSV,4,4,16,16,52,343,,19,54,085,,20,10,118,,22,51,341,,0,4*65,1603352341458
NMEA,$GNGSA,A,3,10,18,23,31,32,,,,,,,,1.3,0.9,0.9,1*39,1603352341467
NMEA,$GNGSA,A,3,67,68,79,82,83,,,,,,,,1.3,0.9,0.9,2*30,1603352341473
NMEA,$GNGSA,A,2,01,07,26,,,,,,,,,,1.3,0.9,0.9,3*32,1603352341473
NMEA,$PQGSA,A,2,05,10,13,,,,,,,,,,1.3,0.9,0.9,4*39,1603352341476
NMEA,$GNVTG,,T,,M,0.0,N,0.0,K,A*3D,1603352341476
NMEA,$GNRMC,073902.00,A,2255.521380,N,12017.672196,E,0.0,,221020,2.8,W,A*14,1603352341478
NMEA,$GNGGA,073902.00,2255.521380,N,12017.672196,E,1,12,0.9,26.6,M,17.5,M,,*43,1603352341478
Fix,gps,22.925357,120.294537,44.033325,0.000000,10.720000,1603352343000
NMEA,$GPGSV,3,1,11,10,52,329,18,18,29,199,32,23,82,035,17,31,14,230,35*75,1603352342427
NMEA,$GPGSV,3,2,11,32,24,302,30,12,41,099,,15,18,078,,20,87,135,*73,1603352342427
Raw,8655332,8888881000000,,,-1287378671552265728,0.0,63.4029638604261,-8.14228519787108,15.853984198521012,7,18,0.0,207,38342354173890,11,33.4,508.4122009277344,0.24390001595020294,0,0.0,0.0,,,,,0,,3,,
Raw,8655332,8888881000000,,,-1287378671552265728,0.0,63.4029638604261,-8.14228519787108,15.853984198521012,7,15,0.0,207,38342353394512,24,25.5,-813.67138671875,0.6013000011444092,0,0.0,0.0,,,,,0,,3,,
Raw,8655333,8888881000000,,,-1287378671552265728,0.0,63.4029638604261,-8.14228519787108,15.853984198521012,7,19,0.0,207,38342354369212,31,23.6,233.66497802734375,0.887499988079071,0,0.0,0.0,,,,,0,,3,,
Raw,8655333,8888881000000,,,-1287378671552265728,0.0,63.4029638604261,-8.14228519787108,15.853984198521012,7,3,0.0,207,38342364954938,515,10.3,-269.0321350097656,13.322500228881836,0,0.0,0.0,,,,,0,,3,,
Raw,8655334,8888881000000,,,-1287378671552265728,0.0,63.4029638604261,-8.14228519787108,15.853984198521012,7,4,0.0,207,38342356632894,24,25.6,-526.8912353515625,0.6057999730110168,0,0.0,0.0,,,,,0,,3,,
Raw,8655335,8888881000000,,,-1287378671552265728,0.0,63.4029638604261,-8.14228519787108,15.853984198521012,7,10,0.0,15,373160362267898,61,18.4,-431.9952087402344,1.0794999599456787,0,0.0,0.0,,,,,0,,1,,
Raw,8655335,8888881000000,,,-1287378671552265728,0.0,63.4029638604261,-8.14228519787108,15.853984198521012,7,18,0.0,15,373160357438374,13,31.5,557.3933715820312,0.050700001418590546,0,0.0,0.0,,,,,0,,1,,
Raw,8655336,8888881000000,,,-1287378671552265728,0.0,63.4029638604261,-8.14228519787108,15.853984198521012,7,23,0.0,15,373160365996685,89,16.8,-52.349788665771484,2.6740000247955322,0,0.0,0.0,,,,,0,,1,,
Raw,8655336,8888881000000,,,-1287378671552265728,0.0,63.4029638604261,-8.14228519787108,15.853984198521012,7,31,0.0,15,373160353312566,10,34.8,-589.27880859375,0.041600000113248825,0,0.0,0.0,,,,,0,,1,,
Raw,8655337,8888881000000,,,-1287378671552265728,0.0,63.4029638604261,-8.14228519787108,15.853984198521012,7,32,0.0,15,373160355766071,14,30.2,-304.3809814453125,0.04830000177025795,0,0.0,0.0,,,,,0,,1,,
Raw,8655337,8888881000000,,,-1287378671552265728,0.0,63.4029638604261,-8.14228519787108,15.853984198521012,7,5,0.0,783,373146300593133,48,25.2,6.827003479003906,3.553500175476074,0,0.0,0.0,,,,,0,,5,,
Raw,8655338,8888881000000,,,-1287378671552265728,0.0,63.4029638604261,-8.14228519787108,15.853984198521012,7,10,0.0,15,373146300854682,40,21.4,-238.17697143554688,0.7264999747276306,0,0.0,0.0,,,,,0,,5,,
Raw,8655338,8888881000000,,,-1287378671552265728,0.0,63.4029638604261,-8.14228519787108,15.853984198521012,7,13,0.0,15,373146310629159,53,19.2,275.68231201171875,0.8614999651908875,0,0.0,0.0,,,,,0,,5,,
Raw,8655339,8888881000000,,,-1287378671552265728,0.0,63.4029638604261,-8.14228519787108,15.853984198521012,7,21,0.0,15,373146344338808,40,21.8,-500.7813720703125,0.67249995470047,0,0.0,0.0,,,,,0,,5,,
Raw,8655339,8888881000000,,,-1287378671552265728,0.0,63.4029638604261,-8.14228519787108,15.853984198521012,7,7,0.0,7183,373160351901513,40,21.4,-88.59122467041016,0.6889999508857727,0,0.0,0.0,,,,,0,,6,,
Raw,8655340,8888881000000,,,-1287378671552265728,0.0,63.4029638604261,-8.14228519787108,15.853984198521012,7,13,0.0,7183,373160342383074,918,21.0,469.8921813964844,20.193500518798828,0,0.0,0.0,,,,,0,,6,,
Raw,8655340,8888881000000,,,-1287378671552265728,0.0,63.4029638604261,-8.14228519787108,15.853984198521012,7,26,0.0,7183,373160348581643,27,24.9,321.5582580566406,0.5504999756813049,0,0.0,0.0,,,,,0,,6,,
Raw,8655341,8888881000000,,,-1287378671552265728,0.0,63.4029638604261,-8.14228519787108,15.853984198521012,7,33,0.0,7183,373160340974931,27,24.9,-9.305360794067383,0.5504999756813049,0,0.0,0.0,,,,,0,,6,,
NMEA,$GPGSV,3,3,11,21,00,000,,24,33,035,,25,40,151,*4C,1603352342428
NMEA,$GLGSV,2,1,05,82,09,240,33,79,05,201,26,83,09,285,24,67,46,016,10*64,1603352342428
NMEA,$GLGSV,2,2,05,68,15,326,26*59,1603352342428
NMEA,$GAGSV,2,1,07,07,52,011,21,13,14,194,21,26,26,247,25,33,12,296,25*68,1603352342428
NMEA,$GAGSV,2,2,07,21,03,201,,27,47,171,,30,52,074,*5A,1603352342429
NMEA,$PQGSV,1,1,01,194,63,111,20,0,5*61,1603352342429
NMEA,$PQGSV,4,1,16,05,17,258,25,10,18,188,21,13,48,227,19,21,06,313,22,0,4*6D,1603352342429
NMEA,$PQGSV,4,2,16,01,51,130,,02,41,241,,03,60,202,,04,37,115,,0,4*6D,1603352342429
NMEA,$PQGSV,4,3,16,06,53,352,,07,35,165,,08,37,196,,09,45,310,,0,4*64,1603352342430
NMEA,$PQGSV,4,4,16,16,52,343,,19,54,085,,20,10,118,,22,51,341,,0,4*65,1603352342430
NMEA,$GNGSA,A,3,10,18,23,31,32,,,,,,,,1.3,0.9,0.9,1*39,1603352342431
NMEA,$GNGSA,A,3,67,68,79,82,83,,,,,,,,1.3,0.9,0.9,2*30,1603352342432
NMEA,$GNGSA,A,2,01,07,26,,,,,,,,,,1.3,0.9,0.9,3*32,1603352342432
NMEA,$PQGSA,A,2,05,10,13,,,,,,,,,,1.3,0.9,0.9,4*39,1603352342432
NMEA,$GNVTG,,T,,M,0.0,N,0.0,K,A*3D,1603352342432
NMEA,$GNRMC,073903.00,A,2255.521401,N,12017.672240,E,0.0,,221020,2.8,W,A*13,1603352342432
NMEA,$GNGGA,073903.00,2255.521401,N,12017.672240,E,1,12,0.9,26.6,M,17.5,M,,*44,1603352342432
Fix,gps,22.925357,120.294538,44.037170,0.000000,10.720000,1603352344000
NMEA,$GPGSV,3,1,11,10,52,329,20,18,29,199,31,23,82,035,18,31,14,230,35*72,1603352343427
NMEA,$GPGSV,3,2,11,32,24,302,31,12,41,099,,15,18,078,,20,87,135,*72,1603352343429
NMEA,$GPGSV,3,3,11,21,00,000,,24,33,035,,25,40,151,*4C,1603352343431
NMEA,$GLGSV,2,1,05,82,08,240,32,79,05,201,26,83,09,285,24,67,46,016,10*64,1603352343432
NMEA,$GLGSV,2,2,05,68,15,326,25*5A,1603352343432
NMEA,$GAGSV,2,1,07,07,52,011,21,13,14,194,18,26,26,247,28,33,12,296,24*6E,1603352343432
NMEA,$GAGSV,2,2,07,21,03,201,,27,47,171,,30,52,074,*5A,1603352343433
NMEA,$PQGSV,1,1,01,194,63,111,20,0,5*61,1603352343433
NMEA,$PQGSV,4,1,16,05,17,258,25,10,18,188,20,13,48,227,22,21,06,313,21,0,4*67,1603352343434
NMEA,$PQGSV,4,2,16,01,51,130,,02,41,241,,03,60,202,,04,37,115,,0,4*6D,1603352343434
NMEA,$PQGSV,4,3,16,06,53,352,,07,35,165,,08,37,196,,09,45,310,,0,4*64,1603352343435
NMEA,$PQGSV,4,4,16,16,52,343,,19,54,085,,20,10,118,,22,51,341,,0,4*65,1603352343435
NMEA,$GNGSA,A,3,10,18,23,31,32,,,,,,,,1.3,0.9,0.9,1*39,1603352343436
NMEA,$GNGSA,A,3,67,68,79,82,83,,,,,,,,1.3,0.9,0.9,2*30,1603352343436
Raw,8656433,8889881000000,,,-1287378671552265728,0.0,61.884347815066576,-7.572296174533623,15.885351584010488,7,18,0.0,207,38343354172207,12,32.1,509.77972412109375,0.24490001797676086,0,0.0,0.0,,,,,0,,3,,
Raw,8656433,8889881000000,,,-1287378671552265728,0.0,61.884347815066576,-7.572296174533623,15.885351584010488,7,15,0.0,207,38343353397181,21,26.1,-811.9273071289062,0.33070001006126404,0,0.0,0.0,,,,,0,,3,,
Raw,8656434,8889881000000,,,-1287378671552265728,0.0,61.884347815066576,-7.572296174533623,15.885351584010488,7,19,0.0,207,38343354368389,27,24.2,235.96432495117188,0.8375000357627869,0,0.0,0.0,,,,,0,,3,,
Raw,8656435,8889881000000,,,-1287378671552265728,0.0,61.884347815066576,-7.572296174533623,15.885351584010488,7,3,0.0,207,38343364955835,602,10.3,-269.0321350097656,14.822500228881836,0,0.0,0.0,,,,,0,,3,,
Raw,8656435,8889881000000,,,-1287378671552265728,0.0,61.884347815066576,-7.572296174533623,15.885351584010488,7,4,0.0,207,38343356634681,27,24.9,-525.3359375,0.840499997138977,0,0.0,0.0,,,,,0,,3,,
Raw,8656436,8889881000000,,,-1287378671552265728,0.0,61.884347815066576,-7.572296174533623,15.885351584010488,7,10,0.0,15,373161362269289,46,20.4,-430.6155700683594,0.9194999933242798,0,0.0,0.0,,,,,0,,1,,
Raw,8656437,8889881000000,,,-1287378671552265728,0.0,61.884347815066576,-7.572296174533623,15.885351584010488,7,18,0.0,15,373161357436530,13,31.1,558.7754516601562,0.050700001418590546,0,0.0,0.0,,,,,0,,1,,
Raw,8656438,8889881000000,,,-1287378671552265728,0.0,61.884347815066576,-7.572296174533623,15.885351584010488,7,23,0.0,15,373161365997026,64,18.4,-48.69615173339844,1.8339999914169312,0,0.0,0.0,,,,,0,,1,,
Raw,8656438,8889881000000,,,-1287378671552265728,0.0,61.884347815066576,-7.572296174533623,15.885351584010488,7,31,0.0,15,373161353314533,9,35.3,-587.875244140625,0.04110000282526016,0,0.0,0.0,,,,,0,,1,,
Raw,8656439,8889881000000,,,-1287378671552265728,0.0,61.884347815066576,-7.572296174533623,15.885351584010488,7,32,0.0,15,373161355767133,14,30.7,-303.0180358886719,0.04830000177025795,0,0.0,0.0,,,,,0,,1,,
Raw,8656439,8889881000000,,,-1287378671552265728,0.0,61.884347815066576,-7.572296174533623,15.885351584010488,7,5,0.0,783,373147300593110,75,25.2,6.827003479003906,5.053500175476074,0,0.0,0.0,,,,,0,,5,,
Raw,8656440,8889881000000,,,-1287378671552265728,0.0,61.884347815066576,-7.572296174533623,15.885351584010488,7,10,0.0,15,373147300855478,53,19.9,-237.9561309814453,0.7864999771118164,0,0.0,0.0,,,,,0,,5,,
Raw,8656440,8889881000000,,,-1287378671552265728,0.0,61.884347815066576,-7.572296174533623,15.885351584010488,7,13,0.0,15,373147310628235,40,21.5,276.9017333984375,0.7414999604225159,0,0.0,0.0,,,,,0,,5,,
Raw,8656441,8889881000000,,,-1287378671552265728,0.0,61.884347815066576,-7.572296174533623,15.885351584010488,7,21,0.0,15,373147344340434,40,21.4,-499.4371032714844,0.7324999570846558,0,0.0,0.0,,,,,0,,5,,
Raw,8656442,8889881000000,,,-1287378671552265728,0.0,61.884347815066576,-7.572296174533623,15.885351584010488,7,7,0.0,7183,373161351901866,40,21.4,-86.92615509033203,0.6889999508857727,0,0.0,0.0,,,,,0,,6,,
Raw,8656443,8889881000000,,,-1287378671552265728,0.0,61.884347815066576,-7.572296174533623,15.885351584010488,7,13,0.0,7183,373161342381719,64,18.0,463.73614501953125,1.6234999895095825,0,0.0,0.0,,,,,0,,6,,
Raw,8656443,8889881000000,,,-1287378671552265728,0.0,61.884347815066576,-7.572296174533623,15.885351584010488,7,26,0.0,7183,373161348580561,17,28.4,322.8998107910156,0.41050001978874207,0,0.0,0.0,,,,,0,,6,,
Raw,8656444,8889881000000,,,-1287378671552265728,0.0,61.884347815066576,-7.572296174533623,15.885351584010488,7,33,0.0,7183,373161340974967,27,24.3,-8.106511116027832,0.5504999756813049,0,0.0,0.0,,,,,0,,6,,
NMEA,$GNGSA,A,2,01,07,26,,,,,,,,,,1.3,0.9,0.9,3*32,1603352343436
NMEA,$PQGSA,A,2,05,10,13,,,,,,,,,,1.3,0.9,0.9,4*39,1603352343436
NMEA,$GNVTG,,T,,M,0.0,N,0.0,K,A*3D,1603352343436
NMEA,$GNRMC,073904.00,A,2255.521413,N,12017.672263,E,0.0,,221020,2.8,W,A*16,1603352343436
NMEA,$GNGGA,073904.00,2255.521413,N,12017.672263,E,1,12,0.9,26.6,M,17.5,M,,*41,1603352343437
Fix,gps,22.925357,120.294538,44.037964,0.000000,10.720000,1603352345000
NMEA,$GPGSV,3,1,11,10,52,329,22,18,29,199,31,23,82,035,21,31,14,230,35*7A,1603352344428
NMEA,$GPGSV,3,2,11,32,24,302,30,12,41,099,,15,18,078,,20,87,135,*73,1603352344428
NMEA,$GPGSV,3,3,11,21,00,000,,24,33,035,,25,40,151,*4C,1603352344428
Raw,8657337,8890881000000,,,-1287378671552265728,0.0,65.05296187242493,-3.444105843147481,15.062136254996966,7,18,0.0,207,38344354170523,13,31.1,510.4842834472656,0.24620001018047333,0,0.0,0.0,,,,,0,,3,,
Raw,8657337,8890881000000,,,-1287378671552265728,0.0,65.05296187242493,-3.444105843147481,15.062136254996966,7,15,0.0,207,38344353399958,19,27.9,-811.45263671875,0.26080000400543213,0,0.0,0.0,,,,,0,,3,,
Raw,8657338,8890881000000,,,-1287378671552265728,0.0,65.05296187242493,-3.444105843147481,15.062136254996966,7,19,0.0,207,38344354367603,27,24.4,236.57186889648438,0.8375000357627869,0,0.0,0.0,,,,,0,,3,,
Raw,8657338,8890881000000,,,-1287378671552265728,0.0,65.05296187242493,-3.444105843147481,15.062136254996966,7,3,0.0,207,38344364956733,699,10.3,-269.0321350097656,16.322500228881836,0,0.0,0.0,,,,,0,,3,,
Raw,8657339,8890881000000,,,-1287378671552265728,0.0,65.05296187242493,-3.444105843147481,15.062136254996966,7,4,0.0,207,38344356636450,27,24.4,-524.9437866210938,0.840499997138977,0,0.0,0.0,,,,,0,,3,,
Raw,8657339,8890881000000,,,-1287378671552265728,0.0,65.05296187242493,-3.444105843147481,15.062136254996966,7,10,0.0,15,373162362270815,40,21.8,-431.4528503417969,0.7894999980926514,0,0.0,0.0,,,,,0,,1,,
Raw,8657339,8890881000000,,,-1287378671552265728,0.0,65.05296187242493,-3.444105843147481,15.062136254996966,7,18,0.0,15,373162357434644,14,30.9,559.4920654296875,0.05130000039935112,0,0.0,0.0,,,,,0,,1,,
Raw,8657340,8890881000000,,,-1287378671552265728,0.0,65.05296187242493,-3.444105843147481,15.062136254996966,7,23,0.0,15,373162365997132,46,20.8,-46.92641830444336,0.8539999723434448,0,0.0,0.0,,,,,0,,1,,
Raw,8657340,8890881000000,,,-1287378671552265728,0.0,65.05296187242493,-3.444105843147481,15.062136254996966,7,31,0.0,15,373162353316488,9,35.4,-587.1148681640625,0.04110000282526016,0,0.0,0.0,,,,,0,,1,,
Raw,8657341,8890881000000,,,-1287378671552265728,0.0,65.05296187242493,-3.444105843147481,15.062136254996966,7,32,0.0,15,373162355768133,16,29.6,-302.31390380859375,0.04920000210404396,0,0.0,0.0,,,,,0,,1,,
Raw,8657341,8890881000000,,,-1287378671552265728,0.0,65.05296187242493,-3.444105843147481,15.062136254996966,7,5,0.0,783,373148300593176,31,25.3,0.700944185256958,2.053500175476074,0,0.0,0.0,,,,,0,,5,,
Raw,8657342,8890881000000,,,-1287378671552265728,0.0,65.05296187242493,-3.444105843147481,15.062136254996966,7,10,0.0,15,373148300856243,40,21.6,-236.5926513671875,0.7264999747276306,0,0.0,0.0,,,,,0,,5,,
Raw,8657342,8890881000000,,,-1287378671552265728,0.0,65.05296187242493,-3.444105843147481,15.062136254996966,7,13,0.0,15,373148310627292,40,21.8,276.8537292480469,0.6814999580383301,0,0.0,0.0,,,,,0,,5,,
Raw,8657343,8890881000000,,,-1287378671552265728,0.0,65.05296187242493,-3.444105843147481,15.062136254996966,7,21,0.0,15,373148344342153,40,21.3,-500.0900573730469,0.7324999570846558,0,0.0,0.0,,,,,0,,5,,
Raw,8657343,8890881000000,,,-1287378671552265728,0.0,65.05296187242493,-3.444105843147481,15.062136254996966,7,7,0.0,7183,373162351902135,40,21.9,-85.91759490966797,0.6889999508857727,0,0.0,0.0,,,,,0,,6,,
Raw,8657344,8890881000000,,,-1287378671552265728,0.0,65.05296187242493,-3.444105843147481,15.062136254996966,7,13,0.0,7183,373162342380172,77,18.0,463.73614501953125,3.123500108718872,0,0.0,0.0,,,,,0,,6,,
Raw,8657344,8890881000000,,,-1287378671552265728,0.0,65.05296187242493,-3.444105843147481,15.062136254996966,7,26,0.0,7183,373162348579477,17,28.8,323.74664306640625,0.41050001978874207,0,0.0,0.0,,,,,0,,6,,
Raw,8657345,8890881000000,,,-1287378671552265728,0.0,65.05296187242493,-3.444105843147481,15.062136254996966,7,33,0.0,7183,373162340975007,27,24.9,-7.640291213989258,0.5504999756813049,0,0.0,0.0,,,,,0,,6,,
NMEA,$GLGSV,2,1,05,82,08,240,31,79,05,201,28,83,09,285,24,67,46,016,10*69,1603352344428
NMEA,$GLGSV,2,2,05,68,15,326,24*5B,1603352344429
NMEA,$GAGSV,2,1,07,07,52,011,22,13,14,194,18,26,26,247,29,33,12,296,25*6D,1603352344429
NMEA,$GAGSV,2,2,07,21,03,201,,27,47,171,,30,52,074,*5A,1603352344429
NMEA,$PQGSV,1,1,01,194,63,111,20,0,5*61,1603352344429
NMEA,$PQGSV,4,1,16,05,17,258,25,10,18,188,22,13,48,227,22,21,06,313,21,0,4*65,1603352344430
NMEA,$PQGSV,4,2,16,01,51,130,,02,41,241,,03,60,202,,04,37,115,,0,4*6D,1603352344430
NMEA,$PQGSV,4,3,16,06,53,352,,07,35,165,,08,37,196,,09,45,310,,0,4*64,1603352344430
NMEA,$PQGSV,4,4,16,16,52,343,,19,54,085,,20,10,118,,22,51,341,,0,4*65,1603352344430
NMEA,$GNGSA,A,3,10,18,23,31,32,,,,,,,,1.3,0.9,0.9,1*39,1603352344431
NMEA,$GNGSA,A,3,67,68,79,82,83,,,,,,,,1.3,0.9,0.9,2*30,1603352344431
NMEA,$GNGSA,A,2,01,07,26,,,,,,,,,,1.3,0.9,0.9,3*32,1603352344432
NMEA,$PQGSA,A,2,05,10,13,,,,,,,,,,1.3,0.9,0.9,4*39,1603352344432
NMEA,$GNVTG,,T,,M,0.0,N,0.0,K,A*3D,1603352344432
NMEA,$GNRMC,073905.00,A,2255.521419,N,12017.672274,E,0.0,,221020,2.8,W,A*1B,1603352344434
NMEA,$GNGGA,073905.00,2255.521419,N,12017.672274,E,1,12,0.9,26.6,M,17.5,M,,*4C,1603352344434
Fix,gps,22.925357,120.294538,44.040344,0.000000,10.720000,1603352346000
NMEA,$GPGSV,3,1,11,10,52,329,21,18,29,199,32,23,82,035,21,31,14,230,35*7A,1603352345438
NMEA,$GPGSV,3,2,11,32,24,302,28,12,41,099,,15,18,078,,20,87,135,*7A,1603352345439
Raw,8658367,8891881000000,,,-1287378671552265728,0.0,67.18460645060986,-1.2009493863775695,14.145062124820521,7,18,0.0,207,38345354168860,14,30.5,511.2585144042969,0.2468000054359436,0,0.0,0.0,,,,,0,,3,,
Raw,8658368,8891881000000,,,-1287378671552265728,0.0,67.18460645060986,-1.2009493863775695,14.145062124820521,7,15,0.0,207,38345353402613,16,29.8,-810.6635131835938,0.24619999527931213,0,0.0,0.0,,,,,0,,3,,
Raw,8658368,8891881000000,,,-1287378671552265728,0.0,67.18460645060986,-1.2009493863775695,14.145062124820521,7,19,0.0,207,38345354366825,24,25.5,237.18753051757812,0.6028000116348267,0,0.0,0.0,,,,,0,,3,,
Raw,8658369,8891881000000,,,-1287378671552265728,0.0,67.18460645060986,-1.2009493863775695,14.145062124820521,7,3,0.0,207,38345364957891,186,12.2,-272.7215881347656,5.552500247955322,0,0.0,0.0,,,,,0,,3,,
Raw,8658369,8891881000000,,,-1287378671552265728,0.0,67.18460645060986,-1.2009493863775695,14.145062124820521,7,4,0.0,207,38345356638206,31,23.8,-524.4862670898438,0.8904999494552612,0,0.0,0.0,,,,,0,,3,,
Raw,8658370,8891881000000,,,-1287378671552265728,0.0,67.18460645060986,-1.2009493863775695,14.145062124820521,7,10,0.0,15,373163362272204,46,20.9,-430.5965270996094,0.8495000004768372,0,0.0,0.0,,,,,0,,1,,
Raw,8658370,8891881000000,,,-1287378671552265728,0.0,67.18460645060986,-1.2009493863775695,14.145062124820521,7,18,0.0,15,373163357432793,13,31.7,560.3150024414062,0.050700001418590546,0,0.0,0.0,,,,,0,,1,,
Raw,8658371,8891881000000,,,-1287378671552265728,0.0,67.18460645060986,-1.2009493863775695,14.145062124820521,7,23,0.0,15,373163365997167,40,21.1,-48.020606994628906,0.8539999723434448,0,0.0,0.0,,,,,0,,1,,
Raw,8658372,8891881000000,,,-1287378671552265728,0.0,67.18460645060986,-1.2009493863775695,14.145062124820521,7,31,0.0,15,373163353318443,9,35.3,-586.2977294921875,0.04110000282526016,0,0.0,0.0,,,,,0,,1,,
Raw,8658372,8891881000000,,,-1287378671552265728,0.0,67.18460645060986,-1.2009493863775695,14.145062124820521,7,32,0.0,15,373163355769134,19,27.9,-301.5733947753906,0.06379999965429306,0,0.0,0.0,,,,,0,,1,,
Raw,8658373,8891881000000,,,-1287378671552265728,0.0,67.18460645060986,-1.2009493863775695,14.145062124820521,7,5,0.0,783,373149300593173,48,25.3,0.700944185256958,3.553500175476074,0,0.0,0.0,,,,,0,,5,,
Raw,8658373,8891881000000,,,-1287378671552265728,0.0,67.18460645060986,-1.2009493863775695,14.145062124820521,7,10,0.0,15,373149300857063,35,22.1,-235.89170837402344,0.6664999723434448,0,0.0,0.0,,,,,0,,5,,
Raw,8658373,8891881000000,,,-1287378671552265728,0.0,67.18460645060986,-1.2009493863775695,14.145062124820521,7,13,0.0,15,373149310626390,40,21.6,278.0155944824219,0.7414999604225159,0,0.0,0.0,,,,,0,,5,,
Raw,8658374,8891881000000,,,-1287378671552265728,0.0,67.18460645060986,-1.2009493863775695,14.145062124820521,7,21,0.0,15,373149344343763,35,22.4,-498.12164306640625,0.67249995470047,0,0.0,0.0,,,,,0,,5,,
Raw,8658374,8891881000000,,,-1287378671552265728,0.0,67.18460645060986,-1.2009493863775695,14.145062124820521,7,7,0.0,7183,373163351902460,40,21.2,-85.46089172363281,0.6889999508857727,0,0.0,0.0,,,,,0,,6,,
Raw,8658375,8891881000000,,,-1287378671552265728,0.0,67.18460645060986,-1.2009493863775695,14.145062124820521,7,13,0.0,7183,373163342378625,100,18.0,463.73614501953125,4.623500347137451,0,0.0,0.0,,,,,0,,6,,
Raw,8658375,8891881000000,,,-1287378671552265728,0.0,67.18460645060986,-1.2009493863775695,14.145062124820521,7,26,0.0,7183,373163348578387,17,28.6,323.4132995605469,0.05730000138282776,0,0.0,0.0,,,,,0,,6,,
Raw,8658376,8891881000000,,,-1287378671552265728,0.0,67.18460645060986,-1.2009493863775695,14.145062124820521,7,33,0.0,7183,373163340975066,35,22.9,-6.755425453186035,0.640500009059906,0,0.0,0.0,,,,,0,,6,,
NMEA,$GPGSV,3,3,11,21,00,000,,24,33,035,,25,40,151,*4C,1603352345440
NMEA,$GLGSV,2,1,05,82,08,240,31,79,05,201,30,83,09,285,26,67,46,016,12*60,1603352345440
NMEA,$GLGSV,2,2,05,68,15,326,24*5B,1603352345443
NMEA,$GAGSV,2,1,07,07,52,011,21,13,14,194,18,26,26,247,29,33,12,296,23*68,1603352345446
NMEA,$GAGSV,2,2,07,21,03,201,,27,47,171,,30,52,074,*5A,1603352345447
NMEA,$PQGSV,1,1,01,194,63,111,15,0,5*67,1603352345449
NMEA,$PQGSV,4,1,16,05,17,258,25,10,18,188,22,13,48,227,22,21,06,313,22,0,4*66,1603352345449
NMEA,$PQGSV,4,2,16,01,51,130,,02,41,241,,03,60,202,,04,37,115,,0,4*6D,1603352345451
NMEA,$PQGSV,4,3,16,06,53,352,,07,35,165,,08,37,196,,09,45,310,,0,4*64,1603352345451
NMEA,$PQGSV,4,4,16,16,52,343,,19,54,085,,20,10,118,,22,51,341,,0,4*65,1603352345452
NMEA,$GNGSA,A,3,10,18,23,31,32,,,,,,,,1.3,1.0,0.9,1*31,1603352345459
NMEA,$GNGSA,A,3,67,68,79,82,83,,,,,,,,1.3,1.0,0.9,2*38,1603352345460
NMEA,$GNGSA,A,2,01,07,26,,,,,,,,,,1.3,1.0,0.9,3*3A,1603352345460
NMEA,$PQGSA,A,2,05,10,13,,,,,,,,,,1.3,1.0,0.9,4*31,1603352345461
NMEA,$GNVTG,,T,,M,0.0,N,0.0,K,A*3D,1603352345462
NMEA,$GNRMC,073906.00,A,2255.521423,N,12017.672278,E,0.0,,221020,2.8,W,A*1D,1603352345462
NMEA,$GNGGA,073906.00,2255.521423,N,12017.672278,E,1,12,1.0,26.6,M,17.5,M,,*42,1603352345463
Fix,gps,22.925357,120.294538,44.039917,0.000000,10.720000,1603352347000
Raw,8659356,8892881000000,,,-1287378671552265728,0.0,70.06734085734934,1.1947722573034065,16.336427343620738,7,18,0.0,207,38346354167104,14,30.1,511.25982666015625,0.2468000054359436,0,0.0,0.0,,,,,0,,3,,
Raw,8659357,8892881000000,,,-1287378671552265728,0.0,70.06734085734934,1.1947722573034065,16.336427343620738,7,15,0.0,207,38346353405332,21,26.5,-810.677490234375,0.33070001006126404,0,0.0,0.0,,,,,0,,3,,
Raw,8659357,8892881000000,,,-1287378671552265728,0.0,70.06734085734934,1.1947722573034065,16.336427343620738,7,19,0.0,207,38346354365967,24,25.4,237.2460174560547,0.6028000116348267,0,0.0,0.0,,,,,0,,3,,
Raw,8659358,8892881000000,,,-1287378671552265728,0.0,70.06734085734934,1.1947722573034065,16.336427343620738,7,3,0.0,207,38346364958801,222,12.2,-272.7215881347656,7.052500247955322,0,0.0,0.0,,,,,0,,3,,
Raw,8659359,8892881000000,,,-1287378671552265728,0.0,70.06734085734934,1.1947722573034065,16.336427343620738,7,4,0.0,207,38346356639905,31,23.3,-524.4769287109375,0.8904999494552612,0,0.0,0.0,,,,,0,,3,,
Raw,8659359,8892881000000,,,-1287378671552265728,0.0,70.06734085734934,1.1947722573034065,16.336427343620738,7,10,0.0,15,373164362273636,35,22.3,-430.1493225097656,0.7894999980926514,0,0.0,0.0,,,,,0,,1,,
Raw,8659360,8892881000000,,,-1287378671552265728,0.0,70.06734085734934,1.1947722573034065,16.336427343620738,7,18,0.0,15,373164357430920,13,31.8,560.297119140625,0.050700001418590546,0,0.0,0.0,,,,,0,,1,,
Raw,8659360,8892881000000,,,-1287378671552265728,0.0,70.06734085734934,1.1947722573034065,16.336427343620738,7,23,0.0,15,373164365997466,46,20.8,-46.82175827026367,0.8539999723434448,0,0.0,0.0,,,,,0,,1,,
Raw,8659361,8892881000000,,,-1287378671552265728,0.0,70.06734085734934,1.1947722573034065,16.336427343620738,7,31,0.0,15,373164353320406,9,35.4,-586.2684936523438,0.04110000282526016,0,0.0,0.0,,,,,0,,1,,
Raw,8659361,8892881000000,,,-1287378671552265728,0.0,70.06734085734934,1.1947722573034065,16.336427343620738,7,32,0.0,15,373164355770093,16,29.7,-301.6045227050781,0.04920000210404396,0,0.0,0.0,,,,,0,,1,,
Raw,8659362,8892881000000,,,-1287378671552265728,0.0,70.06734085734934,1.1947722573034065,16.336427343620738,7,5,0.0,783,373150300593171,75,25.3,0.700944185256958,5.053500175476074,0,0.0,0.0,,,,,0,,5,,
Raw,8659362,8892881000000,,,-1287378671552265728,0.0,70.06734085734934,1.1947722573034065,16.336427343620738,7,10,0.0,15,373150300857843,35,22.1,-236.33340454101562,0.6664999723434448,0,0.0,0.0,,,,,0,,5,,
Raw,8659363,8892881000000,,,-1287378671552265728,0.0,70.06734085734934,1.1947722573034065,16.336427343620738,7,13,0.0,15,373150310625464,35,22.3,277.65069580078125,0.6814999580383301,0,0.0,0.0,,,,,0,,5,,
Raw,8659363,8892881000000,,,-1287378671552265728,0.0,70.06734085734934,1.1947722573034065,16.336427343620738,7,21,0.0,15,373150344345412,46,20.3,-498.6305236816406,0.7924999594688416,0,0.0,0.0,,,,,0,,5,,
Raw,8659364,8892881000000,,,-1287378671552265728,0.0,70.06734085734934,1.1947722573034065,16.336427343620738,7,7,0.0,7183,373164351902692,40,21.9,-85.21350860595703,0.6889999508857727,0,0.0,0.0,,,,,0,,6,,
Raw,8659364,8892881000000,,,-1287378671552265728,0.0,70.06734085734934,1.1947722573034065,16.336427343620738,7,13,0.0,7183,373164342377079,101,15.8,464.5259094238281,2.6035001277923584,0,0.0,0.0,,,,,0,,6,,
Raw,8659365,8892881000000,,,-1287378671552265728,0.0,70.06734085734934,1.1947722573034065,16.336427343620738,7,26,0.0,7183,373164348577305,17,28.0,324.61669921875,0.05730000138282776,0,0.0,0.0,,,,,0,,6,,
Raw,8659365,8892881000000,,,-1287378671552265728,0.0,70.06734085734934,1.1947722573034065,16.336427343620738,7,33,0.0,7183,373164340975058,27,24.8,-6.127456188201904,0.5504999756813049,0,0.0,0.0,,,,,0,,6,,
NMEA,$GPGSV,3,1,11,10,52,329,22,18,29,199,32,23,82,035,21,31,14,230,35*79,1603352346437
NMEA,$GPGSV,3,2,11,32,24,302,30,12,41,099,,15,18,078,,20,87,135,*73,1603352346438
NMEA,$GPGSV,3,3,11,21,00,000,,24,33,035,,25,40,151,*4C,1603352346439
NMEA,$GLGSV,2,1,05,82,08,240,30,79,05,201,27,83,09,285,25,67,46,016,12*64,1603352346443
NMEA,$GLGSV,2,2,05,68,15,326,23*5C,1603352346444
NMEA,$GAGSV,2,1,07,07,52,011,22,13,14,194,16,26,26,247,28,33,12,296,25*62,1603352346446
NMEA,$GAGSV,2,2,07,21,03,201,,27,47,171,,30,52,074,*5A,1603352346447
NMEA,$PQGSV,1,1,01,194,63,111,18,0,5*6A,1603352346452
NMEA,$PQGSV,4,1,16,05,17,258,25,10,18,188,22,13,48,227,22,21,06,313,20,0,4*64,1603352346453
NMEA,$PQGSV,4,2,16,01,51,130,,02,41,241,,03,60,202,,04,37,115,,0,4*6D,1603352346454
NMEA,$PQGSV,4,3,16,06,53,352,,07,35,165,,08,37,196,,09,45,310,,0,4*64,1603352346455
NMEA,$PQGSV,4,4,16,16,52,343,,19,54,085,,20,10,118,,22,51,341,,0,4*65,1603352346455
NMEA,$GNGSA,A,3,10,18,23,31,32,,,,,,,,1.3,1.0,0.9,1*31,1603352346456
NMEA,$GNGSA,A,3,68,79,82,83,,,,,,,,,1.3,1.0,0.9,2*39,1603352346456
NMEA,$GNGSA,A,2,01,07,26,,,,,,,,,,1.3,1.0,0.9,3*3A,1603352346456
NMEA,$PQGSA,A,2,05,10,13,,,,,,,,,,1.3,1.0,0.9,4*31,1603352346456
NMEA,$GNVTG,,T,,M,0.0,N,0.0,K,A*3D,1603352346456
NMEA,$GNRMC,073907.00,A,2255.521425,N,12017.672281,E,0.0,,221020,2.8,W,A*1C,1603352346457
NMEA,$GNGGA,073907.00,2255.521425,N,12017.672281,E,1,12,1.0,26.6,M,17.5,M,,*43,1603352346457
Fix,gps,22.925357,120.294538,44.043701,0.000000,10.720000,1603352348000
Raw,8660331,8893881000000,,,-1287378671552265728,0.0,67.4192124279216,1.0084701517892831,14.463347006059493,7,18,0.0,207,38347354165367,13,31.4,511.2120056152344,0.24620001018047333,0,0.0,0.0,,,,,0,,3,,
Raw,8660332,8893881000000,,,-1287378671552265728,0.0,67.4192124279216,1.0084701517892831,14.463347006059493,7,15,0.0,207,38347353407960,19,27.6,-810.6954956054688,0.26080000400543213,0,0.0,0.0,,,,,0,,3,,
Raw,8660332,8893881000000,,,-1287378671552265728,0.0,67.4192124279216,1.0084701517892831,14.463347006059493,7,19,0.0,207,38347354365206,24,25.5,237.42324829101562,0.6028000116348267,0,0.0,0.0,,,,,0,,3,,
Raw,8660333,8893881000000,,,-1287378671552265728,0.0,67.4192124279216,1.0084701517892831,14.463347006059493,7,3,0.0,207,38347364959710,268,12.2,-272.7215881347656,8.55250072479248,0,0.0,0.0,,,,,0,,3,,
Raw,8660333,8893881000000,,,-1287378671552265728,0.0,67.4192124279216,1.0084701517892831,14.463347006059493,7,4,0.0,207,38347356641646,24,25.1,-524.34521484375,0.6057999730110168,0,0.0,0.0,,,,,0,,3,,
Raw,8660333,8893881000000,,,-1287378671552265728,0.0,67.4192124279216,1.0084701517892831,14.463347006059493,7,10,0.0,15,373165362275090,46,20.8,-430.3586730957031,0.8495000004768372,0,0.0,0.0,,,,,0,,1,,
Raw,8660334,8893881000000,,,-1287378671552265728,0.0,67.4192124279216,1.0084701517892831,14.463347006059493,7,18,0.0,15,373165357429052,13,31.3,560.2826538085938,0.050700001418590546,0,0.0,0.0,,,,,0,,1,,
Raw,8660334,8893881000000,,,-1287378671552265728,0.0,67.4192124279216,1.0084701517892831,14.463347006059493,7,23,0.0,15,373165365997570,31,23.1,-47.32603454589844,0.7339999675750732,0,0.0,0.0,,,,,0,,1,,
Raw,8660335,8893881000000,,,-1287378671552265728,0.0,67.4192124279216,1.0084701517892831,14.463347006059493,7,31,0.0,15,373165353322360,9,35.3,-586.2561645507812,0.04110000282526016,0,0.0,0.0,,,,,0,,1,,
Raw,8660335,8893881000000,,,-1287378671552265728,0.0,67.4192124279216,1.0084701517892831,14.463347006059493,7,32,0.0,15,373165355771147,16,29.3,-301.6334228515625,0.04920000210404396,0,0.0,0.0,,,,,0,,1,,
