# 
# Header Description:
# 
# Version: v2.0.0.1 Platform: 8.0.0 Manufacturer: Sony Model: G8142
# 
# Raw,ElapsedRealtimeMillis,TimeNanos,LeapSecond,TimeUncertaintyNanos,FullBiasNanos,BiasNanos,BiasUncertaintyNanos,DriftNanosPerSecond,DriftUncertaintyNanosPerSecond,HardwareClockDiscontinuityCount,Svid,TimeOffsetNanos,State,ReceivedSvTimeNanos,ReceivedSvTimeUncertaintyNanos,Cn0DbHz,PseudorangeRateMetersPerSecond,PseudorangeRateUncertaintyMetersPerSecond,AccumulatedDeltaRangeState,AccumulatedDeltaRangeMeters,AccumulatedDeltaRangeUncertaintyMeters,CarrierFrequencyHz,CarrierCycles,CarrierPhase,CarrierPhaseUncertainty,MultipathIndicator,SnrInDb,ConstellationType,AgcDb,CarrierFrequencyHz
# 
# Fix,Provider,Latitude,Longitude,Altitude,Speed,Accuracy,(UTC)TimeInMs
# 
# Nav,Svid,Type,Status,MessageId,Sub-messageId,Data(Bytes)
# 
NMEA,$GPGSV,3,1,11,31,20,236,33,32,28,309,24,10,61,327,,12,42,087,*71,1603353423420
Raw,9736339,9969881000000,,,-1287378671552262656,0.0,120.38301065331325,2.7489512731643053,21.568962460836968,7,18,0.0,207,39423352330086,80,17.4,503.3843994140625,2.809499979019165,0,0.0,0.0,,,,,0,,3,,
Raw,9736339,9969881000000,,,-1287378671552262656,0.0,120.38301065331325,2.7489512731643053,21.568962460836968,7,15,0.0,207,39423356264753,99,17.5,-777.4393310546875,4.315500259399414,0,0.0,0.0,,,,,0,,3,,
Raw,9736340,9969881000000,,,-1287378671552262656,0.0,120.38301065331325,2.7489512731643053,21.568962460836968,7,19,0.0,207,39423353330995,35,22.4,332.5372314453125,0.9609999656677246,0,0.0,0.0,,,,,0,,3,,
Raw,9736340,9969881000000,,,-1287378671552262656,0.0,120.38301065331325,2.7489512731643053,21.568962460836968,7,3,0.0,207,39423365843392,110,16.1,-218.2949676513672,4.388999938964844,0,0.0,0.0,,,,,0,,3,,
Raw,9736341,9969881000000,,,-1287378671552262656,0.0,120.38301065331325,2.7489512731643053,21.568962460836968,7,4,0.0,207,39423358570339,207,11.9,-549.2950439453125,5.718500137329102,0,0.0,0.0,,,,,0,,3,,
Raw,9736341,9969881000000,,,-1287378671552262656,0.0,120.38301065331325,2.7489512731643053,21.568962460836968,7,31,0.0,15,374241355315485,11,33.1,-524.7953491210938,0.06040000170469284,0,0.0,0.0,,,,,0,,1,,
Raw,9736342,9969881000000,,,-1287378671552262656,0.0,120.38301065331325,2.7489512731643053,21.568962460836968,7,32,0.0,15,374241356862988,27,24.4,-309.2462463378906,0.7055000066757202,0,0.0,0.0,,,,,0,,1,,
Raw,9736342,9969881000000,,,-1287378671552262656,0.0,120.38301065331325,2.7489512731643053,21.568962460836968,7,21,0.0,15,374227346175812,40,21.2,-520.628662109375,0.750499963760376,0,0.0,0.0,,,,,0,,5,,
Raw,9736342,9969881000000,,,-1287378671552262656,0.0,120.38301065331325,2.7489512731643053,21.568962460836968,7,26,0.0,7183,374241347341020,13,31.9,360.38507080078125,0.06270000338554382,0,0.0,0.0,,,,,0,,6,,
Raw,9736343,9969881000000,,,-1287378671552262656,0.0,120.38301065331325,2.7489512731643053,21.568962460836968,7,33,0.0,7183,374241340849684,46,20.8,73.42481231689453,0.765500009059906,0,0.0,0.0,,,,,0,,6,,
Fix,gps,22.925375,120.294767,39.458740,1.050000,16.080000,1603353424000
NMEA,$GPGSV,3,2,11,15,14,085,,18,22,194,,20,77,163,,21,04,310,*72,1603353423420
NMEA,$GPGSV,3,3,11,23,82,118,,24,26,037,,25,47,144,*49,1603353423423
NMEA,$GLGSV,2,1,05,82,04,233,17,79,14,203,18,83,07,277,22,67,50,029,16*6C,1603353423423
NMEA,$GLGSV,2,2,05,68,21,333,12*5D,1603353423423
NMEA,$GAGSV,2,1,07,26,22,241,32,33,11,291,21,07,54,022,,13,09,189,*6A,1603353423423
NMEA,$GAGSV,2,2,07,21,09,201,,27,54,170,,30,50,063,*57,1603353423423
NMEA,$PQGSV,1,1,0,*73,1603353423424
NMEA,$PQGSV,4,1,16,21,11,316,21,01,51,130,,02,41,241,,03,60,202,,0,4*6F,1603353423424
NMEA,$PQGSV,4,2,16,04,37,115,,05,17,258,,06,53,355,,07,39,167,,0,4*6D,1603353423424
NMEA,$PQGSV,4,3,16,08,32,196,,09,44,314,,10,21,188,,13,43,226,,0,4*63,1603353423424
NMEA,$PQGSV,4,4,16,16,51,347,,19,51,099,,20,06,123,,22,57,347,,0,4*65,1603353423424
NMEA,$GNGSA,A,2,31,32,,,,,,,,,,,1.6,1.3,1.0,1*37,1603353423425
NMEA,$GNGSA,A,3,67,68,79,83,,,,,,,,,1.6,1.3,1.0,2*3C,1603353423425
NMEA,$GNGSA,A,2,01,26,,,,,,,,,,,1.6,1.3,1.0,3*33,1603353423425
NMEA,$GNVTG,199.2,T,199.2,M,2.0,N,3.8,K,A*34,1603353423425
NMEA,$GNRMC,075704.00,A,2255.522528,N,12017.686013,E,2.0,199.2,221020,2.8,W,A*35,1603353423426
NMEA,$GNGGA,075704.00,2255.522528,N,12017.686013,E,1,08,1.3,22.0,M,17.5,M,,*4F,1603353423426
Raw,9737358,9970881000000,,,-1287378671552262656,0.0,133.55723058339208,1.861334666496378,22.220082643803615,7,18,0.0,207,39424352328407,99,17.4,503.3843994140625,4.309500217437744,0,0.0,0.0,,,,,0,,3,,
Raw,9737359,9970881000000,,,-1287378671552262656,0.0,133.55723058339208,1.861334666496378,22.220082643803615,7,15,0.0,207,39424356267347,129,17.5,-777.4393310546875,5.815500259399414,0,0.0,0.0,,,,,0,,3,,
Raw,9737359,9970881000000,,,-1287378671552262656,0.0,133.55723058339208,1.861334666496378,22.220082643803615,7,19,0.0,207,39424353329849,35,22.4,331.9016418457031,0.9609999656677246,0,0.0,0.0,,,,,0,,3,,
Raw,9737360,9970881000000,,,-1287378671552262656,0.0,133.55723058339208,1.861334666496378,22.220082643803615,7,3,0.0,207,39424365844122,133,13.4,-221.10643005371094,3.199000120162964,0,0.0,0.0,,,,,0,,3,,
Raw,9737360,9970881000000,,,-1287378671552262656,0.0,133.55723058339208,1.861334666496378,22.220082643803615,7,4,0.0,207,39424358572171,244,11.9,-549.2950439453125,7.218500137329102,0,0.0,0.0,,,,,0,,3,,
Raw,9737361,9970881000000,,,-1287378671552262656,0.0,133.55723058339208,1.861334666496378,22.220082643803615,7,31,0.0,15,374242355317225,10,34.5,-524.959228515625,0.05960000306367874,0,0.0,0.0,,,,,0,,1,,
Raw,9737361,9970881000000,,,-1287378671552262656,0.0,133.55723058339208,1.861334666496378,22.220082643803615,7,32,0.0,15,374242356864056,40,21.6,-309.0559387207031,0.8255000114440918,0,0.0,0.0,,,,,0,,1,,
Raw,9737362,9970881000000,,,-1287378671552262656,0.0,133.55723058339208,1.861334666496378,22.220082643803615,7,21,0.0,15,374228346177503,53,19.5,-520.2542114257812,0.8704999685287476,0,0.0,0.0,,,,,0,,5,,
Raw,9737362,9970881000000,,,-1287378671552262656,0.0,133.55723058339208,1.861334666496378,22.220082643803615,7,26,0.0,7183,374242347339823,10,34.3,359.1854248046875,0.05960000306367874,0,0.0,0.0,,,,,0,,6,,
Raw,9737363,9970881000000,,,-1287378671552262656,0.0,133.55723058339208,1.861334666496378,22.220082643803615,7,33,0.0,7183,374242340849397,35,22.5,73.04422760009766,0.655500054359436,0,0.0,0.0,,,,,0,,6,,
Fix,gps,22.925364,120.294753,39.342773,1.260000,16.080000,1603353425000
NMEA,$GPGSV,3,1,11,31,20,236,35,32,28,309,22,10,61,327,,12,42,087,*71,1603353424421
NMEA,$GPGSV,3,2,11,15,14,085,,18,22,194,,20,77,163,,21,04,310,*72,1603353424421
NMEA,$GPGSV,3,3,11,23,82,118,,24,26,037,,25,47,144,*49,1603353424422
NMEA,$GLGSV,2,1,05,82,04,233,17,79,14,203,18,83,07,277,22,67,50,029,13*69,1603353424423
NMEA,$GLGSV,2,2,05,68,21,333,12*5D,1603353424423
NMEA,$GAGSV,2,1,07,26,22,241,34,33,11,291,23,07,54,022,,13,09,189,*6E,1603353424424
NMEA,$GAGSV,2,2,07,21,09,201,,27,54,170,,30,50,063,*57,1603353424424
NMEA,$PQGSV,1,1,0,*73,1603353424424
NMEA,$PQGSV,4,1,16,21,11,316,20,01,51,130,,02,41,241,,03,60,202,,0,4*6E,1603353424424
NMEA,$PQGSV,4,2,16,04,37,115,,05,17,258,,06,53,355,,07,39,167,,0,4*6D,1603353424425
NMEA,$PQGSV,4,3,16,08,32,196,,09,44,314,,10,21,188,,13,43,226,,0,4*63,1603353424425
NMEA,$PQGSV,4,4,16,16,51,347,,19,51,099,,20,06,123,,22,57,347,,0,4*65,1603353424425
NMEA,$GNGSA,A,2,31,32,,,,,,,,,,,1.6,1.3,1.0,1*37,1603353424426
NMEA,$GNGSA,A,3,67,68,79,83,,,,,,,,,1.6,1.3,1.0,2*3C,1603353424426
NMEA,$GNGSA,A,2,01,26,,,,,,,,,,,1.6,1.3,1.0,3*33,1603353424427
NMEA,$GNVTG,211.0,T,211.0,M,2.4,N,4.5,K,A*3A,1603353424430
NMEA,$GNRMC,075705.00,A,2255.521811,N,12017.685202,E,2.4,211.0,221020,2.8,W,A*34,1603353424431
NMEA,$GNGGA,075705.00,2255.521811,N,12017.685202,E,1,08,1.3,21.9,M,17.5,M,,*41,1603353424431
Raw,9738460,9971881000000,,,-1287378671552262656,0.0,135.01824287232012,0.261658323457733,21.899279909959308,7,18,0.0,207,39425352326728,129,17.4,503.3843994140625,5.809500217437744,0,0.0,0.0,,,,,0,,3,,
Raw,9738460,9971881000000,,,-1287378671552262656,0.0,135.01824287232012,0.261658323457733,21.899279909959308,7,15,0.0,207,39425356270151,112,15.9,-778.9551391601562,3.745500087738037,0,0.0,0.0,,,,,0,,3,,
Raw,9738461,9971881000000,,,-1287378671552262656,0.0,135.01824287232012,0.261658323457733,21.899279909959308,7,19,0.0,207,39425353328683,31,23.0,330.452880859375,0.9009999632835388,0,0.0,0.0,,,,,0,,3,,
Raw,9738462,9971881000000,,,-1287378671552262656,0.0,135.01824287232012,0.261658323457733,21.899279909959308,7,3,0.0,207,39425365844860,153,13.4,-221.10643005371094,4.699000358581543,0,0.0,0.0,,,,,0,,3,,
Raw,9738462,9971881000000,,,-1287378671552262656,0.0,135.01824287232012,0.261658323457733,21.899279909959308,7,4,0.0,207,39425358574004,291,11.9,-549.2950439453125,8.718500137329102,0,0.0,0.0,,,,,0,,3,,
Raw,9738463,9971881000000,,,-1287378671552262656,0.0,135.01824287232012,0.261658323457733,21.899279909959308,7,31,0.0,15,374243355318972,10,34.1,-525.8378295898438,0.05960000306367874,0,0.0,0.0,,,,,0,,1,,
Raw,9738463,9971881000000,,,-1287378671552262656,0.0,135.01824287232012,0.261658323457733,21.899279909959308,7,32,0.0,15,374243356865067,35,22.4,-311.0064392089844,0.8255000114440918,0,0.0,0.0,,,,,0,,1,,
Raw,9738464,9971881000000,,,-1287378671552262656,0.0,135.01824287232012,0.261658323457733,21.899279909959308,7,21,0.0,15,374229346179315,53,19.0,-522.6834716796875,0.8704999685287476,0,0.0,0.0,,,,,0,,5,,
Raw,9738465,9971881000000,,,-1287378671552262656,0.0,135.01824287232012,0.261658323457733,21.899279909959308,7,26,0.0,7183,374243347338624,10,34.2,357.8282165527344,0.2840000092983246,0,0.0,0.0,,,,,0,,6,,
Raw,9738466,9971881000000,,,-1287378671552262656,0.0,135.01824287232012,0.261658323457733,21.899279909959308,7,33,0.0,7183,374243340849170,31,23.0,72.01663970947266,0.6155000329017639,0,0.0,0.0,,,,,0,,6,,
Fix,gps,22.925353,120.294748,39.193298,0.950000,17.152000,1603353426000
NMEA,$GPGSV,3,1,11,31,20,236,34,32,28,309,22,10,61,327,,12,42,087,*70,1603353425421
NMEA,$GPGSV,3,2,11,15,14,085,,18,22,194,,20,77,163,,21,04,310,*72,1603353425421
NMEA,$GPGSV,3,3,11,23,82,118,,24,26,037,,25,47,144,*49,1603353425421
NMEA,$GLGSV,2,1,05,82,04,233,17,79,14,203,16,83,07,277,23,67,50,029,13*66,1603353425421
NMEA,$GLGSV,2,2,05,68,21,333,12*5D,1603353425422
NMEA,$GAGSV,2,1,07,26,22,241,34,33,11,291,23,07,54,022,,13,09,189,*6E,1603353425424
NMEA,$GAGSV,2,2,07,21,09,201,,27,54,170,,30,50,063,*57,1603353425424
NMEA,$PQGSV,1,1,0,*73,1603353425424
NMEA,$PQGSV,4,1,16,21,11,316,19,01,51,130,,02,41,241,,03,60,202,,0,4*64,1603353425424
NMEA,$PQGSV,4,2,16,04,37,115,,05,17,258,,06,53,355,,07,39,167,,0,4*6D,1603353425425
NMEA,$PQGSV,4,3,16,08,32,196,,09,44,314,,10,21,188,,13,43,226,,0,4*63,1603353425425
NMEA,$PQGSV,4,4,16,16,51,347,,19,51,099,,20,06,123,,22,57,347,,0,4*65,1603353425425
NMEA,$GNGSA,A,2,31,32,,,,,,,,,,,1.6,1.3,1.0,1*37,1603353425426
NMEA,$GNGSA,A,3,67,68,79,83,,,,,,,,,1.6,1.3,1.0,2*3C,1603353425427
NMEA,$GNGSA,A,2,01,26,,,,,,,,,,,1.6,1.3,1.0,3*33,1603353425427
NMEA,$GNVTG,216.2,T,216.2,M,1.8,N,3.4,K,A*33,1603353425427
NMEA,$GNRMC,075706.00,A,2255.521179,N,12017.684884,E,1.8,216.2,221020,2.8,W,A*3F,1603353425427
NMEA,$GNGGA,075706.00,2255.521179,N,12017.684884,E,1,08,1.3,21.7,M,17.5,M,,*4E,1603353425427
Raw,9739362,9972881000000,,,-1287378671552262656,0.0,147.42084022145718,-4.540497045937151,22.325601822382662,7,18,0.0,207,39426352325049,168,17.4,503.3843994140625,7.309500217437744,0,0.0,0.0,,,,,0,,3,,
Raw,9739362,9972881000000,,,-1287378671552262656,0.0,147.42084022145718,-4.540497045937151,22.325601822382662,7,15,0.0,207,39426356272478,46,20.0,-778.749267578125,1.0855000019073486,0,0.0,0.0,,,,,0,,3,,
Raw,9739362,9972881000000,,,-1287378671552262656,0.0,147.42084022145718,-4.540497045937151,22.325601822382662,7,19,0.0,207,39426353327684,31,23.3,331.9951171875,0.9009999632835388,0,0.0,0.0,,,,,0,,3,,
Raw,9739363,9972881000000,,,-1287378671552262656,0.0,147.42084022145718,-4.540497045937151,22.325601822382662,7,3,0.0,207,39426365845597,184,13.4,-221.10643005371094,6.199000358581543,0,0.0,0.0,,,,,0,,3,,
Raw,9739363,9972881000000,,,-1287378671552262656,0.0,147.42084022145718,-4.540497045937151,22.325601822382662,7,4,0.0,207,39426358575836,348,11.9,-549.2950439453125,10.218500137329102,0,0.0,0.0,,,,,0,,3,,
Raw,9739364,9972881000000,,,-1287378671552262656,0.0,147.42084022145718,-4.540497045937151,22.325601822382662,7,31,0.0,15,374244355320717,10,34.4,-525.2938842773438,0.05960000306367874,0,0.0,0.0,,,,,0,,1,,
Raw,9739364,9972881000000,,,-1287378671552262656,0.0,147.42084022145718,-4.540497045937151,22.325601822382662,7,32,0.0,15,374244356866074,35,22.9,-310.05499267578125,0.765500009059906,0,0.0,0.0,,,,,0,,1,,
Raw,9739365,9972881000000,,,-1287378671552262656,0.0,147.42084022145718,-4.540497045937151,22.325601822382662,7,21,0.0,15,374230346181115,40,21.3,-521.4064331054688,0.750499963760376,0,0.0,0.0,,,,,0,,5,,
Raw,9739366,9972881000000,,,-1287378671552262656,0.0,147.42084022145718,-4.540497045937151,22.325601822382662,7,26,0.0,7183,374244347337436,10,34.2,357.8228454589844,0.05960000306367874,0,0.0,0.0,,,,,0,,6,,
Raw,9739369,9972881000000,,,-1287378671552262656,0.0,147.42084022145718,-4.540497045937151,22.325601822382662,7,33,0.0,7183,374244340848950,35,22.1,72.42577362060547,0.655500054359436,0,0.0,0.0,,,,,0,,6,,
Fix,gps,22.925349,120.294714,38.957458,2.190000,18.224001,1603353427000
NMEA,$GPGSV,3,1,11,31,20,236,34,32,28,309,23,10,61,327,,12,42,087,*71,1603353426420
NMEA,$GPGSV,3,2,11,15,14,085,,18,22,194,,20,77,163,,21,04,310,*72,1603353426420
NMEA,$GPGSV,3,3,11,23,82,118,,24,26,037,,25,47,144,*49,1603353426420
NMEA,$GLGSV,2,1,05,82,04,233,17,79,14,203,20,83,07,277,23,67,50,029,13*63,1603353426420
NMEA,$GLGSV,2,2,05,68,21,333,12*5D,1603353426421
NMEA,$GAGSV,2,1,07,26,22,241,34,33,11,291,22,07,54,022,,13,09,189,*6F,1603353426421
NMEA,$GAGSV,2,2,07,21,09,201,,27,54,170,,30,50,063,*57,1603353426422
NMEA,$PQGSV,1,1,0,*73,1603353426422
NMEA,$PQGSV,4,1,16,21,11,316,21,01,51,130,,02,41,241,,03,60,202,,0,4*6F,1603353426422
NMEA,$PQGSV,4,2,16,04,37,115,,05,17,258,,06,53,355,,07,39,167,,0,4*6D,1603353426423
NMEA,$PQGSV,4,3,16,08,32,196,,09,44,314,,10,21,188,,13,43,226,,0,4*63,1603353426423
NMEA,$PQGSV,4,4,16,16,51,347,,19,51,099,,20,06,123,,22,57,347,,0,4*65,1603353426423
NMEA,$GNGSA,A,2,31,32,,,,,,,,,,,1.6,1.3,1.0,1*37,1603353426424
NMEA,$GNGSA,A,3,67,68,79,83,,,,,,,,,1.6,1.3,1.0,2*3C,1603353426434
NMEA,$GNGSA,A,2,01,26,,,,,,,,,,,1.6,1.3,1.0,3*33,1603353426434
NMEA,$GNVTG,242.6,T,242.6,M,4.3,N,7.9,K,A*34,1603353426434
NMEA,$GNRMC,075707.00,A,2255.520938,N,12017.682857,E,4.3,242.6,221020,2.8,W,A*31,1603353426435
NMEA,$GNGGA,075707.00,2255.520938,N,12017.682857,E,1,08,1.3,21.5,M,17.5,M,,*49,1603353426435
Raw,9740530,9973881000000,,,-1287378671552262656,0.0,153.43210543505847,-0.6638981755878971,22.277508133672896,7,18,0.0,207,39427352323370,218,17.4,503.3843994140625,8.809500694274902,0,0.0,0.0,,,,,0,,3,,
Raw,9740532,9973881000000,,,-1287378671552262656,0.0,153.43210543505847,-0.6638981755878971,22.277508133672896,7,15,0.0,207,39427356275152,70,17.7,-780.3961181640625,1.315500020980835,0,0.0,0.0,,,,,0,,3,,
Raw,9740532,9973881000000,,,-1287378671552262656,0.0,153.43210543505847,-0.6638981755878971,22.277508133672896,7,19,0.0,207,39427353326495,35,22.9,331.1539001464844,0.9609999656677246,0,0.0,0.0,,,,,0,,3,,
Raw,9740533,9973881000000,,,-1287378671552262656,0.0,153.43210543505847,-0.6638981755878971,22.277508133672896,7,3,0.0,207,39427365846335,225,13.4,-221.10643005371094,7.699000358581543,0,0.0,0.0,,,,,0,,3,,
Raw,9740533,9973881000000,,,-1287378671552262656,0.0,153.43210543505847,-0.6638981755878971,22.277508133672896,7,4,0.0,207,39427358577668,414,11.9,-549.2950439453125,11.718500137329102,0,0.0,0.0,,,,,0,,3,,
Raw,9740534,9973881000000,,,-1287378671552262656,0.0,153.43210543505847,-0.6638981755878971,22.277508133672896,7,31,0.0,15,374245355322486,10,34.3,-525.7108764648438,0.05960000306367874,0,0.0,0.0,,,,,0,,1,,
Raw,9740534,9973881000000,,,-1287378671552262656,0.0,153.43210543505847,-0.6638981755878971,22.277508133672896,7,32,0.0,15,374245356867080,35,22.6,-310.22625732421875,0.765500009059906,0,0.0,0.0,,,,,0,,1,,
Raw,9740535,9973881000000,,,-1287378671552262656,0.0,153.43210543505847,-0.6638981755878971,22.277508133672896,7,21,0.0,15,374231346182782,40,21.0,-522.2225952148438,0.750499963760376,0,0.0,0.0,,,,,0,,5,,
Raw,9740536,9973881000000,,,-1287378671552262656,0.0,153.43210543505847,-0.6638981755878971,22.277508133672896,7,26,0.0,7183,374245347336241,10,34.3,359.0257568359375,0.05960000306367874,0,0.0,0.0,,,,,0,,6,,
Raw,9740537,9973881000000,,,-1287378671552262656,0.0,153.43210543505847,-0.6638981755878971,22.277508133672896,7,33,0.0,7183,374245340848678,35,22.8,72.38771057128906,0.655500054359436,0,0.0,0.0,,,,,0,,6,,
Fix,gps,22.925341,120.294680,38.961670,2.020000,19.296001,1603353428000
NMEA,$GPGSV,3,1,11,31,20,236,34,32,28,309,23,10,61,327,,12,42,087,*71,1603353427420
NMEA,$GPGSV,3,2,11,15,14,085,,18,22,194,,20,77,163,,21,04,310,*72,1603353427420
NMEA,$GPGSV,3,3,11,23,82,118,,24,26,037,,25,47,144,*49,1603353427420
NMEA,$GLGSV,2,1,05,82,03,232,17,79,14,203,18,83,07,277,23,67,50,029,13*6E,1603353427420
NMEA,$GLGSV,2,2,05,68,21,333,12*5D,1603353427421
NMEA,$GAGSV,2,1,07,26,22,241,34,33,11,291,23,07,54,022,,13,09,189,*6E,1603353427421
NMEA,$GAGSV,2,2,07,21,09,201,,27,54,170,,30,50,063,*57,1603353427422
NMEA,$PQGSV,1,1,0,*73,1603353427422
NMEA,$PQGSV,4,1,16,21,11,316,21,01,51,130,,02,41,241,,03,60,202,,0,4*6F,1603353427423
NMEA,$PQGSV,4,2,16,04,37,115,,05,17,258,,06,53,355,,07,39,167,,0,4*6D,1603353427423
NMEA,$PQGSV,4,3,16,08,32,196,,09,44,314,,10,21,188,,13,43,226,,0,4*63,1603353427425
NMEA,$PQGSV,4,4,16,16,51,347,,19,51,099,,20,06,123,,22,57,347,,0,4*65,1603353427426
NMEA,$GNGSA,A,2,31,32,,,,,,,,,,,1.6,1.3,1.0,1*37,1603353427427
NMEA,$GNGSA,A,3,67,68,79,83,,,,,,,,,1.6,1.3,1.0,2*3C,1603353427427
NMEA,$GNGSA,A,2,01,26,,,,,,,,,,,1.6,1.3,1.0,3*33,1603353427427
NMEA,$GNVTG,252.1,T,252.1,M,3.9,N,7.3,K,A*33,1603353427427
NMEA,$GNRMC,075708.00,A,2255.520477,N,12017.680796,E,3.9,252.1,221020,2.8,W,A*33,1603353427428
NMEA,$GNGGA,075708.00,2255.520477,N,12017.680796,E,1,08,1.3,21.5,M,17.5,M,,*40,1603353427428
Fix,gps,22.925337,120.294653,38.363586,1.630000,19.296001,1603353429000
Raw,9741326,9974881000000,,,-1287378671552262656,0.0,162.99942217301577,0.43589527951112783,25.117703132564404,7,18,0.0,207,39428352321690,277,17.4,503.3843994140625,10.309500694274902,0,0.0,0.0,,,,,0,,3,,
Raw,9741326,9974881000000,,,-1287378671552262656,0.0,162.99942217301577,0.43589527951112783,25.117703132564404,7,15,0.0,207,39428356277568,46,20.0,-781.7808837890625,1.0855000019073486,0,0.0,0.0,,,,,0,,3,,
Raw,9741327,9974881000000,,,-1287378671552262656,0.0,162.99942217301577,0.43589527951112783,25.117703132564404,7,19,0.0,207,39428353325442,31,23.6,329.6957702636719,0.9009999632835388,0,0.0,0.0,,,,,0,,3,,
Raw,9741327,9974881000000,,,-1287378671552262656,0.0,162.99942217301577,0.43589527951112783,25.117703132564404,7,3,0.0,207,39428365847072,276,13.4,-221.10643005371094,9.199000358581543,0,0.0,0.0,,,,,0,,3,,
Raw,9741327,9974881000000,,,-1287378671552262656,0.0,162.99942217301577,0.43589527951112783,25.117703132564404,7,4,0.0,207,39428358579500,491,11.9,-549.2950439453125,13.218501091003418,0,0.0,0.0,,,,,0,,3,,
Raw,9741328,9974881000000,,,-1287378671552262656,0.0,162.99942217301577,0.43589527951112783,25.117703132564404,7,31,0.0,15,374246355324243,11,33.8,-527.2692260742188,0.06040000170469284,0,0.0,0.0,,,,,0,,1,,
Raw,9741328,9974881000000,,,-1287378671552262656,0.0,162.99942217301577,0.43589527951112783,25.117703132564404,7,32,0.0,15,374246356868088,61,18.4,-311.2919006347656,1.1154999732971191,0,0.0,0.0,,,,,0,,1,,
Raw,9741329,9974881000000,,,-1287378671552262656,0.0,162.99942217301577,0.43589527951112783,25.117703132564404,7,21,0.0,15,374232346184582,35,22.5,-523.9605712890625,0.6904999613761902,0,0.0,0.0,,,,,0,,5,,
Raw,9741329,9974881000000,,,-1287378671552262656,0.0,162.99942217301577,0.43589527951112783,25.117703132564404,7,26,0.0,7183,374246347335047,10,34.9,356.229736328125,0.2840000092983246,0,0.0,0.0,,,,,0,,6,,
Raw,9741329,9974881000000,,,-1287378671552262656,0.0,162.99942217301577,0.43589527951112783,25.117703132564404,7,33,0.0,7183,374246340848450,53,19.0,70.34205627441406,0.8255000114440918,0,0.0,0.0,,,,,0,,6,,
NMEA,$GPGSV,3,1,11,31,20,236,34,32,28,309,18,10,61,327,,12,42,087,*79,1603353428422
NMEA,$GPGSV,3,2,11,15,14,085,,18,22,194,,20,77,163,,21,04,310,*72,1603353428424
NMEA,$GPGSV,3,3,11,23,82,118,,24,26,037,,25,47,144,*49,1603353428427
NMEA,$GLGSV,2,1,05,82,03,232,17,79,14,203,20,83,07,277,24,67,50,029,13*62,1603353428427
NMEA,$GLGSV,2,2,05,68,21,333,12*5D,1603353428427
NMEA,$GAGSV,2,1,07,26,22,241,35,33,11,291,19,07,54,022,,13,09,189,*66,1603353428427
NMEA,$GAGSV,2,2,07,21,09,201,,27,54,170,,30,50,063,*57,1603353428427
NMEA,$PQGSV,1,1,0,*73,1603353428427
NMEA,$PQGSV,4,1,16,21,11,316,23,01,51,130,,02,41,241,,03,60,202,,0,4*6D,1603353428428
NMEA,$PQGSV,4,2,16,04,37,115,,05,17,258,,06,53,355,,07,39,167,,0,4*6D,1603353428428
NMEA,$PQGSV,4,3,16,08,32,196,,09,44,314,,10,21,188,,13,43,226,,0,4*63,1603353428428
NMEA,$PQGSV,4,4,16,16,51,347,,19,51,099,,20,06,123,,22,57,347,,0,4*65,1603353428428
NMEA,$GNGSA,A,2,31,32,,,,,,,,,,,1.7,1.4,1.0,1*31,1603353428429
NMEA,$GNGSA,A,3,67,68,79,83,,,,,,,,,1.7,1.4,1.0,2*3A,1603353428429
NMEA,$GNGSA,A,2,01,26,,,,,,,,,,,1.7,1.4,1.0,3*35,1603353428429
NMEA,$GNVTG,258.5,T,258.5,M,3.2,N,5.9,K,A*30,1603353428429
NMEA,$GNRMC,075709.00,A,2255.520245,N,12017.679200,E,3.2,258.5,221020,2.8,W,A*3C,1603353428429
NMEA,$GNGGA,075709.00,2255.520245,N,12017.679200,E,1,08,1.4,20.9,M,17.5,M,,*40,1603353428429
NMEA,$GPGSV,3,1,11,31,20,236,31,32,28,309,22,10,61,327,,12,42,087,*75,1603353429420
NMEA,$GPGSV,3,2,11,15,14,085,,18,22,194,,20,77,163,,21,04,310,*72,1603353429420
Raw,9742317,9975881000000,,,-1287378671552262656,0.0,170.10864394251257,-7.800662860945565,23.81459432220754,7,18,0.0,207,39429352320011,347,17.4,503.3843994140625,11.809500694274902,0,0.0,0.0,,,,,0,,3,,
Raw,9742318,9975881000000,,,-1287378671552262656,0.0,170.10864394251257,-7.800662860945565,23.81459432220754,7,15,0.0,207,39429356280282,81,16.1,-782.1551513671875,1.405500054359436,0,0.0,0.0,,,,,0,,3,,
Raw,9742319,9975881000000,,,-1287378671552262656,0.0,170.10864394251257,-7.800662860945565,23.81459432220754,7,19,0.0,207,39429353324328,27,24.6,329.209716796875,0.8510000109672546,0,0.0,0.0,,,,,0,,3,,
Raw,9742319,9975881000000,,,-1287378671552262656,0.0,170.10864394251257,-7.800662860945565,23.81459432220754,7,3,0.0,207,39429365847810,337,13.4,-221.10643005371094,10.699000358581543,0,0.0,0.0,,,,,0,,3,,
Raw,9742320,9975881000000,,,-1287378671552262656,0.0,170.10864394251257,-7.800662860945565,23.81459432220754,7,4,0.0,207,39429358581333,578,11.9,-549.2950439453125,14.718501091003418,0,0.0,0.0,,,,,0,,3,,
Raw,9742321,9975881000000,,,-1287378671552262656,0.0,170.10864394251257,-7.800662860945565,23.81459432220754,7,31,0.0,15,374247355326015,13,31.1,-528.1471557617188,0.06270000338554382,0,0.0,0.0,,,,,0,,1,,
Raw,9742321,9975881000000,,,-1287378671552262656,0.0,170.10864394251257,-7.800662860945565,23.81459432220754,7,32,0.0,15,374247356869283,35,22.4,-312.880859375,0.8255000114440918,0,0.0,0.0,,,,,0,,1,,
Raw,9742322,9975881000000,,,-1287378671552262656,0.0,170.10864394251257,-7.800662860945565,23.81459432220754,7,21,0.0,15,374233346186317,35,22.4,-524.1621704101562,0.6904999613761902,0,0.0,0.0,,,,,0,,5,,
Raw,9742322,9975881000000,,,-1287378671552262656,0.0,170.10864394251257,-7.800662860945565,23.81459432220754,7,26,0.0,7183,374247347333857,11,33.8,355.211669921875,0.30399999022483826,0,0.0,0.0,,,,,0,,6,,
Raw,9742323,9975881000000,,,-1287378671552262656,0.0,170.10864394251257,-7.800662860945565,23.81459432220754,7,33,0.0,7183,374247340848216,40,21.0,69.86631774902344,0.7055000066757202,0,0.0,0.0,,,,,0,,6,,
Fix,gps,22.925340,120.294644,39.489685,0.830000,18.224001,1603353430000
NMEA,$GPGSV,3,3,11,23,82,118,,24,26,037,,25,47,144,*49,1603353429422
NMEA,$GLGSV,2,1,05,82,03,232,17,79,14,203,16,83,07,277,25,67,50,029,13*66,1603353429422
NMEA,$GLGSV,2,2,05,68,21,333,12*5D,1603353429423
NMEA,$GAGSV,2,1,07,26,22,241,34,33,11,291,21,07,54,022,,13,09,189,*6C,1603353429423
NMEA,$GAGSV,2,2,07,21,09,201,,27,54,170,,30,50,063,*57,1603353429424
NMEA,$PQGSV,1,1,0,*73,1603353429424
NMEA,$PQGSV,4,1,16,21,11,316,22,01,51,130,,02,41,241,,03,60,202,,0,4*6C,1603353429424
NMEA,$PQGSV,4,2,16,04,37,115,,05,17,258,,06,53,355,,07,39,167,,0,4*6D,1603353429424
NMEA,$PQGSV,4,3,16,08,32,196,,09,44,314,,10,21,188,,13,43,226,,0,4*63,1603353429425
NMEA,$PQGSV,4,4,16,16,51,347,,19,51,099,,20,06,123,,22,57,347,,0,4*65,1603353429425
NMEA,$GNGSA,A,2,31,32,,,,,,,,,,,1.7,1.4,1.0,1*31,1603353429427
NMEA,$GNGSA,A,2,67,79,83,,,,,,,,,,1.7,1.4,1.0,2*35,1603353429428
NMEA,$GNGSA,A,2,01,26,,,,,,,,,,,1.7,1.4,1.0,3*35,1603353429428
NMEA,$GNVTG,252.9,T,252.9,M,1.6,N,3.0,K,A*39,1603353429428
NMEA,$GNRMC,075710.00,A,2255.520412,N,12017.678656,E,1.6,252.9,221020,2.8,W,A*36,1603353429428
NMEA,$GNGGA,075710.00,2255.520412,N,12017.678656,E,1,07,1.4,22.0,M,17.5,M,,*4E,1603353429430
Fix,gps,22.925344,120.294628,40.441956,1.260000,17.152000,1603353431000
Raw,9743326,9976881000000,,,-1287378671552262656,0.0,163.40755973942578,-12.73326415468282,22.572610638586674,7,18,0.0,207,39430352318132,187,14.3,499.5534362792969,6.839500427246094,0,0.0,0.0,,,,,0,,3,,
Raw,9743328,9976881000000,,,-1287378671552262656,0.0,163.40755973942578,-12.73326415468282,22.572610638586674,7,15,0.0,207,39430356282906,35,22.3,-782.56689453125,0.965499997138977,0,0.0,0.0,,,,,0,,3,,
Raw,9743328,9976881000000,,,-1287378671552262656,0.0,163.40755973942578,-12.73326415468282,22.572610638586674,7,19,0.0,207,39430353323229,27,24.4,327.3122863769531,0.8510000109672546,0,0.0,0.0,,,,,0,,3,,
Raw,9743329,9976881000000,,,-1287378671552262656,0.0,163.40755973942578,-12.73326415468282,22.572610638586674,7,3,0.0,207,39430365848547,408,13.4,-221.10643005371094,12.199000358581543,0,0.0,0.0,,,,,0,,3,,
Raw,9743329,9976881000000,,,-1287378671552262656,0.0,163.40755973942578,-12.73326415468282,22.572610638586674,7,4,0.0,207,39430358583165,675,11.9,-549.2950439453125,16.2185001373291,0,0.0,0.0,,,,,0,,3,,
Raw,9743330,9976881000000,,,-1287378671552262656,0.0,163.40755973942578,-12.73326415468282,22.572610638586674,7,31,0.0,15,374248355327732,12,32.2,-528.8978271484375,0.06140000373125076,0,0.0,0.0,,,,,0,,1,,
Raw,9743331,9976881000000,,,-1287378671552262656,0.0,163.40755973942578,-12.73326415468282,22.572610638586674,7,32,0.0,15,374248356870274,53,19.1,-313.7371826171875,1.0355000495910645,0,0.0,0.0,,,,,0,,1,,
Raw,9743331,9976881000000,,,-1287378671552262656,0.0,163.40755973942578,-12.73326415468282,22.572610638586674,7,21,0.0,15,374234346188068,53,19.5,-525.4776611328125,0.8704999685287476,0,0.0,0.0,,,,,0,,5,,
Raw,9743332,9976881000000,,,-1287378671552262656,0.0,163.40755973942578,-12.73326415468282,22.572610638586674,7,26,0.0,7183,374248347332676,11,33.4,354.5932312011719,0.30399999022483826,0,0.0,0.0,,,,,0,,6,,
Raw,9743332,9976881000000,,,-1287378671552262656,0.0,163.40755973942578,-12.73326415468282,22.572610638586674,7,33,0.0,7183,374248340847967,53,19.6,68.657958984375,0.8255000114440918,0,0.0,0.0,,,,,0,,6,,
NMEA,$GPGSV,3,1,11,31,20,236,32,32,28,309,19,10,61,327,,12,42,087,*7E,1603353430421
NMEA,$GPGSV,3,2,11,15,14,085,,18,22,194,,20,77,163,,21,04,310,*72,1603353430421
NMEA,$GPGSV,3,3,11,23,82,118,,24,26,037,,25,47,144,*49,1603353430421
NMEA,$GLGSV,2,1,05,82,03,232,14,79,14,203,22,83,07,277,24,67,50,029,13*63,1603353430421
NMEA,$GLGSV,2,2,05,68,21,333,12*5D,1603353430422
NMEA,$GAGSV,2,1,07,26,22,241,33,33,11,291,20,07,54,022,,13,09,189,*6A,1603353430422
NMEA,$GAGSV,2,2,07,21,09,201,,27,54,170,,30,50,063,*57,1603353430422
NMEA,$PQGSV,1,1,0,*73,1603353430422
NMEA,$PQGSV,4,1,16,21,11,316,20,01,51,130,,02,41,241,,03,60,202,,0,4*6E,1603353430422
NMEA,$PQGSV,4,2,16,04,37,115,,05,17,258,,06,53,355,,07,39,167,,0,4*6D,1603353430422
NMEA,$PQGSV,4,3,16,08,32,196,,09,44,314,,10,21,188,,13,43,226,,0,4*63,1603353430422
NMEA,$PQGSV,4,4,16,16,51,347,,19,51,099,,20,06,123,,22,57,347,,0,4*65,1603353430423
NMEA,$GNGSA,A,2,31,32,,,,,,,,,,,3.0,2.8,1.0,1*3B,1603353430425
NMEA,$GNGSA,A,2,67,79,83,,,,,,,,,,3.0,2.8,1.0,2*3F,1603353430425
NMEA,$GNGSA,A,2,01,26,,,,,,,,,,,3.0,2.8,1.0,3*3F,1603353430425
NMEA,$GNVTG,258.8,T,258.8,M,2.4,N,4.5,K,A*3A,1603353430426
NMEA,$GNRMC,075711.00,A,2255.520654,N,12017.677684,E,2.4,258.8,221020,2.8,W,A*3D,1603353430426
NMEA,$GNGGA,075711.00,2255.520654,N,12017.677684,E,1,07,2.8,23.0,M,17.5,M,,*41,1603353430426
Raw,9744464,9977881000000,,,-1287378671552262656,0.0,156.5330458106473,-14.929715976535382,21.767126845166516,7,18,0.0,207,39431352316582,61,18.9,499.712646484375,1.2295000553131104,0,0.0,0.0,,,,,0,,3,,
Raw,9744465,9977881000000,,,-1287378671552262656,0.0,156.5330458106473,-14.929715976535382,21.767126845166516,7,15,0.0,207,39431356285506,46,20.3,-782.1271362304688,1.0855000019073486,0,0.0,0.0,,,,,0,,3,,
Raw,9744466,9977881000000,,,-1287378671552262656,0.0,156.5330458106473,-14.929715976535382,21.767126845166516,7,19,0.0,207,39431353322186,31,23.5,329.994873046875,0.9009999632835388,0,0.0,0.0,,,,,0,,3,,
Raw,9744466,9977881000000,,,-1287378671552262656,0.0,156.5330458106473,-14.929715976535382,21.767126845166516,7,3,0.0,207,39431365849285,488,13.4,-221.10643005371094,13.699000358581543,0,0.0,0.0,,,,,0,,3,,
Raw,9744467,9977881000000,,,-1287378671552262656,0.0,156.5330458106473,-14.929715976535382,21.767126845166516,7,4,0.0,207,39431358584997,782,11.9,-549.2950439453125,17.7185001373291,0,0.0,0.0,,,,,0,,3,,
Raw,9744467,9977881000000,,,-1287378671552262656,0.0,156.5330458106473,-14.929715976535382,21.767126845166516,7,31,0.0,15,374249355329514,14,30.7,-527.5853271484375,0.0633000060915947,0,0.0,0.0,,,,,0,,1,,
Raw,9744468,9977881000000,,,-1287378671552262656,0.0,156.5330458106473,-14.929715976535382,21.767126845166516,7,32,0.0,15,374249356871296,46,20.4,-311.58685302734375,0.9555000066757202,0,0.0,0.0,,,,,0,,1,,
Raw,9744469,9977881000000,,,-1287378671552262656,0.0,156.5330458106473,-14.929715976535382,21.767126845166516,7,21,0.0,15,374235346189848,46,20.4,-523.62451171875,0.8104999661445618,0,0.0,0.0,,,,,0,,5,,
Raw,9744469,9977881000000,,,-1287378671552262656,0.0,156.5330458106473,-14.929715976535382,21.767126845166516,7,26,0.0,7183,374249347331502,11,33.1,355.9728698730469,0.30399999022483826,0,0.0,0.0,,,,,0,,6,,
Raw,9744470,9977881000000,,,-1287378671552262656,0.0,156.5330458106473,-14.929715976535382,21.767126845166516,7,33,0.0,7183,374249340847747,35,22.1,70.5038070678711,0.655500054359436,0,0.0,0.0,,,,,0,,6,,
Fix,gps,22.925347,120.294606,40.174011,0.950000,16.080000,1603353432000
NMEA,$GPGSV,3,1,11,31,20,236,31,32,28,309,20,10,61,327,,12,42,087,*77,1603353431422
NMEA,$GPGSV,3,2,11,15,14,085,,18,22,194,,20,77,163,,21,04,310,*72,1603353431422
NMEA,$GPGSV,3,3,11,23,82,118,,24,26,037,,25,47,144,*49,1603353431422
NMEA,$GLGSV,2,1,05,82,03,232,19,79,14,203,20,83,07,277,24,67,50,029,13*6C,1603353431423
NMEA,$GLGSV,2,2,05,68,21,333,12*5D,1603353431424
NMEA,$GAGSV,2,1,07,26,22,241,33,33,11,291,22,07,54,022,,13,09,189,*68,1603353431424
NMEA,$GAGSV,2,2,07,21,09,201,,27,54,170,,30,50,063,*57,1603353431424
NMEA,$PQGSV,1,1,0,*73,1603353431424
NMEA,$PQGSV,4,1,16,21,11,316,20,01,51,130,,02,41,241,,03,60,202,,0,4*6E,1603353431425
NMEA,$PQGSV,4,2,16,04,37,115,,05,17,258,,06,53,355,,07,39,167,,0,4*6D,1603353431425
NMEA,$PQGSV,4,3,16,08,32,196,,09,44,314,,10,21,188,,13,43,226,,0,4*63,1603353431426
NMEA,$PQGSV,4,4,16,16,51,347,,19,51,099,,20,06,123,,22,57,347,,0,4*65,1603353431427
NMEA,$GNGSA,A,2,31,32,,,,,,,,,,,3.0,2.8,1.0,1*3B,1603353431428
NMEA,$GNGSA,A,2,79,83,,,,,,,,,,,3.0,2.8,1.0,2*3E,1603353431429
NMEA,$GNGSA,A,2,01,26,,,,,,,,,,,3.0,2.8,1.0,3*3F,1603353431429
NMEA,$GNVTG,255.0,T,255.0,M,1.8,N,3.4,K,A*33,1603353431429
NMEA,$GNRMC,075712.00,A,2255.520836,N,12017.676366,E,1.8,255.0,221020,2.8,W,A*36,1603353431429
NMEA,$GNGGA,075712.00,2255.520836,N,12017.676366,E,1,06,2.8,22.7,M,17.5,M,,*47,1603353431429
Raw,9745335,9978881000000,,,-1287378671552262656,0.0,151.39511378947645,-11.029602850086658,19.510307001972862,7,18,0.0,207,39432352314783,35,22.9,501.72650146484375,0.9594999551773071,0,0.0,0.0,,,,,0,,3,,
Raw,9745336,9978881000000,,,-1287378671552262656,0.0,151.39511378947645,-11.029602850086658,19.510307001972862,7,15,0.0,207,39432356288252,46,20.6,-780.44287109375,1.0855000019073486,0,0.0,0.0,,,,,0,,3,,
Raw,9745336,9978881000000,,,-1287378671552262656,0.0,151.39511378947645,-11.029602850086658,19.510307001972862,7,19,0.0,207,39432353321016,27,24.2,330.3874206542969,0.8510000109672546,0,0.0,0.0,,,,,0,,3,,
Raw,9745337,9978881000000,,,-1287378671552262656,0.0,151.39511378947645,-11.029602850086658,19.510307001972862,7,3,0.0,207,39432365850022,579,13.4,-221.10643005371094,15.199000358581543,0,0.0,0.0,,,,,0,,3,,
Raw,9745337,9978881000000,,,-1287378671552262656,0.0,151.39511378947645,-11.029602850086658,19.510307001972862,7,4,0.0,207,39432358586830,899,11.9,-549.2950439453125,19.2185001373291,0,0.0,0.0,,,,,0,,3,,
Raw,9745338,9978881000000,,,-1287378671552262656,0.0,151.39511378947645,-11.029602850086658,19.510307001972862,7,31,0.0,15,374250355331282,14,30.6,-526.6795654296875,0.0633000060915947,0,0.0,0.0,,,,,0,,1,,
Raw,9745339,9978881000000,,,-1287378671552262656,0.0,151.39511378947645,-11.029602850086658,19.510307001972862,7,32,0.0,15,374250356872369,40,21.0,-311.3394775390625,0.8855000138282776,0,0.0,0.0,,,,,0,,1,,
Raw,9745339,9978881000000,,,-1287378671552262656,0.0,151.39511378947645,-11.029602850086658,19.510307001972862,7,21,0.0,15,374236346191558,53,19.7,-522.9235229492188,0.8704999685287476,0,0.0,0.0,,,,,0,,5,,
Raw,9745340,9978881000000,,,-1287378671552262656,0.0,151.39511378947645,-11.029602850086658,19.510307001972862,7,26,0.0,7183,374250347330304,10,34.4,355.4012451171875,0.05960000306367874,0,0.0,0.0,,,,,0,,6,,
Raw,9745340,9978881000000,,,-1287378671552262656,0.0,151.39511378947645,-11.029602850086658,19.510307001972862,7,33,0.0,7183,374250340847598,70,17.9,69.6474838256836,0.9555000066757202,0,0.0,0.0,,,,,0,,6,,
Fix,gps,22.925349,120.294603,39.002563,0.590000,17.152000,1603353433000
NMEA,$GPGSV,3,1,11,31,20,236,31,32,28,309,21,10,61,327,,12,42,087,*76,1603353432428
NMEA,$GPGSV,3,2,11,15,14,085,,18,22,194,,20,77,163,,21,04,310,*72,1603353432428
NMEA,$GPGSV,3,3,11,23,82,118,,24,26,037,,25,47,144,*49,1603353432429
NMEA,$GLGSV,2,1,05,82,03,232,23,79,14,203,21,83,06,275,24,67,50,029,13*67,1603353432431
NMEA,$GLGSV,2,2,05,68,21,333,12*5D,1603353432432
NMEA,$GAGSV,2,1,07,26,22,241,34,33,11,291,18,07,54,022,,13,09,189,*66,1603353432433
NMEA,$GAGSV,2,2,07,21,09,201,,27,54,170,,30,50,063,*57,1603353432434
NMEA,$PQGSV,1,1,0,*73,1603353432436
NMEA,$PQGSV,4,1,16,21,11,316,20,01,51,130,,02,41,241,,03,60,202,,0,4*6E,1603353432437
NMEA,$PQGSV,4,2,16,04,37,115,,05,17,258,,06,53,355,,07,39,167,,0,4*6D,1603353432438
NMEA,$PQGSV,4,3,16,08,32,196,,09,44,314,,10,21,188,,13,43,226,,0,4*63,1603353432441
NMEA,$PQGSV,4,4,16,16,51,347,,19,51,099,,20,06,123,,22,57,347,,0,4*65,1603353432443
NMEA,$GNGSA,A,2,31,32,,,,,,,,,,,3.0,2.8,1.0,1*3B,1603353432446
NMEA,$GNGSA,A,2,79,83,,,,,,,,,,,3.0,2.8,1.0,2*3E,1603353432447
NMEA,$GNGSA,A,2,01,26,,,,,,,,,,,3.0,2.8,1.0,3*3F,1603353432448
NMEA,$GNVTG,249.7,T,249.7,M,1.1,N,2.1,K,A*3E,1603353432449
NMEA,$GNRMC,075713.00,A,2255.520958,N,12017.676187,E,1.1,249.7,221020,2.8,W,A*30,1603353432450
NMEA,$GNGGA,075713.00,2255.520958,N,12017.676187,E,1,06,2.8,21.5,M,17.5,M,,*43,1603353432453
Raw,9746538,9979881000000,,,-1287378671552262656,0.0,157.0213062223047,-11.547465326040417,21.312978128365167,7,18,0.0,207,39433352313075,35,22.7,501.8951110839844,0.9594999551773071,0,0.0,0.0,,,,,0,,3,,
Raw,9746542,9979881000000,,,-1287378671552262656,0.0,157.0213062223047,-11.547465326040417,21.312978128365167,7,15,0.0,207,39433356290800,27,24.6,-780.0405883789062,0.8555000424385071,0,0.0,0.0,,,,,0,,3,,
Raw,9746544,9979881000000,,,-1287378671552262656,0.0,157.0213062223047,-11.547465326040417,21.312978128365167,7,19,0.0,207,39433353319879,27,24.8,331.0604248046875,0.8510000109672546,0,0.0,0.0,,,,,0,,3,,
Raw,9746551,9979881000000,,,-1287378671552262656,0.0,157.0213062223047,-11.547465326040417,21.312978128365167,7,3,0.0,207,39433365850760,680,13.4,-221.10643005371094,16.69900131225586,0,0.0,0.0,,,,,0,,3,,
Raw,9746553,9979881000000,,,-1287378671552262656,0.0,157.0213062223047,-11.547465326040417,21.312978128365167,7,4,0.0,207,39433358588662,1025,11.9,-549.2950439453125,20.7185001373291,0,0.0,0.0,,,,,0,,3,,
Raw,9746556,9979881000000,,,-1287378671552262656,0.0,157.0213062223047,-11.547465326040417,21.312978128365167,7,31,0.0,15,374251355333040,13,31.5,-525.951416015625,0.06270000338554382,0,0.0,0.0,,,,,0,,1,,
Raw,9746558,9979881000000,,,-1287378671552262656,0.0,157.0213062223047,-11.547465326040417,21.312978128365167,7,32,0.0,15,374251356873453,53,19.9,-311.177734375,0.9555000066757202,0,0.0,0.0,,,,,0,,1,,
Raw,9746560,9979881000000,,,-1287378671552262656,0.0,157.0213062223047,-11.547465326040417,21.312978128365167,7,21,0.0,15,374237346193290,61,18.2,-523.7589111328125,0.9404999613761902,0,0.0,0.0,,,,,0,,5,,
Raw,9746563,9979881000000,,,-1287378671552262656,0.0,157.0213062223047,-11.547465326040417,21.312978128365167,7,26,0.0,7183,374251347329112,10,34.1,356.65228271484375,0.05960000306367874,0,0.0,0.0,,,,,0,,6,,
Raw,9746565,9979881000000,,,-1287378671552262656,0.0,157.0213062223047,-11.547465326040417,21.312978128365167,7,33,0.0,7183,374251340847365,78,17.9,69.6474838256836,2.4555001258850098,0,0.0,0.0,,,,,0,,6,,
Fix,gps,22.925352,120.294616,38.690125,0.180000,17.152000,1603353434000
NMEA,$GPGSV,3,1,11,31,20,236,32,32,28,309,20,10,61,327,,12,42,087,*74,1603353433420
NMEA,$GPGSV,3,2,11,15,14,085,,18,22,194,,20,77,163,,21,04,310,*72,1603353433420
NMEA,$GPGSV,3,3,11,23,82,118,,24,26,037,,25,47,144,*49,1603353433421
NMEA,$GLGSV,2,1,05,82,03,232,23,79,14,203,25,83,06,275,25,67,50,029,13*62,1603353433421
NMEA,$GLGSV,2,2,05,68,21,333,12*5D,1603353433421
NMEA,$GAGSV,2,1,07,26,22,241,34,33,11,291,18,07,54,022,,13,09,189,*66,1603353433422
NMEA,$GAGSV,2,2,07,21,09,201,,27,54,170,,30,50,063,*57,1603353433422
NMEA,$PQGSV,1,1,0,*73,1603353433422
NMEA,$PQGSV,4,1,16,21,11,316,18,01,51,130,,02,41,241,,03,60,202,,0,4*65,1603353433422
NMEA,$PQGSV,4,2,16,04,37,115,,05,17,258,,06,53,355,,07,39,167,,0,4*6D,1603353433422
NMEA,$PQGSV,4,3,16,08,32,196,,09,44,314,,10,21,188,,13,43,226,,0,4*63,1603353433423
NMEA,$PQGSV,4,4,16,16,51,347,,19,51,099,,20,06,123,,22,57,347,,0,4*65,1603353433423
NMEA,$GNGSA,A,2,31,32,,,,,,,,,,,3.0,2.8,1.0,1*3B,1603353433425
NMEA,$GNGSA,A,2,79,83,,,,,,,,,,,3.0,2.8,1.0,2*3E,1603353433425
NMEA,$GNGSA,A,2,01,26,,,,,,,,,,,3.0,2.8,1.0,3*3F,1603353433425
NMEA,$GNVTG,224.6,T,224.6,M,0.3,N,0.6,K,A*38,1603353433425
NMEA,$GNRMC,075714.00,A,2255.521117,N,12017.676964,E,0.3,224.6,221020,2.8,W,A*39,1603353433425
NMEA,$GNGGA,075714.00,2255.521117,N,12017.676964,E,1,06,2.8,21.2,M,17.5,M,,*44,1603353433425
Raw,9747366,9980881000000,,,-1287378671552262656,0.0,154.26029858645052,-9.976019913260366,21.045541781516597,7,18,0.0,207,39434352311531,31,23.1,502.6819152832031,0.8994999527931213,0,0.0,0.0,,,,,0,,3,,
Raw,9747367,9980881000000,,,-1287378671552262656,0.0,154.26029858645052,-9.976019913260366,21.045541781516597,7,15,0.0,207,39434356293305,24,25.9,-779.503662109375,0.6208000183105469,0,0.0,0.0,,,,,0,,3,,
Raw,9747367,9980881000000,,,-1287378671552262656,0.0,154.26029858645052,-9.976019913260366,21.045541781516597,7,19,0.0,207,39434353318826,27,24.6,331.4903869628906,0.8510000109672546,0,0.0,0.0,,,,,0,,3,,
Raw,9747368,9980881000000,,,-1287378671552262656,0.0,154.26029858645052,-9.976019913260366,21.045541781516597,7,3,0.0,207,39434365851553,314,10.2,-222.4514617919922,8.839000701904297,0,0.0,0.0,,,,,0,,3,,
Raw,9747368,9980881000000,,,-1287378671552262656,0.0,154.26029858645052,-9.976019913260366,21.045541781516597,7,4,0.0,207,39434358590494,1162,11.9,-549.2950439453125,22.2185001373291,0,0.0,0.0,,,,,0,,3,,
Raw,9747369,9980881000000,,,-1287378671552262656,0.0,154.26029858645052,-9.976019913260366,21.045541781516597,7,31,0.0,15,374252355334786,13,31.4,-525.5282592773438,0.06270000338554382,0,0.0,0.0,,,,,0,,1,,
Raw,9747369,9980881000000,,,-1287378671552262656,0.0,154.26029858645052,-9.976019913260366,21.045541781516597,7,32,0.0,15,374252356874443,53,19.0,-311.3585205078125,1.0355000495910645,0,0.0,0.0,,,,,0,,1,,
Raw,9747370,9980881000000,,,-1287378671552262656,0.0,154.26029858645052,-9.976019913260366,21.045541781516597,7,21,0.0,15,374238346195037,69,18.2,-523.7589111328125,2.440500020980835,0,0.0,0.0,,,,,0,,5,,
Raw,9747370,9980881000000,,,-1287378671552262656,0.0,154.26029858645052,-9.976019913260366,21.045541781516597,7,26,0.0,7183,374252347327925,11,33.3,357.2549133300781,0.06040000170469284,0,0.0,0.0,,,,,0,,6,,
Raw,9747371,9980881000000,,,-1287378671552262656,0.0,154.26029858645052,-9.976019913260366,21.045541781516597,7,33,0.0,7183,374252340847135,110,14.4,69.6474838256836,1.9555000066757202,0,0.0,0.0,,,,,0,,6,,
Fix,gps,22.925357,120.294620,39.216858,0.560000,18.224001,1603353435000
NMEA,$GPGSV,3,1,11,31,20,236,31,32,28,309,19,10,61,327,,12,42,087,*7D,1603353434428
NMEA,$GPGSV,3,2,11,15,14,085,,18,22,194,,20,77,163,,21,04,310,*72,1603353434429
NMEA,$GPGSV,3,3,11,23,82,118,,24,26,037,,25,47,144,*49,1603353434432
NMEA,$GLGSV,2,1,05,82,03,232,23,79,14,203,26,83,06,275,25,67,50,029,10*62,1603353434433
NMEA,$GLGSV,2,2,05,68,21,333,12*5D,1603353434434
NMEA,$GAGSV,2,1,07,26,22,241,33,33,11,291,14,07,54,022,,13,09,189,*6D,1603353434435
NMEA,$GAGSV,2,2,07,21,09,201,,27,54,170,,30,50,063,*57,1603353434436
NMEA,$PQGSV,1,1,0,*73,1603353434437
NMEA,$PQGSV,4,1,16,21,11,316,18,01,51,130,,02,41,241,,03,60,202,,0,4*65,1603353434438
NMEA,$PQGSV,4,2,16,04,37,115,,05,17,258,,06,53,355,,07,39,167,,0,4*6D,1603353434438
NMEA,$PQGSV,4,3,16,08,32,196,,09,44,314,,10,21,188,,13,43,226,,0,4*63,1603353434439
NMEA,$PQGSV,4,4,16,16,51,347,,19,51,099,,20,06,123,,22,57,347,,0,4*65,1603353434440
NMEA,$GNGSA,A,2,31,32,,,,,,,,,,,1.7,1.4,1.0,1*31,1603353434444
NMEA,$GNGSA,A,2,79,83,,,,,,,,,,,1.7,1.4,1.0,2*34,1603353434446
NMEA,$GNGSA,A,2,01,26,,,,,,,,,,,1.7,1.4,1.0,3*35,1603353434447
NMEA,$GNVTG,263.1,T,263.1,M,1.1,N,2.0,K,A*3F,1603353434448
NMEA,$GNRMC,075715.00,A,2255.521441,N,12017.677225,E,1.1,263.1,221020,2.8,W,A*36,1603353434448
NMEA,$GNGGA,075715.00,2255.521441,N,12017.677225,E,1,06,1.4,21.7,M,17.5,M,,*46,1603353434449
Raw,9748539,9981881000000,,,-1287378671552262656,0.0,163.23347517754883,-8.068620910671298,22.540971267755747,7,18,0.0,207,39435352309891,40,21.7,502.52264404296875,1.0195000171661377,0,0.0,0.0,,,,,0,,3,,
Raw,9748541,9981881000000,,,-1287378671552262656,0.0,163.23347517754883,-8.068620910671298,22.540971267755747,7,15,0.0,207,39435356296061,35,22.5,-779.1329345703125,0.965499997138977,0,0.0,0.0,,,,,0,,3,,
Raw,9748543,9981881000000,,,-1287378671552262656,0.0,163.23347517754883,-8.068620910671298,22.540971267755747,7,19,0.0,207,39435353317715,27,24.9,331.7521057128906,0.8510000109672546,0,0.0,0.0,,,,,0,,3,,
Raw,9748546,9981881000000,,,-1287378671552262656,0.0,163.23347517754883,-8.068620910671298,22.540971267755747,7,3,0.0,207,39435365852295,371,10.2,-222.4514617919922,10.339000701904297,0,0.0,0.0,,,,,0,,3,,
Raw,9748548,9981881000000,,,-1287378671552262656,0.0,163.23347517754883,-8.068620910671298,22.540971267755747,7,4,0.0,207,39435358592326,1309,11.9,-549.2950439453125,23.718502044677734,0,0.0,0.0,,,,,0,,3,,
Raw,9748550,9981881000000,,,-1287378671552262656,0.0,163.23347517754883,-8.068620910671298,22.540971267755747,7,31,0.0,15,374253355336548,13,31.7,-525.21044921875,0.06270000338554382,0,0.0,0.0,,,,,0,,1,,
Raw,9748553,9981881000000,,,-1287378671552262656,0.0,163.23347517754883,-8.068620910671298,22.540971267755747,7,32,0.0,15,374253356875469,53,19.5,-309.71246337890625,0.9555000066757202,0,0.0,0.0,,,,,0,,1,,
Raw,9748555,9981881000000,,,-1287378671552262656,0.0,163.23347517754883,-8.068620910671298,22.540971267755747,7,21,0.0,15,374239346196784,87,18.2,-523.7589111328125,3.940500020980835,0,0.0,0.0,,,,,0,,5,,
Raw,9748558,9981881000000,,,-1287378671552262656,0.0,163.23347517754883,-8.068620910671298,22.540971267755747,7,26,0.0,7183,374253347326726,10,34.1,358.2670593261719,0.05960000306367874,0,0.0,0.0,,,,,0,,6,,
Raw,9748560,9981881000000,,,-1287378671552262656,0.0,163.23347517754883,-8.068620910671298,22.540971267755747,7,33,0.0,7183,374253340846805,35,22.8,72.97762298583984,0.655500054359436,0,0.0,0.0,,,,,0,,6,,
Fix,gps,22.925357,120.294647,36.426392,1.180000,16.080000,1603353436000
NMEA,$GPGSV,3,1,11,31,20,236,32,32,28,309,20,10,61,327,,12,42,087,*74,1603353435428
NMEA,$GPGSV,3,2,11,15,14,085,,18,22,194,,20,77,163,,21,04,310,*72,1603353435429
NMEA,$GPGSV,3,3,11,23,82,118,,24,26,037,,25,47,144,*49,1603353435430
NMEA,$GLGSV,2,1,05,82,03,232,22,79,14,203,23,83,06,275,25,67,50,029,10*66,1603353435435
NMEA,$GLGSV,2,2,05,68,21,333,12*5D,1603353435436
NMEA,$GAGSV,2,1,07,26,22,241,34,33,11,291,23,07,54,022,,13,09,189,*6E,1603353435440
NMEA,$GAGSV,2,2,07,21,09,201,,27,54,170,,30,50,063,*57,1603353435441
NMEA,$PQGSV,1,1,0,*73,1603353435442
NMEA,$PQGSV,4,1,16,21,11,316,18,01,51,130,,02,41,241,,03,60,202,,0,4*65,1603353435442
NMEA,$PQGSV,4,2,16,04,37,115,,05,17,258,,06,53,355,,07,39,167,,0,4*6D,1603353435443
NMEA,$PQGSV,4,3,16,08,32,196,,09,44,314,,10,21,188,,13,43,226,,0,4*63,1603353435444
NMEA,$PQGSV,4,4,16,16,51,347,,19,51,099,,20,06,123,,22,57,347,,0,4*65,1603353435444
NMEA,$GNGSA,A,2,31,32,,,,,,,,,,,1.7,1.4,1.0,1*31,1603353435447
NMEA,$GNGSA,A,2,67,79,83,,,,,,,,,,1.7,1.4,1.0,2*35,1603353435449
NMEA,$GNGSA,A,2,01,26,,,,,,,,,,,1.7,1.4,1.0,3*35,1603353435450
NMEA,$GNVTG,104.6,T,104.6,M,2.3,N,4.2,K,A*3A,1603353435451
NMEA,$GNRMC,075716.00,A,2255.521404,N,12017.678840,E,2.3,104.6,221020,2.8,W,A*36,1603353435452
NMEA,$GNGGA,075716.00,2255.521404,N,12017.678840,E,1,07,1.4,19.0,M,17.5,M,,*4F,1603353435455
Raw,9749336,9982881000000,,,-1287378671552262656,0.0,150.7258857600391,-8.900115091744691,20.0160820358077,7,18,0.0,207,39436352308074,35,22.7,501.8951110839844,0.9594999551773071,0,0.0,0.0,,,,,0,,3,,
Raw,9749336,9982881000000,,,-1287378671552262656,0.0,150.7258857600391,-8.900115091744691,20.0160820358077,7,15,0.0,207,39436356298551,53,19.7,-778.9364013671875,1.155500054359436,0,0.0,0.0,,,,,0,,3,,
Raw,9749337,9982881000000,,,-1287378671552262656,0.0,150.7258857600391,-8.900115091744691,20.0160820358077,7,19,0.0,207,39436353316575,31,23.1,331.537109375,0.9009999632835388,0,0.0,0.0,,,,,0,,3,,
Raw,9749337,9982881000000,,,-1287378671552262656,0.0,150.7258857600391,-8.900115091744691,20.0160820358077,7,3,0.0,207,39436365853037,439,10.2,-222.4514617919922,11.839000701904297,0,0.0,0.0,,,,,0,,3,,
Raw,9749338,9982881000000,,,-1287378671552262656,0.0,150.7258857600391,-8.900115091744691,20.0160820358077,7,4,0.0,207,39436358594159,1466,11.9,-549.2950439453125,25.218502044677734,0,0.0,0.0,,,,,0,,3,,
Raw,9749338,9982881000000,,,-1287378671552262656,0.0,150.7258857600391,-8.900115091744691,20.0160820358077,7,31,0.0,15,374254355338283,12,32.0,-525.34228515625,0.06140000373125076,0,0.0,0.0,,,,,0,,1,,
Raw,9749339,9982881000000,,,-1287378671552262656,0.0,150.7258857600391,-8.900115091744691,20.0160820358077,7,32,0.0,15,374254356876574,61,18.8,-310.6068420410156,1.0355000495910645,0,0.0,0.0,,,,,0,,1,,
Raw,9749339,9982881000000,,,-1287378671552262656,0.0,150.7258857600391,-8.900115091744691,20.0160820358077,7,21,0.0,15,374240346198610,78,17.5,-521.9249267578125,2.5205001831054688,0,0.0,0.0,,,,,0,,5,,
Raw,9749340,9982881000000,,,-1287378671552262656,0.0,150.7258857600391,-8.900115091744691,20.0160820358077,7,26,0.0,7183,374254347325543,11,33.7,358.6254577636719,0.06040000170469284,0,0.0,0.0,,,,,0,,6,,
Raw,9749340,9982881000000,,,-1287378671552262656,0.0,150.7258857600391,-8.900115091744691,20.0160820358077,7,33,0.0,7183,374254340846571,53,19.6,72.5589828491211,0.8255000114440918,0,0.0,0.0,,,,,0,,6,,
Fix,gps,22.925356,120.294681,37.263794,1.340000,16.080000,1603353437000
NMEA,$GPGSV,3,1,11,31,20,236,32,32,28,309,19,10,61,327,,12,42,087,*7E,1603353436428
NMEA,$GPGSV,3,2,11,15,14,085,,18,22,194,,20,77,163,,21,04,310,*72,1603353436428
NMEA,$GPGSV,3,3,11,23,82,118,,24,26,037,,25,47,144,*49,1603353436430
NMEA,$GLGSV,2,1,05,82,03,232,23,79,14,203,20,83,06,275,23,67,50,029,10*62,1603353436430
NMEA,$GLGSV,2,2,05,68,21,333,12*5D,1603353436431
NMEA,$GAGSV,2,1,07,26,22,241,34,33,11,291,20,07,54,022,,13,09,189,*6D,1603353436431
NMEA,$GAGSV,2,2,07,21,09,201,,27,54,170,,30,50,063,*57,1603353436434
NMEA,$PQGSV,1,1,0,*73,1603353436436
NMEA,$PQGSV,4,1,16,21,11,316,18,01,51,130,,02,41,241,,03,60,202,,0,4*65,1603353436436
NMEA,$PQGSV,4,2,16,04,37,115,,05,17,258,,06,53,355,,07,39,167,,0,4*6D,1603353436438
NMEA,$PQGSV,4,3,16,08,32,196,,09,44,314,,10,21,188,,13,43,226,,0,4*63,1603353436439
NMEA,$PQGSV,4,4,16,16,51,347,,19,51,099,,20,06,123,,22,57,347,,0,4*65,1603353436440
NMEA,$GNGSA,A,2,31,32,,,,,,,,,,,1.7,1.4,1.0,1*31,1603353436443
NMEA,$GNGSA,A,2,67,79,83,,,,,,,,,,1.7,1.4,1.0,2*35,1603353436444
NMEA,$GNGSA,A,2,01,26,,,,,,,,,,,1.7,1.4,1.0,3*35,1603353436445
NMEA,$GNVTG,107.5,T,107.5,M,2.6,N,4.8,K,A*35,1603353436445
NMEA,$GNRMC,075717.00,A,2255.521358,N,12017.680848,E,2.6,107.5,221020,2.8,W,A*33,1603353436446
NMEA,$GNGGA,075717.00,2255.521358,N,12017.680848,E,1,07,1.4,19.8,M,17.5,M,,*47,1603353436446
Fix,gps,22.925355,120.294695,37.321472,0.320000,18.224001,1603353438000
Raw,9750541,9983881000000,,,-1287378671552262656,0.0,153.37167133111507,-8.821047680539648,21.50478982583071,7,18,0.0,207,39437352306418,35,22.5,503.5623779296875,0.9594999551773071,0,0.0,0.0,,,,,0,,3,,
Raw,9750543,9983881000000,,,-1287378671552262656,0.0,153.37167133111507,-8.821047680539648,21.50478982583071,7,15,0.0,207,39437356300942,40,21.3,-778.6557006835938,1.025499939918518,0,0.0,0.0,,,,,0,,3,,
Raw,9750546,9983881000000,,,-1287378671552262656,0.0,153.37167133111507,-8.821047680539648,21.50478982583071,7,19,0.0,207,39437353315523,27,24.4,333.0326232910156,0.8510000109672546,0,0.0,0.0,,,,,0,,3,,
Raw,9750548,9983881000000,,,-1287378671552262656,0.0,153.37167133111507,-8.821047680539648,21.50478982583071,7,3,0.0,207,39437365853779,516,10.2,-222.4514617919922,13.339000701904297,0,0.0,0.0,,,,,0,,3,,
Raw,9750550,9983881000000,,,-1287378671552262656,0.0,153.37167133111507,-8.821047680539648,21.50478982583071,7,4,0.0,207,39437358595991,1633,11.9,-549.2950439453125,26.718502044677734,0,0.0,0.0,,,,,0,,3,,
Raw,9750552,9983881000000,,,-1287378671552262656,0.0,153.37167133111507,-8.821047680539648,21.50478982583071,7,31,0.0,15,374255355340055,16,29.8,-524.5094604492188,0.0642000064253807,0,0.0,0.0,,,,,0,,1,,
Raw,9750555,9983881000000,,,-1287378671552262656,0.0,153.37167133111507,-8.821047680539648,21.50478982583071,7,32,0.0,15,374255356877557,53,19.9,-308.84661865234375,0.9555000066757202,0,0.0,0.0,,,,,0,,1,,
Raw,9750558,9983881000000,,,-1287378671552262656,0.0,153.37167133111507,-8.821047680539648,21.50478982583071,7,21,0.0,15,374241346200276,61,18.4,-521.6561279296875,0.9404999613761902,0,0.0,0.0,,,,,0,,5,,
Raw,9750560,9983881000000,,,-1287378671552262656,0.0,153.37167133111507,-8.821047680539648,21.50478982583071,7,26,0.0,7183,374255347324342,12,32.5,358.5291748046875,0.06140000373125076,0,0.0,0.0,,,,,0,,6,,
Raw,9750562,9983881000000,,,-1287378671552262656,0.0,153.37167133111507,-8.821047680539648,21.50478982583071,7,33,0.0,7183,374255340846307,40,21.7,73.32966613769531,0.7055000066757202,0,0.0,0.0,,,,,0,,6,,
NMEA,$GPGSV,3,1,11,31,20,236,30,32,28,309,20,10,61,327,,12,42,087,*76,1603353437428
NMEA,$GPGSV,3,2,11,15,14,085,,18,22,194,,20,77,163,,21,04,310,*72,1603353437435
NMEA,$GPGSV,3,3,11,23,82,118,,24,26,037,,25,47,144,*49,1603353437436
NMEA,$GLGSV,2,1,05,82,03,232,23,79,14,203,21,83,06,275,24,67,50,029,10*64,1603353437437
NMEA,$GLGSV,2,2,05,68,21,333,12*5D,1603353437438
NMEA,$GAGSV,2,1,07,26,22,241,33,33,11,291,22,07,54,022,,13,09,189,*68,1603353437439
NMEA,$GAGSV,2,2,07,21,09,201,,27,54,170,,30,50,063,*57,1603353437440
NMEA,$PQGSV,1,1,0,*73,1603353437441
NMEA,$PQGSV,4,1,16,21,11,316,18,01,51,130,,02,41,241,,03,60,202,,0,4*65,1603353437443
NMEA,$PQGSV,4,2,16,04,37,115,,05,17,258,,06,53,355,,07,39,167,,0,4*6D,1603353437444
NMEA,$PQGSV,4,3,16,08,32,196,,09,44,314,,10,21,188,,13,43,226,,0,4*63,1603353437445
NMEA,$PQGSV,4,4,16,16,51,347,,19,51,099,,20,06,123,,22,57,347,,0,4*65,1603353437446
NMEA,$GNGSA,A,2,31,32,,,,,,,,,,,1.7,1.4,1.0,1*31,1603353437448
NMEA,$GNGSA,A,2,67,79,83,,,,,,,,,,1.7,1.4,1.0,2*35,1603353437449
NMEA,$GNGSA,A,2,01,26,,,,,,,,,,,1.7,1.4,1.0,3*35,1603353437449
NMEA,$GNVTG,123.4,T,123.4,M,0.6,N,1.2,K,A*38,1603353437450
NMEA,$GNRMC,075718.00,A,2255.521328,N,12017.681712,E,0.6,123.4,221020,2.8,W,A*3F,1603353437451
NMEA,$GNGGA,075718.00,2255.521328,N,12017.681712,E,1,07,1.4,19.9,M,17.5,M,,*4F,1603353437451
Raw,9751336,9984881000000,,,-1287378671552262656,0.0,172.41379828192294,-4.413774542267396,18.82773831508157,7,18,0.0,207,39438352304800,46,20.3,503.30010986328125,1.0794999599456787,0,0.0,0.0,,,,,0,,3,,
Raw,9751336,9984881000000,,,-1287378671552262656,0.0,172.41379828192294,-4.413774542267396,18.82773831508157,7,15,0.0,207,39438356303831,61,18.4,-777.420654296875,1.2355000972747803,0,0.0,0.0,,,,,0,,3,,
Raw,9751337,9984881000000,,,-1287378671552262656,0.0,172.41379828192294,-4.413774542267396,18.82773831508157,7,19,0.0,207,39438353314457,31,23.7,333.0700378417969,0.9009999632835388,0,0.0,0.0,,,,,0,,3,,
Raw,9751338,9984881000000,,,-1287378671552262656,0.0,172.41379828192294,-4.413774542267396,18.82773831508157,7,3,0.0,207,39438365854521,603,10.2,-222.4514617919922,14.839000701904297,0,0.0,0.0,,,,,0,,3,,
Raw,9751338,9984881000000,,,-1287378671552262656,0.0,172.41379828192294,-4.413774542267396,18.82773831508157,7,4,0.0,207,39438358597823,1810,11.9,-549.2950439453125,28.218502044677734,0,0.0,0.0,,,,,0,,3,,
Raw,9751339,9984881000000,,,-1287378671552262656,0.0,172.41379828192294,-4.413774542267396,18.82773831508157,7,31,0.0,15,374256355341786,13,31.0,-523.9425659179688,0.06270000338554382,0,0.0,0.0,,,,,0,,1,,
Raw,9751339,9984881000000,,,-1287378671552262656,0.0,172.41379828192294,-4.413774542267396,18.82773831508157,7,32,0.0,15,374256356878637,46,20.5,-308.78955078125,0.8855000138282776,0,0.0,0.0,,,,,0,,1,,
Raw,9751340,9984881000000,,,-1287378671552262656,0.0,172.41379828192294,-4.413774542267396,18.82773831508157,7,21,0.0,15,374242346202028,61,18.5,-520.9647216796875,0.9404999613761902,0,0.0,0.0,,,,,0,,5,,
Raw,9751340,9984881000000,,,-1287378671552262656,0.0,172.41379828192294,-4.413774542267396,18.82773831508157,7,26,0.0,7183,374256347323139,11,33.8,358.5220031738281,0.06040000170469284,0,0.0,0.0,,,,,0,,6,,
Raw,9751341,9984881000000,,,-1287378671552262656,0.0,172.41379828192294,-4.413774542267396,18.82773831508157,7,33,0.0,7183,374256340846090,46,20.8,73.96715545654297,0.765500009059906,0,0.0,0.0,,,,,0,,6,,
Fix,gps,22.925360,120.294706,36.051636,0.000000,19.296001,1603353439000
NMEA,$GPGSV,3,1,11,31,20,236,31,32,28,309,21,10,61,327,,12,42,087,*76,1603353438427
NMEA,$GPGSV,3,2,11,15,14,085,,18,22,194,,20,77,163,,21,04,310,*72,1603353438428
NMEA,$GPGSV,3,3,11,23,82,118,,24,26,037,,25,47,144,*49,1603353438428
NMEA,$GLGSV,2,1,05,82,03,232,20,79,14,203,18,83,06,275,24,67,50,029,10*6D,1603353438429
NMEA,$GLGSV,2,2,05,68,21,333,12*5D,1603353438430
NMEA,$GAGSV,2,1,07,26,22,241,34,33,11,291,21,07,54,022,,13,09,189,*6C,1603353438430
NMEA,$GAGSV,2,2,07,21,09,201,,27,54,170,,30,50,063,*57,1603353438431
NMEA,$PQGSV,1,1,0,*73,1603353438432
NMEA,$PQGSV,4,1,16,21,11,316,19,01,51,130,,02,41,241,,03,60,202,,0,4*64,1603353438433
NMEA,$PQGSV,4,2,16,04,37,115,,05,17,258,,06,53,355,,07,39,167,,0,4*6D,1603353438437
NMEA,$PQGSV,4,3,16,08,32,196,,09,44,314,,10,21,188,,13,43,226,,0,4*63,1603353438437
NMEA,$PQGSV,4,4,16,16,51,347,,19,51,099,,20,06,123,,22,57,347,,0,4*65,1603353438439
NMEA,$GNGSA,A,2,31,32,,,,,,,,,,,1.7,1.4,1.0,1*31,1603353438441
NMEA,$GNGSA,A,2,67,79,83,,,,,,,,,,1.7,1.4,1.0,2*35,1603353438443
NMEA,$GNGSA,A,2,01,26,,,,,,,,,,,1.7,1.4,1.0,3*35,1603353438444
NMEA,$GNVTG,,T,,M,0.0,N,0.0,K,A*3D,1603353438445
NMEA,$GNRMC,075719.00,A,2255.521610,N,12017.682354,E,0.0,,221020,2.8,W,A*19,1603353438446
NMEA,$GNGGA,075719.00,2255.521610,N,12017.682354,E,1,07,1.4,18.6,M,17.5,M,,*4B,1603353438447
Fix,gps,22.925363,120.294716,35.252136,0.000000,19.296001,1603353440000
Raw,9752535,9985881000000,,,-1287378671552262656,0.0,173.19338803645223,-4.166289354076463,20.223780222105905,7,18,0.0,207,39439352303179,40,21.1,504.17120361328125,1.0195000171661377,0,0.0,0.0,,,,,0,,3,,
Raw,9752538,9985881000000,,,-1287378671552262656,0.0,173.19338803645223,-4.166289354076463,20.223780222105905,7,15,0.0,207,39439356306448,46,20.9,-777.4954833984375,1.0855000019073486,0,0.0,0.0,,,,,0,,3,,
Raw,9752540,9985881000000,,,-1287378671552262656,0.0,173.19338803645223,-4.166289354076463,20.223780222105905,7,19,0.0,207,39439353313266,31,23.7,334.0701599121094,0.9009999632835388,0,0.0,0.0,,,,,0,,3,,
Raw,9752542,9985881000000,,,-1287378671552262656,0.0,173.19338803645223,-4.166289354076463,20.223780222105905,7,3,0.0,207,39439365855092,153,13.4,-219.13560485839844,4.699000358581543,0,0.0,0.0,,,,,0,,3,,
Raw,9752546,9985881000000,,,-1287378671552262656,0.0,173.19338803645223,-4.166289354076463,20.223780222105905,7,4,0.0,207,39439358599655,1997,11.9,-549.2950439453125,29.718502044677734,0,0.0,0.0,,,,,0,,3,,
Raw,9752548,9985881000000,,,-1287378671552262656,0.0,173.19338803645223,-4.166289354076463,20.223780222105905,7,31,0.0,15,374257355343557,14,30.5,-523.4859008789062,0.0633000060915947,0,0.0,0.0,,,,,0,,1,,
Raw,9752551,9985881000000,,,-1287378671552262656,0.0,173.19338803645223,-4.166289354076463,20.223780222105905,7,32,0.0,15,374257356879574,61,18.1,-308.54217529296875,1.1154999732971191,0,0.0,0.0,,,,,0,,1,,
Raw,9752554,9985881000000,,,-1287378671552262656,0.0,173.19338803645223,-4.166289354076463,20.223780222105905,7,21,0.0,15,374243346203787,40,21.8,-519.9181518554688,0.6904999613761902,0,0.0,0.0,,,,,0,,5,,
Raw,9752556,9985881000000,,,-1287378671552262656,0.0,173.19338803645223,-4.166289354076463,20.223780222105905,7,26,0.0,7183,374257347321950,11,33.8,358.7927551269531,0.06040000170469284,0,0.0,0.0,,,,,0,,6,,
Raw,9752556,9985881000000,,,-1287378671552262656,0.0,173.19338803645223,-4.166289354076463,20.223780222105905,7,33,0.0,7183,374257340845854,61,18.5,73.95763397216797,0.8855000138282776,0,0.0,0.0,,,,,0,,6,,
NMEA,$GPGSV,3,1,11,31,20,236,31,32,28,309,18,10,61,327,,12,42,087,*7C,1603353439428
NMEA,$GPGSV,3,2,11,15,14,085,,18,22,194,,20,77,163,,21,04,310,*72,1603353439432
NMEA,$GPGSV,3,3,11,23,82,118,,24,26,037,,25,47,144,*49,1603353439433
NMEA,$GLGSV,2,1,05,82,03,232,21,79,14,203,21,83,06,275,24,67,50,029,13*65,1603353439434
NMEA,$GLGSV,2,2,05,68,21,333,12*5D,1603353439436
NMEA,$GAGSV,2,1,07,26,22,241,34,33,11,291,19,07,54,022,,13,09,189,*67,1603353439438
NMEA,$GAGSV,2,2,07,21,09,201,,27,54,170,,30,50,063,*57,1603353439439
NMEA,$PQGSV,1,1,0,*73,1603353439440
NMEA,$PQGSV,4,1,16,21,11,316,22,01,51,130,,02,41,241,,03,60,202,,0,4*6C,1603353439440
NMEA,$PQGSV,4,2,16,04,37,115,,05,17,258,,06,53,355,,07,39,167,,0,4*6D,1603353439442
NMEA,$PQGSV,4,3,16,08,32,196,,09,44,314,,10,21,188,,13,43,226,,0,4*63,1603353439443
NMEA,$PQGSV,4,4,16,16,51,347,,19,51,099,,20,06,123,,22,57,347,,0,4*65,1603353439443
NMEA,$GNGSA,A,2,31,32,,,,,,,,,,,1.7,1.4,1.0,1*31,1603353439447
NMEA,$GNGSA,A,2,67,79,83,,,,,,,,,,1.7,1.4,1.0,2*35,1603353439448
NMEA,$GNGSA,A,2,01,26,,,,,,,,,,,1.7,1.4,1.0,3*35,1603353439448
NMEA,$GNVTG,,T,,M,0.0,N,0.0,K,A*3D,1603353439449
NMEA,$GNRMC,075720.00,A,2255.521753,N,12017.682958,E,0.0,,221020,2.8,W,A*13,1603353439451
NMEA,$GNGGA,075720.00,2255.521753,N,12017.682958,E,1,07,1.4,17.8,M,17.5,M,,*40,1603353439452
Raw,9753336,9986881000000,,,-1287378671552262656,0.0,174.9974035192281,-3.1911694165853284,21.25189594668308,7,18,0.0,207,39440352301344,53,19.5,503.75909423828125,1.1495000123977661,0,0.0,0.0,,,,,0,,3,,
Raw,9753337,9986881000000,,,-1287378671552262656,0.0,174.9974035192281,-3.1911694165853284,21.25189594668308,7,15,0.0,207,39440356308997,35,22.9,-777.2803344726562,0.965499997138977,0,0.0,0.0,,,,,0,,3,,
