# 
# Header Description:
# 
# Version: v2.0.0.1 Platform: 8.0.0 Manufacturer: Sony Model: G8142
# 
# Raw,ElapsedRealtimeMillis,TimeNanos,LeapSecond,TimeUncertaintyNanos,FullBiasNanos,BiasNanos,BiasUncertaintyNanos,DriftNanosPerSecond,DriftUncertaintyNanosPerSecond,HardwareClockDiscontinuityCount,Svid,TimeOffsetNanos,State,ReceivedSvTimeNanos,ReceivedSvTimeUncertaintyNanos,Cn0DbHz,PseudorangeRateMetersPerSecond,PseudorangeRateUncertaintyMetersPerSecond,AccumulatedDeltaRangeState,AccumulatedDeltaRangeMeters,AccumulatedDeltaRangeUncertaintyMeters,CarrierFrequencyHz,CarrierCycles,CarrierPhase,CarrierPhaseUncertainty,MultipathIndicator,SnrInDb,ConstellationType,AgcDb,CarrierFrequencyHz
# 
# Fix,Provider,Latitude,Longitude,Altitude,Speed,Accuracy,(UTC)TimeInMs
# 
# Nav,Svid,Type,Status,MessageId,Sub-messageId,Data(Bytes)
# 
Fix,gps,22.925401,120.294832,33.962158,0.000000,12.864000,1603353686000
Raw,9998345,10231881000000,,,-1287378671552261120,0.0,122.14983871672302,11.152090096633948,24.25908199243604,7,18,0.0,207,39685351889808,160,12.7,500.7991943359375,4.078000068664551,0,0.0,0.0,,,,,0,,3,,
Raw,9998346,10231881000000,,,-1287378671552261120,0.0,122.14983871672302,11.152090096633948,24.25908199243604,7,15,0.0,207,39685356937540,16,29.3,-764.3546752929688,0.26570001244544983,0,0.0,0.0,,,,,0,,3,,
Raw,9998346,10231881000000,,,-1287378671552261120,0.0,122.14983871672302,11.152090096633948,24.25908199243604,7,19,0.0,207,39685353029954,53,19.1,353.5772705078125,1.1510000228881836,0,0.0,0.0,,,,,0,,3,,
Raw,9998346,10231881000000,,,-1287378671552261120,0.0,122.14983871672302,11.152090096633948,24.25908199243604,7,31,0.0,15,374503355764491,11,33.4,-506.2038269042969,0.06040000170469284,0,0.0,0.0,,,,,0,,1,,
Raw,9998347,10231881000000,,,-1287378671552261120,0.0,122.14983871672302,11.152090096633948,24.25908199243604,7,32,0.0,15,374503357131688,21,26.6,-309.1479187011719,0.1517000049352646,0,0.0,0.0,,,,,0,,1,,
Raw,9998347,10231881000000,,,-1287378671552261120,0.0,122.14983871672302,11.152090096633948,24.25908199243604,7,21,0.0,15,374489346630483,35,22.3,-522.81787109375,0.6904999613761902,0,0.0,0.0,,,,,0,,5,,
Raw,9998347,10231881000000,,,-1287378671552261120,0.0,122.14983871672302,11.152090096633948,24.25908199243604,7,26,0.0,7183,374503347022304,13,31.4,366.6578369140625,0.33500000834465027,0,0.0,0.0,,,,,0,,6,,
Raw,9998348,10231881000000,,,-1287378671552261120,0.0,122.14983871672302,11.152090096633948,24.25908199243604,7,33,0.0,7183,374503340775288,16,29.1,93.46273803710938,0.40549999475479126,0,0.0,0.0,,,,,0,,6,,
NMEA,$GPGSV,3,1,11,31,21,237,33,32,28,310,27,10,63,326,,12,42,085,*7B,1603353685419
NMEA,$GPGSV,3,2,11,15,14,087,,18,21,194,,20,75,163,,21,04,309,*79,1603353685419
NMEA,$GPGSV,3,3,11,23,80,127,,24,25,037,,25,48,143,*4C,1603353685419
NMEA,$GLGSV,1,1,03,82,02,230,13,79,16,205,29,83,05,274,19*5F,1603353685420
NMEA,$GAGSV,2,1,07,26,21,239,31,33,11,288,29,07,54,025,,13,08,189,*63,1603353685420
NMEA,$GAGSV,2,2,07,21,11,201,,27,56,168,,30,49,060,*5E,1603353685420
NMEA,$PQGSV,1,1,0,*73,1603353685420
NMEA,$PQGSV,4,1,16,21,12,317,22,01,51,130,,02,41,241,,03,60,202,,0,4*6E,1603353685420
NMEA,$PQGSV,4,2,16,04,37,115,,05,17,258,,06,53,357,,07,40,167,,0,4*61,1603353685421
NMEA,$PQGSV,4,3,16,08,31,196,,09,44,314,,10,21,189,,13,42,226,,0,4*60,1603353685422
NMEA,$PQGSV,4,4,16,16,51,347,,19,50,102,,20,04,125,,22,59,348,,0,4*62,1603353685423
NMEA,$GNGSA,A,2,31,32,,,,,,,,,,,2.9,2.7,1.0,1*3C,1603353685423
NMEA,$GNGSA,A,2,79,83,,,,,,,,,,,2.9,2.7,1.0,2*39,1603353685424
NMEA,$GNGSA,A,2,01,26,,,,,,,,,,,2.9,2.7,1.0,3*38,1603353685431
NMEA,$GNVTG,,T,,M,0.0,N,0.0,K,A*3D,1603353685434
NMEA,$GNRMC,080126.00,A,2255.524032,N,12017.689897,E,0.0,,221020,2.8,W,A*15,1603353685435
NMEA,$GNGGA,080126.00,2255.524032,N,12017.689897,E,1,06,2.7,16.5,M,17.5,M,,*4B,1603353685436
Raw,9999314,10232881000000,,,-1287378671552261120,0.0,102.50729974359274,3.534773985860434,15.367020688857568,7,18,0.0,207,39686351888391,70,17.0,498.75726318359375,1.3079999685287476,0,0.0,0.0,,,,,0,,3,,
Raw,9999315,10232881000000,,,-1287378671552261120,0.0,102.50729974359274,3.534773985860434,15.367020688857568,7,15,0.0,207,39686356940074,17,28.9,-764.5116577148438,0.27230000495910645,0,0.0,0.0,,,,,0,,3,,
Raw,9999315,10232881000000,,,-1287378671552261120,0.0,102.50729974359274,3.534773985860434,15.367020688857568,7,19,0.0,207,39686353028641,40,21.1,353.1847229003906,1.0210000276565552,0,0.0,0.0,,,,,0,,3,,
Raw,9999316,10232881000000,,,-1287378671552261120,0.0,102.50729974359274,3.534773985860434,15.367020688857568,7,31,0.0,15,374504355766185,11,33.3,-506.3664855957031,0.06040000170469284,0,0.0,0.0,,,,,0,,1,,
Raw,9999317,10232881000000,,,-1287378671552261120,0.0,102.50729974359274,3.534773985860434,15.367020688857568,7,32,0.0,15,374504357132726,19,27.1,-309.3710632324219,0.08180000633001328,0,0.0,0.0,,,,,0,,1,,
Raw,9999317,10232881000000,,,-1287378671552261120,0.0,102.50729974359274,3.534773985860434,15.367020688857568,7,21,0.0,15,374490346632278,35,22.9,-523.2595825195312,0.640500009059906,0,0.0,0.0,,,,,0,,5,,
Raw,9999318,10232881000000,,,-1287378671552261120,0.0,102.50729974359274,3.534773985860434,15.367020688857568,7,26,0.0,7183,374504347021092,13,31.5,367.233642578125,0.053700003772974014,0,0.0,0.0,,,,,0,,6,,
Raw,9999318,10232881000000,,,-1287378671552261120,0.0,102.50729974359274,3.534773985860434,15.367020688857568,7,33,0.0,7183,374504340774984,14,30.0,94.10981750488281,0.06480000168085098,0,0.0,0.0,,,,,0,,6,,
Fix,gps,22.925400,120.294838,34.748047,0.300000,12.864000,1603353687000
NMEA,$GPGSV,3,1,11,31,21,237,33,32,28,310,27,10,63,326,,12,42,085,*7B,1603353686420
NMEA,$GPGSV,3,2,11,15,14,087,,18,21,194,,20,75,163,,21,04,309,*79,1603353686420
NMEA,$GPGSV,3,3,11,23,80,127,,24,25,037,,25,48,143,*4C,1603353686421
NMEA,$GLGSV,1,1,03,82,02,230,17,79,16,205,29,83,05,274,21*50,1603353686421
NMEA,$GAGSV,2,1,07,26,21,239,32,33,11,288,30,07,54,025,,13,08,189,*68,1603353686421
NMEA,$GAGSV,2,2,07,21,11,201,,27,56,168,,30,49,060,*5E,1603353686422
NMEA,$PQGSV,1,1,0,*73,1603353686422
NMEA,$PQGSV,4,1,16,21,12,317,23,01,51,130,,02,41,241,,03,60,202,,0,4*6F,1603353686422
NMEA,$PQGSV,4,2,16,04,37,115,,05,17,258,,06,53,357,,07,40,167,,0,4*61,1603353686422
NMEA,$PQGSV,4,3,16,08,31,196,,09,44,314,,10,21,189,,13,42,226,,0,4*60,1603353686422
NMEA,$PQGSV,4,4,16,16,51,347,,19,50,102,,20,04,125,,22,59,348,,0,4*62,1603353686423
NMEA,$GNGSA,A,2,31,32,,,,,,,,,,,2.9,2.7,1.0,1*3C,1603353686423
NMEA,$GNGSA,A,2,79,83,,,,,,,,,,,2.9,2.7,1.0,2*39,1603353686424
NMEA,$GNGSA,A,2,01,26,,,,,,,,,,,2.9,2.7,1.0,3*38,1603353686424
NMEA,$GNVTG,46.3,T,46.3,M,0.6,N,1.1,K,A*3B,1603353686424
NMEA,$GNRMC,080127.00,A,2255.523992,N,12017.690283,E,0.6,46.3,221020,2.8,W,A*0E,1603353686424
NMEA,$GNGGA,080127.00,2255.523992,N,12017.690283,E,1,06,2.7,17.3,M,17.5,M,,*4E,1603353686425
Raw,10000312,10233881000000,,,-1287378671552261120,0.0,108.71675476664677,3.724579194973715,16.491503523857695,7,18,0.0,207,39687351886313,70,17.0,497.59576416015625,1.3079999685287476,0,0.0,0.0,,,,,0,,3,,
Raw,10000313,10233881000000,,,-1287378671552261120,0.0,108.71675476664677,3.724579194973715,16.491503523857695,7,15,0.0,207,39687356942647,16,29.6,-765.5206298828125,0.26570001244544983,0,0.0,0.0,,,,,0,,3,,
Raw,10000314,10233881000000,,,-1287378671552261120,0.0,108.71675476664677,3.724579194973715,16.491503523857695,7,19,0.0,207,39687353027470,53,19.5,352.1471862792969,1.1510000228881836,0,0.0,0.0,,,,,0,,3,,
Raw,10000314,10233881000000,,,-1287378671552261120,0.0,108.71675476664677,3.724579194973715,16.491503523857695,7,31,0.0,15,374505355767884,10,34.2,-507.37249755859375,0.05960000306367874,0,0.0,0.0,,,,,0,,1,,
Raw,10000315,10233881000000,,,-1287378671552261120,0.0,108.71675476664677,3.724579194973715,16.491503523857695,7,32,0.0,15,374505357133766,19,27.3,-310.33477783203125,0.08180000633001328,0,0.0,0.0,,,,,0,,1,,
Raw,10000315,10233881000000,,,-1287378671552261120,0.0,108.71675476664677,3.724579194973715,16.491503523857695,7,21,0.0,15,374491346634034,35,22.3,-524.066162109375,0.6904999613761902,0,0.0,0.0,,,,,0,,5,,
Raw,10000316,10233881000000,,,-1287378671552261120,0.0,108.71675476664677,3.724579194973715,16.491503523857695,7,26,0.0,7183,374505347019882,13,31.3,365.59222412109375,0.33500000834465027,0,0.0,0.0,,,,,0,,6,,
Raw,10000317,10233881000000,,,-1287378671552261120,0.0,108.71675476664677,3.724579194973715,16.491503523857695,7,33,0.0,7183,374505340774684,13,31.3,92.28292083740234,0.34549999237060547,0,0.0,0.0,,,,,0,,6,,
Fix,gps,22.925396,120.294843,34.899780,0.190000,12.864000,1603353688000
NMEA,$GPGSV,3,1,11,31,21,237,34,32,28,310,27,10,63,326,,12,42,085,*7C,1603353687419
NMEA,$GPGSV,3,2,11,15,14,087,,18,21,194,,20,75,163,,21,04,309,*79,1603353687419
NMEA,$GPGSV,3,3,11,23,80,127,,24,25,037,,25,48,143,*4C,1603353687419
NMEA,$GLGSV,1,1,03,82,02,230,17,79,16,205,30,83,05,274,20*59,1603353687419
NMEA,$GAGSV,2,1,07,26,21,239,31,33,11,288,31,07,54,025,,13,08,189,*6A,1603353687420
NMEA,$GAGSV,2,2,07,21,11,201,,27,56,168,,30,49,060,*5E,1603353687420
NMEA,$PQGSV,1,1,0,*73,1603353687420
NMEA,$PQGSV,4,1,16,21,12,317,22,01,51,130,,02,41,241,,03,60,202,,0,4*6E,1603353687420
NMEA,$PQGSV,4,2,16,04,37,115,,05,17,258,,06,53,357,,07,40,167,,0,4*61,1603353687420
NMEA,$PQGSV,4,3,16,08,31,196,,09,44,314,,10,21,189,,13,42,226,,0,4*60,1603353687421
NMEA,$PQGSV,4,4,16,16,51,347,,19,50,102,,20,04,125,,22,59,348,,0,4*62,1603353687421
NMEA,$GNGSA,A,2,31,32,,,,,,,,,,,2.9,2.7,1.0,1*3C,1603353687424
NMEA,$GNGSA,A,2,79,83,,,,,,,,,,,2.9,2.7,1.0,2*39,1603353687424
NMEA,$GNGSA,A,2,01,26,,,,,,,,,,,2.9,2.7,1.0,3*38,1603353687424
NMEA,$GNVTG,123.2,T,123.2,M,0.4,N,0.7,K,A*3E,1603353687426
NMEA,$GNRMC,080128.00,A,2255.523786,N,12017.690596,E,0.4,123.2,221020,2.8,W,A*38,1603353687426
NMEA,$GNGGA,080128.00,2255.523786,N,12017.690596,E,1,06,2.7,17.4,M,17.5,M,,*4E,1603353687426
Raw,10001606,10234881000000,,,-1287378671552261120,0.0,108.3737806766294,-0.5028945838124929,15.078534903361478,7,18,0.0,207,39688351884654,80,17.0,497.59576416015625,2.808000087738037,0,0.0,0.0,,,,,0,,3,,
Raw,10001607,10234881000000,,,-1287378671552261120,0.0,108.3737806766294,-0.5028945838124929,15.078534903361478,7,15,0.0,207,39688356945179,17,28.9,-766.7221069335938,0.27230000495910645,0,0.0,0.0,,,,,0,,3,,
Raw,10001607,10234881000000,,,-1287378671552261120,0.0,108.3737806766294,-0.5028945838124929,15.078534903361478,7,19,0.0,207,39688353026289,40,21.0,350.380615234375,1.0210000276565552,0,0.0,0.0,,,,,0,,3,,
Raw,10001608,10234881000000,,,-1287378671552261120,0.0,108.3737806766294,-0.5028945838124929,15.078534903361478,7,31,0.0,15,374506355769570,10,34.4,-508.54486083984375,0.05960000306367874,0,0.0,0.0,,,,,0,,1,,
Raw,10001609,10234881000000,,,-1287378671552261120,0.0,108.3737806766294,-0.5028945838124929,15.078534903361478,7,32,0.0,15,374506357134826,17,28.1,-311.70172119140625,0.07380000501871109,0,0.0,0.0,,,,,0,,1,,
Raw,10001610,10234881000000,,,-1287378671552261120,0.0,108.3737806766294,-0.5028945838124929,15.078534903361478,7,21,0.0,15,374492346635779,35,22.9,-525.5160522460938,0.640500009059906,0,0.0,0.0,,,,,0,,5,,
Raw,10001611,10234881000000,,,-1287378671552261120,0.0,108.3737806766294,-0.5028945838124929,15.078534903361478,7,26,0.0,7183,374506347018654,13,31.5,364.10791015625,0.33500000834465027,0,0.0,0.0,,,,,0,,6,,
Raw,10001611,10234881000000,,,-1287378671552261120,0.0,108.3737806766294,-0.5028945838124929,15.078534903361478,7,33,0.0,7183,374506340774379,13,31.7,91.14115905761719,0.34549999237060547,0,0.0,0.0,,,,,0,,6,,
Fix,gps,22.925393,120.294845,35.578430,0.190000,13.936001,1603353689000
NMEA,$GPGSV,3,1,11,31,21,237,34,32,28,310,28,10,63,326,,12,42,085,*73,1603353688418
NMEA,$GPGSV,3,2,11,15,14,087,,18,21,194,,20,75,163,,21,04,309,*79,1603353688419
NMEA,$GPGSV,3,3,11,23,80,127,,24,25,037,,25,48,143,*4C,1603353688419
NMEA,$GLGSV,1,1,03,82,02,230,17,79,16,205,29,83,05,274,21*50,1603353688419
NMEA,$GAGSV,2,1,07,26,21,239,32,33,11,288,32,07,54,025,,13,08,189,*6A,1603353688419
NMEA,$GAGSV,2,2,07,21,11,201,,27,56,168,,30,49,060,*5E,1603353688419
NMEA,$PQGSV,1,1,0,*73,1603353688420
NMEA,$PQGSV,4,1,16,21,12,317,23,01,51,130,,02,41,241,,03,60,202,,0,4*6F,1603353688420
NMEA,$PQGSV,4,2,16,04,37,115,,05,17,258,,06,53,357,,07,40,167,,0,4*61,1603353688421
NMEA,$PQGSV,4,3,16,08,31,196,,09,44,314,,10,21,189,,13,42,226,,0,4*60,1603353688421
NMEA,$PQGSV,4,4,16,16,51,347,,19,50,102,,20,04,125,,22,59,348,,0,4*62,1603353688421
NMEA,$GNGSA,A,2,31,32,,,,,,,,,,,2.9,2.7,1.0,1*3C,1603353688422
NMEA,$GNGSA,A,2,79,83,,,,,,,,,,,2.9,2.7,1.0,2*39,1603353688422
NMEA,$GNGSA,A,2,01,26,,,,,,,,,,,2.9,2.7,1.0,3*38,1603353688422
NMEA,$GNVTG,146.3,T,146.3,M,0.4,N,0.7,K,A*3E,1603353688423
NMEA,$GNRMC,080129.00,A,2255.523556,N,12017.690696,E,0.4,146.3,221020,2.8,W,A*37,1603353688424
NMEA,$GNGGA,080129.00,2255.523556,N,12017.690696,E,1,06,2.7,18.1,M,17.5,M,,*49,1603353688424
Raw,10002312,10235881000000,,,-1287378671552261120,0.0,115.14974175952375,-4.240564415376339,17.520516322894384,7,18,0.0,207,39689351882994,99,17.0,497.59576416015625,4.308000087738037,0,0.0,0.0,,,,,0,,3,,
Raw,10002313,10235881000000,,,-1287378671552261120,0.0,115.14974175952375,-4.240564415376339,17.520516322894384,7,15,0.0,207,39689356947763,14,30.0,-767.940673828125,0.2648000121116638,0,0.0,0.0,,,,,0,,3,,
Raw,10002313,10235881000000,,,-1287378671552261120,0.0,115.14974175952375,-4.240564415376339,17.520516322894384,7,19,0.0,207,39689353025215,53,19.1,350.0254211425781,1.1510000228881836,0,0.0,0.0,,,,,0,,3,,
Raw,10002314,10235881000000,,,-1287378671552261120,0.0,115.14974175952375,-4.240564415376339,17.520516322894384,7,31,0.0,15,374507355771253,10,34.4,-509.76318359375,0.05960000306367874,0,0.0,0.0,,,,,0,,1,,
Raw,10002314,10235881000000,,,-1287378671552261120,0.0,115.14974175952375,-4.240564415376339,17.520516322894384,7,32,0.0,15,374507357135883,24,25.8,-312.99462890625,0.4223000109195709,0,0.0,0.0,,,,,0,,1,,
Raw,10002315,10235881000000,,,-1287378671552261120,0.0,115.14974175952375,-4.240564415376339,17.520516322894384,7,21,0.0,15,374493346637521,40,21.4,-526.5338745117188,0.750499963760376,0,0.0,0.0,,,,,0,,5,,
Raw,10002315,10235881000000,,,-1287378671552261120,0.0,115.14974175952375,-4.240564415376339,17.520516322894384,7,26,0.0,7183,374507347017445,14,30.4,363.080322265625,0.36500000953674316,0,0.0,0.0,,,,,0,,6,,
Raw,10002316,10235881000000,,,-1287378671552261120,0.0,115.14974175952375,-4.240564415376339,17.520516322894384,7,33,0.0,7183,374507340774077,17,28.1,90.06599426269531,0.4255000054836273,0,0.0,0.0,,,,,0,,6,,
Fix,gps,22.925390,120.294850,35.884033,0.000000,12.864000,1603353690000
NMEA,$GPGSV,3,1,11,31,21,237,34,32,28,310,26,10,63,326,,12,42,085,*7D,1603353689419
NMEA,$GPGSV,3,2,11,15,14,087,,18,21,194,,20,75,163,,21,04,309,*79,1603353689420
NMEA,$GPGSV,3,3,11,23,80,127,,24,25,037,,25,48,143,*4C,1603353689421
NMEA,$GLGSV,1,1,03,82,02,230,17,79,16,205,30,83,05,274,19*53,1603353689421
NMEA,$GAGSV,2,1,07,26,21,239,30,33,11,288,28,07,54,025,,13,08,189,*63,1603353689421
NMEA,$GAGSV,2,2,07,21,11,201,,27,56,168,,30,49,060,*5E,1603353689421
NMEA,$PQGSV,1,1,0,*73,1603353689422
NMEA,$PQGSV,4,1,16,21,12,317,21,01,51,130,,02,41,241,,03,60,202,,0,4*6D,1603353689422
NMEA,$PQGSV,4,2,16,04,37,115,,05,17,258,,06,53,357,,07,40,167,,0,4*61,1603353689423
NMEA,$PQGSV,4,3,16,08,31,196,,09,44,314,,10,21,189,,13,42,226,,0,4*60,1603353689423
NMEA,$PQGSV,4,4,16,16,51,347,,19,50,102,,20,04,125,,22,59,348,,0,4*62,1603353689423
NMEA,$GNGSA,A,2,31,32,,,,,,,,,,,2.9,2.7,1.0,1*3C,1603353689425
NMEA,$GNGSA,A,2,79,83,,,,,,,,,,,2.9,2.7,1.0,2*39,1603353689425
NMEA,$GNGSA,A,2,01,26,,,,,,,,,,,2.9,2.7,1.0,3*38,1603353689426
NMEA,$GNVTG,,T,,M,0.0,N,0.0,K,A*3D,1603353689426
NMEA,$GNRMC,080130.00,A,2255.523380,N,12017.690996,E,0.0,,221020,2.8,W,A*17,1603353689426
NMEA,$GNGGA,080130.00,2255.523380,N,12017.690996,E,1,06,2.7,18.4,M,17.5,M,,*46,1603353689426
Raw,10003332,10236881000000,,,-1287378671552261120,0.0,105.36111949477345,-8.78655166834474,15.765972286920448,7,18,0.0,207,39690351881334,129,17.0,497.59576416015625,5.808000087738037,0,0.0,0.0,,,,,0,,3,,
Raw,10003333,10236881000000,,,-1287378671552261120,0.0,105.36111949477345,-8.78655166834474,15.765972286920448,7,15,0.0,207,39690356950330,14,30.9,-768.2522583007812,0.2648000121116638,0,0.0,0.0,,,,,0,,3,,
Raw,10003333,10236881000000,,,-1287378671552261120,0.0,105.36111949477345,-8.78655166834474,15.765972286920448,7,19,0.0,207,39690353023873,70,17.7,349.0720520019531,1.3109999895095825,0,0.0,0.0,,,,,0,,3,,
Raw,10003334,10236881000000,,,-1287378671552261120,0.0,105.36111949477345,-8.78655166834474,15.765972286920448,7,31,0.0,15,374508355772962,7,37.0,-510.0703430175781,0.058100003749132156,0,0.0,0.0,,,,,0,,1,,
Raw,10003334,10236881000000,,,-1287378671552261120,0.0,105.36111949477345,-8.78655166834474,15.765972286920448,7,32,0.0,15,374508357136967,21,26.7,-313.3677673339844,0.1517000049352646,0,0.0,0.0,,,,,0,,1,,
Raw,10003335,10236881000000,,,-1287378671552261120,0.0,105.36111949477345,-8.78655166834474,15.765972286920448,7,21,0.0,15,374494346639294,35,22.4,-527.2059936523438,0.6904999613761902,0,0.0,0.0,,,,,0,,5,,
Raw,10003335,10236881000000,,,-1287378671552261120,0.0,105.36111949477345,-8.78655166834474,15.765972286920448,7,26,0.0,7183,374508347016228,11,33.3,364.323486328125,0.05140000209212303,0,0.0,0.0,,,,,0,,6,,
Raw,10003336,10236881000000,,,-1287378671552261120,0.0,105.36111949477345,-8.78655166834474,15.765972286920448,7,33,0.0,7183,374508340773777,16,29.5,91.39903259277344,0.065700002014637,0,0.0,0.0,,,,,0,,6,,
Fix,gps,22.925388,120.294859,36.712280,0.290000,13.936001,1603353691000
NMEA,$GPGSV,3,1,11,31,21,237,37,32,28,310,27,10,63,326,,12,42,085,*7F,1603353690420
NMEA,$GPGSV,3,2,11,15,14,087,,18,21,194,,20,75,163,,21,04,309,*79,1603353690420
NMEA,$GPGSV,3,3,11,23,80,127,,24,25,037,,25,48,143,*4C,1603353690420
NMEA,$GLGSV,1,1,03,82,02,230,17,79,16,205,31,83,05,274,18*53,1603353690421
NMEA,$GAGSV,2,1,07,26,21,239,33,33,11,288,30,07,54,025,,13,08,189,*69,1603353690424
NMEA,$GAGSV,2,2,07,21,11,201,,27,56,168,,30,49,060,*5E,1603353690425
NMEA,$PQGSV,1,1,0,*73,1603353690425
NMEA,$PQGSV,4,1,16,21,12,317,22,01,51,130,,02,41,241,,03,60,202,,0,4*6E,1603353690426
NMEA,$PQGSV,4,2,16,04,37,115,,05,17,258,,06,53,357,,07,40,167,,0,4*61,1603353690427
NMEA,$PQGSV,4,3,16,08,31,196,,09,44,314,,10,21,189,,13,42,226,,0,4*60,1603353690428
NMEA,$PQGSV,4,4,16,16,51,347,,19,50,102,,20,04,125,,22,59,348,,0,4*62,1603353690429
NMEA,$GNGSA,A,2,31,32,,,,,,,,,,,2.9,2.7,1.0,1*3C,1603353690430
NMEA,$GNGSA,A,2,79,83,,,,,,,,,,,2.9,2.7,1.0,2*39,1603353690431
NMEA,$GNGSA,A,2,01,26,,,,,,,,,,,2.9,2.7,1.0,3*38,1603353690431
NMEA,$GNVTG,152.3,T,152.3,M,0.6,N,1.0,K,A*3A,1603353690431
NMEA,$GNRMC,080131.00,A,2255.523305,N,12017.691528,E,0.6,152.3,221020,2.8,W,A*3E,1603353690431
NMEA,$GNGGA,080131.00,2255.523305,N,12017.691528,E,1,06,2.7,19.2,M,17.5,M,,*45,1603353690431
Fix,gps,22.925386,120.294878,36.074829,0.750000,13.936001,1603353692000
Raw,10004330,10237881000000,,,-1287378671552261120,0.0,113.28030086588115,-7.958107381377938,19.14490185324615,7,18,0.0,207,39691351879466,142,13.7,496.5841979980469,3.9580001831054688,0,0.0,0.0,,,,,0,,3,,
Raw,10004331,10237881000000,,,-1287378671552261120,0.0,113.28030086588115,-7.958107381377938,19.14490185324615,7,15,0.0,207,39691356952942,16,29.8,-768.94970703125,0.26570001244544983,0,0.0,0.0,,,,,0,,3,,
Raw,10004332,10237881000000,,,-1287378671552261120,0.0,113.28030086588115,-7.958107381377938,19.14490185324615,7,19,0.0,207,39691353022746,70,17.6,347.9129943847656,1.3109999895095825,0,0.0,0.0,,,,,0,,3,,
Raw,10004333,10237881000000,,,-1287378671552261120,0.0,113.28030086588115,-7.958107381377938,19.14490185324615,7,31,0.0,15,374509355774673,9,35.7,-510.7640075683594,0.05910000205039978,0,0.0,0.0,,,,,0,,1,,
Raw,10004333,10237881000000,,,-1287378671552261120,0.0,113.28030086588115,-7.958107381377938,19.14490185324615,7,32,0.0,15,374509357137995,21,26.6,-314.1409912109375,0.1517000049352646,0,0.0,0.0,,,,,0,,1,,
Raw,10004334,10237881000000,,,-1287378671552261120,0.0,113.28030086588115,-7.958107381377938,19.14490185324615,7,21,0.0,15,374495346641056,40,21.7,-528.40625,0.750499963760376,0,0.0,0.0,,,,,0,,5,,
Raw,10004334,10237881000000,,,-1287378671552261120,0.0,113.28030086588115,-7.958107381377938,19.14490185324615,7,26,0.0,7183,374509347015017,12,32.4,363.60723876953125,0.052400000393390656,0,0.0,0.0,,,,,0,,6,,
Raw,10004335,10237881000000,,,-1287378671552261120,0.0,113.28030086588115,-7.958107381377938,19.14490185324615,7,33,0.0,7183,374509340773496,17,28.3,90.53385162353516,0.0723000019788742,0,0.0,0.0,,,,,0,,6,,
NMEA,$GPGSV,3,1,11,31,21,237,36,32,28,310,27,10,63,326,,12,42,085,*7E,1603353691422
NMEA,$GPGSV,3,2,11,15,14,087,,18,21,194,,20,75,163,,21,04,309,*79,1603353691422
NMEA,$GPGSV,3,3,11,23,80,127,,24,25,037,,25,48,143,*4C,1603353691422
NMEA,$GLGSV,1,1,03,82,02,230,14,79,16,205,30,83,05,274,18*51,1603353691422
NMEA,$GAGSV,2,1,07,26,21,239,32,33,11,288,28,07,54,025,,13,08,189,*61,1603353691423
NMEA,$GAGSV,2,2,07,21,11,201,,27,56,168,,30,49,060,*5E,1603353691423
NMEA,$PQGSV,1,1,0,*73,1603353691423
NMEA,$PQGSV,4,1,16,21,12,317,22,01,51,130,,02,41,241,,03,60,202,,0,4*6E,1603353691424
NMEA,$PQGSV,4,2,16,04,37,115,,05,17,258,,06,53,357,,07,40,167,,0,4*61,1603353691425
NMEA,$PQGSV,4,3,16,08,31,196,,09,44,314,,10,21,189,,13,42,226,,0,4*60,1603353691426
NMEA,$PQGSV,4,4,16,16,51,347,,19,50,102,,20,04,125,,22,59,348,,0,4*62,1603353691427
NMEA,$GNGSA,A,2,31,32,,,,,,,,,,,2.9,2.7,1.0,1*3C,1603353691428
NMEA,$GNGSA,A,2,79,83,,,,,,,,,,,2.9,2.7,1.0,2*39,1603353691428
NMEA,$GNGSA,A,2,01,26,,,,,,,,,,,2.9,2.7,1.0,3*38,1603353691428
NMEA,$GNVTG,114.8,T,114.8,M,1.5,N,2.7,K,A*3C,1603353691428
NMEA,$GNRMC,080132.00,A,2255.523151,N,12017.692657,E,1.5,114.8,221020,2.8,W,A*3D,1603353691428
NMEA,$GNGGA,080132.00,2255.523151,N,12017.692657,E,1,06,2.7,18.6,M,17.5,M,,*48,1603353691428
Raw,10005313,10238881000000,,,-1287378671552261120,0.0,123.55229409877211,-11.261782898230306,21.723359472999082,7,18,0.0,207,39692351877810,168,13.7,496.5841979980469,5.458000183105469,0,0.0,0.0,,,,,0,,3,,
Raw,10005313,10238881000000,,,-1287378671552261120,0.0,123.55229409877211,-11.261782898230306,21.723359472999082,7,15,0.0,207,39692356955459,14,30.3,-768.1386108398438,0.2648000121116638,0,0.0,0.0,,,,,0,,3,,
Raw,10005314,10238881000000,,,-1287378671552261120,0.0,123.55229409877211,-11.261782898230306,21.723359472999082,7,19,0.0,207,39692353021585,80,17.6,347.9129943847656,2.811000108718872,0,0.0,0.0,,,,,0,,3,,
Raw,10005314,10238881000000,,,-1287378671552261120,0.0,123.55229409877211,-11.261782898230306,21.723359472999082,7,31,0.0,15,374510355776379,8,36.4,-509.89984130859375,0.05870000272989273,0,0.0,0.0,,,,,0,,1,,
Raw,10005315,10238881000000,,,-1287378671552261120,0.0,123.55229409877211,-11.261782898230306,21.723359472999082,7,32,0.0,15,374510357139034,21,26.8,-313.36431884765625,0.1517000049352646,0,0.0,0.0,,,,,0,,1,,
Raw,10005316,10238881000000,,,-1287378671552261120,0.0,123.55229409877211,-11.261782898230306,21.723359472999082,7,21,0.0,15,374496346642833,35,22.5,-526.4090576171875,0.6904999613761902,0,0.0,0.0,,,,,0,,5,,
Raw,10005316,10238881000000,,,-1287378671552261120,0.0,123.55229409877211,-11.261782898230306,21.723359472999082,7,26,0.0,7183,374510347013811,11,33.6,361.46014404296875,0.05140000209212303,0,0.0,0.0,,,,,0,,6,,
Raw,10005317,10238881000000,,,-1287378671552261120,0.0,123.55229409877211,-11.261782898230306,21.723359472999082,7,33,0.0,7183,374510340773194,19,27.9,88.2463150024414,0.08030000329017639,0,0.0,0.0,,,,,0,,6,,
Fix,gps,22.925385,120.294895,36.118042,0.490000,15.008000,1603353693000
NMEA,$GPGSV,3,1,11,31,21,237,36,32,28,310,27,10,63,326,,12,42,085,*7E,1603353692420
NMEA,$GPGSV,3,2,11,15,14,087,,18,21,194,,20,75,163,,21,04,309,*79,1603353692420
NMEA,$GPGSV,3,3,11,23,80,127,,24,25,037,,25,48,143,*4C,1603353692420
NMEA,$GLGSV,1,1,03,82,02,230,14,79,16,205,30,83,05,274,18*51,1603353692421
NMEA,$GAGSV,2,1,07,26,21,239,34,33,11,288,28,07,54,025,,13,08,189,*67,1603353692421
NMEA,$GAGSV,2,2,07,21,11,201,,27,56,168,,30,49,060,*5E,1603353692421
NMEA,$PQGSV,1,1,0,*73,1603353692421
NMEA,$PQGSV,4,1,16,21,12,317,23,01,51,130,,02,41,241,,03,60,202,,0,4*6F,1603353692422
NMEA,$PQGSV,4,2,16,04,37,115,,05,17,258,,06,53,357,,07,40,167,,0,4*61,1603353692422
NMEA,$PQGSV,4,3,16,08,31,196,,09,44,314,,10,21,189,,13,42,226,,0,4*60,1603353692422
NMEA,$PQGSV,4,4,16,16,51,347,,19,50,102,,20,04,125,,22,59,348,,0,4*62,1603353692422
NMEA,$GNGSA,A,2,31,32,,,,,,,,,,,2.9,2.7,1.0,1*3C,1603353692423
NMEA,$GNGSA,A,2,79,83,,,,,,,,,,,2.9,2.7,1.0,2*39,1603353692423
NMEA,$GNGSA,A,2,01,26,,,,,,,,,,,2.9,2.7,1.0,3*38,1603353692424
NMEA,$GNVTG,104.5,T,104.5,M,1.0,N,1.8,K,A*35,1603353692424
NMEA,$GNRMC,080133.00,A,2255.523128,N,12017.693706,E,1.0,104.5,221020,2.8,W,A*3F,1603353692424
NMEA,$GNGGA,080133.00,2255.523128,N,12017.693706,E,1,06,2.7,18.6,M,17.5,M,,*43,1603353692425
Raw,10006312,10239881000000,,,-1287378671552261120,0.0,126.34567974600941,-13.609026733552628,21.191249577770336,7,18,0.0,207,39693351876512,110,14.2,497.0337829589844,2.3380000591278076,0,0.0,0.0,,,,,0,,3,,
Raw,10006312,10239881000000,,,-1287378671552261120,0.0,126.34567974600941,-13.609026733552628,21.191249577770336,7,15,0.0,207,39693356958050,14,30.0,-768.030517578125,0.2648000121116638,0,0.0,0.0,,,,,0,,3,,
Raw,10006313,10239881000000,,,-1287378671552261120,0.0,126.34567974600941,-13.609026733552628,21.191249577770336,7,19,0.0,207,39693353020766,64,18.7,349.40850830078125,1.9810000658035278,0,0.0,0.0,,,,,0,,3,,
Raw,10006314,10239881000000,,,-1287378671552261120,0.0,126.34567974600941,-13.609026733552628,21.191249577770336,7,31,0.0,15,374511355778085,9,35.1,-509.80780029296875,0.05910000205039978,0,0.0,0.0,,,,,0,,1,,
Raw,10006314,10239881000000,,,-1287378671552261120,0.0,126.34567974600941,-13.609026733552628,21.191249577770336,7,32,0.0,15,374511357140098,21,26.1,-313.3225402832031,0.1517000049352646,0,0.0,0.0,,,,,0,,1,,
Raw,10006315,10239881000000,,,-1287378671552261120,0.0,126.34567974600941,-13.609026733552628,21.191249577770336,7,21,0.0,15,374497346644553,27,24.3,-526.8987426757812,0.6004999876022339,0,0.0,0.0,,,,,0,,5,,
Raw,10006315,10239881000000,,,-1287378671552261120,0.0,126.34567974600941,-13.609026733552628,21.191249577770336,7,26,0.0,7183,374511347012603,12,32.5,363.2084655761719,0.052400000393390656,0,0.0,0.0,,,,,0,,6,,
Raw,10006316,10239881000000,,,-1287378671552261120,0.0,126.34567974600941,-13.609026733552628,21.191249577770336,7,33,0.0,7183,374511340772898,19,27.0,88.86764526367188,0.08030000329017639,0,0.0,0.0,,,,,0,,6,,
Fix,gps,22.925391,120.294913,34.495117,0.950000,15.008000,1603353694000
NMEA,$GPGSV,3,1,11,31,21,237,35,32,28,310,26,10,63,326,,12,42,085,*7C,1603353693419
NMEA,$GPGSV,3,2,11,15,14,087,,18,21,194,,20,75,163,,21,04,309,*79,1603353693421
NMEA,$GPGSV,3,3,11,23,80,127,,24,25,037,,25,48,143,*4C,1603353693421
NMEA,$GLGSV,1,1,03,82,02,230,14,79,16,205,30,83,05,274,19*50,1603353693421
NMEA,$GAGSV,2,1,07,26,21,239,33,33,11,288,27,07,54,025,,13,08,189,*6F,1603353693421
NMEA,$GAGSV,2,2,07,21,11,201,,27,56,168,,30,49,060,*5E,1603353693421
NMEA,$PQGSV,1,1,0,*73,1603353693421
NMEA,$PQGSV,4,1,16,21,12,317,24,01,51,130,,02,41,241,,03,60,202,,0,4*68,1603353693422
NMEA,$PQGSV,4,2,16,04,37,115,,05,17,258,,06,53,357,,07,40,167,,0,4*61,1603353693422
NMEA,$PQGSV,4,3,16,08,31,196,,09,44,314,,10,21,189,,13,42,226,,0,4*60,1603353693422
NMEA,$PQGSV,4,4,16,16,51,347,,19,50,102,,20,04,125,,22,59,348,,0,4*62,1603353693423
NMEA,$GNGSA,A,2,31,32,,,,,,,,,,,2.9,2.7,1.0,1*3C,1603353693424
NMEA,$GNGSA,A,2,79,83,,,,,,,,,,,2.9,2.7,1.0,2*39,1603353693424
NMEA,$GNGSA,A,2,01,26,,,,,,,,,,,2.9,2.7,1.0,3*38,1603353693424
NMEA,$GNVTG,71.3,T,71.3,M,1.8,N,3.4,K,A*33,1603353693424
NMEA,$GNRMC,080134.00,A,2255.523478,N,12017.694775,E,1.8,71.3,221020,2.8,W,A*06,1603353693424
NMEA,$GNGGA,080134.00,2255.523478,N,12017.694775,E,1,06,2.7,17.0,M,17.5,M,,*4E,1603353693425
Raw,10007336,10240881000000,,,-1287378671552261120,0.0,126.8555351998657,-12.692617456433057,19.61354373046432,7,18,0.0,207,39694351874854,126,14.2,497.0337829589844,3.8380002975463867,0,0.0,0.0,,,,,0,,3,,
Raw,10007337,10240881000000,,,-1287378671552261120,0.0,126.8555351998657,-12.692617456433057,19.61354373046432,7,15,0.0,207,39694356960523,14,30.6,-767.07861328125,0.2648000121116638,0,0.0,0.0,,,,,0,,3,,
Raw,10007337,10240881000000,,,-1287378671552261120,0.0,126.8555351998657,-12.692617456433057,19.61354373046432,7,19,0.0,207,39694353019573,70,17.5,349.6235046386719,1.3109999895095825,0,0.0,0.0,,,,,0,,3,,
Raw,10007338,10240881000000,,,-1287378671552261120,0.0,126.8555351998657,-12.692617456433057,19.61354373046432,7,31,0.0,15,374512355779784,10,34.5,-508.831298828125,0.05960000306367874,0,0.0,0.0,,,,,0,,1,,
Raw,10007338,10240881000000,,,-1287378671552261120,0.0,126.8555351998657,-12.692617456433057,19.61354373046432,7,32,0.0,15,374512357141116,21,26.8,-312.3941345214844,0.1517000049352646,0,0.0,0.0,,,,,0,,1,,
Raw,10007339,10240881000000,,,-1287378671552261120,0.0,126.8555351998657,-12.692617456433057,19.61354373046432,7,21,0.0,15,374498346646312,27,24.2,-525.2952270507812,0.6004999876022339,0,0.0,0.0,,,,,0,,5,,
Raw,10007339,10240881000000,,,-1287378671552261120,0.0,126.8555351998657,-12.692617456433057,19.61354373046432,7,26,0.0,7183,374512347011399,11,33.3,362.60028076171875,0.05140000209212303,0,0.0,0.0,,,,,0,,6,,
Raw,10007340,10240881000000,,,-1287378671552261120,0.0,126.8555351998657,-12.692617456433057,19.61354373046432,7,33,0.0,7183,374512340772580,16,29.5,89.64335632324219,0.065700002014637,0,0.0,0.0,,,,,0,,6,,
Fix,gps,22.925399,120.294924,34.065674,0.690000,17.152000,1603353695000
NMEA,$GPGSV,3,1,11,31,21,237,35,32,28,310,27,10,63,326,,12,42,085,*7D,1603353694426
NMEA,$GPGSV,3,2,11,15,14,087,,18,21,194,,20,75,163,,21,04,309,*79,1603353694427
NMEA,$GPGSV,3,3,11,23,80,127,,24,25,037,,25,48,143,*4C,1603353694428
NMEA,$GLGSV,1,1,03,82,02,230,14,79,16,205,31,83,05,274,18*50,1603353694431
NMEA,$GAGSV,2,1,07,26,21,239,33,33,11,288,30,07,54,025,,13,08,189,*69,1603353694432
NMEA,$GAGSV,2,2,07,21,11,201,,27,56,168,,30,49,060,*5E,1603353694432
NMEA,$PQGSV,1,1,0,*73,1603353694434
NMEA,$PQGSV,4,1,16,21,12,317,24,01,51,130,,02,41,241,,03,60,202,,0,4*68,1603353694435
NMEA,$PQGSV,4,2,16,04,37,115,,05,17,258,,06,53,357,,07,40,167,,0,4*61,1603353694436
NMEA,$PQGSV,4,3,16,08,31,196,,09,44,314,,10,21,189,,13,42,226,,0,4*60,1603353694436
NMEA,$PQGSV,4,4,16,16,51,347,,19,50,102,,20,04,125,,22,59,348,,0,4*62,1603353694437
NMEA,$GNGSA,A,2,31,32,,,,,,,,,,,2.9,2.7,1.0,1*3C,1603353694441
NMEA,$GNGSA,A,2,79,83,,,,,,,,,,,2.9,2.7,1.0,2*39,1603353694442
NMEA,$GNGSA,A,2,01,26,,,,,,,,,,,2.9,2.7,1.0,3*38,1603353694443
NMEA,$GNVTG,33.1,T,33.1,M,1.3,N,2.5,K,A*38,1603353694444
NMEA,$GNRMC,080135.00,A,2255.523948,N,12017.695446,E,1.3,33.1,221020,2.8,W,A*04,1603353694445
NMEA,$GNGGA,080135.00,2255.523948,N,12017.695446,E,1,06,2.7,16.6,M,17.5,M,,*44,1603353694445
Raw,10008337,10241881000000,,,-1287378671552261120,0.0,147.6439501857385,-10.980660598922723,20.13012183119457,7,18,0.0,207,39695351873196,151,14.2,497.0337829589844,5.338000297546387,0,0.0,0.0,,,,,0,,3,,
Raw,10008337,10241881000000,,,-1287378671552261120,0.0,147.6439501857385,-10.980660598922723,20.13012183119457,7,15,0.0,207,39695356963136,14,30.2,-766.2847900390625,0.2648000121116638,0,0.0,0.0,,,,,0,,3,,
Raw,10008338,10241881000000,,,-1287378671552261120,0.0,147.6439501857385,-10.980660598922723,20.13012183119457,7,19,0.0,207,39695353018407,80,17.5,349.6235046386719,2.811000108718872,0,0.0,0.0,,,,,0,,3,,
Raw,10008338,10241881000000,,,-1287378671552261120,0.0,147.6439501857385,-10.980660598922723,20.13012183119457,7,31,0.0,15,374513355781477,8,36.0,-508.0419921875,0.05870000272989273,0,0.0,0.0,,,,,0,,1,,
Raw,10008339,10241881000000,,,-1287378671552261120,0.0,147.6439501857385,-10.980660598922723,20.13012183119457,7,32,0.0,15,374513357142167,19,27.4,-311.6709899902344,0.08180000633001328,0,0.0,0.0,,,,,0,,1,,
Raw,10008339,10241881000000,,,-1287378671552261120,0.0,147.6439501857385,-10.980660598922723,20.13012183119457,7,21,0.0,15,374499346648090,35,22.2,-525.28564453125,0.6904999613761902,0,0.0,0.0,,,,,0,,5,,
Raw,10008340,10241881000000,,,-1287378671552261120,0.0,147.6439501857385,-10.980660598922723,20.13012183119457,7,26,0.0,7183,374513347010173,10,34.4,363.47808837890625,0.05060000345110893,0,0.0,0.0,,,,,0,,6,,
Raw,10008340,10241881000000,,,-1287378671552261120,0.0,147.6439501857385,-10.980660598922723,20.13012183119457,7,33,0.0,7183,374513340772272,16,29.1,90.6780014038086,0.065700002014637,0,0.0,0.0,,,,,0,,6,,
Fix,gps,22.925407,120.294929,34.656799,0.490000,17.152000,1603353696000
NMEA,$GPGSV,3,1,11,31,21,237,36,32,28,310,27,10,63,326,,12,42,085,*7E,1603353695426
NMEA,$GPGSV,3,2,11,15,14,087,,18,21,194,,20,75,163,,21,04,309,*79,1603353695427
NMEA,$GPGSV,3,3,11,23,80,127,,24,25,037,,25,48,143,*4C,1603353695431
NMEA,$GLGSV,1,1,03,82,02,230,14,79,16,205,30,83,05,274,18*51,1603353695431
NMEA,$GAGSV,2,1,07,26,21,239,34,33,11,288,29,07,54,025,,13,08,189,*66,1603353695432
NMEA,$GAGSV,2,2,07,21,11,201,,27,56,168,,30,49,060,*5E,1603353695432
NMEA,$PQGSV,1,1,0,*73,1603353695433
NMEA,$PQGSV,4,1,16,21,12,317,22,01,51,130,,02,41,241,,03,60,202,,0,4*6E,1603353695435
NMEA,$PQGSV,4,2,16,04,37,115,,05,17,258,,06,53,357,,07,40,167,,0,4*61,1603353695438
NMEA,$PQGSV,4,3,16,08,31,196,,09,44,314,,10,21,189,,13,42,226,,0,4*60,1603353695440
NMEA,$PQGSV,4,4,16,16,51,347,,19,50,102,,20,04,125,,22,59,348,,0,4*62,1603353695441
NMEA,$GNGSA,A,2,31,32,,,,,,,,,,,2.9,2.7,1.0,1*3C,1603353695443
NMEA,$GNGSA,A,2,79,83,,,,,,,,,,,2.9,2.7,1.0,2*39,1603353695443
NMEA,$GNGSA,A,2,01,26,,,,,,,,,,,2.9,2.7,1.0,3*38,1603353695444
NMEA,$GNVTG,14.0,T,14.0,M,1.0,N,1.8,K,A*35,1603353695445
NMEA,$GNRMC,080136.00,A,2255.524404,N,12017.695745,E,1.0,14.0,221020,2.8,W,A*02,1603353695445
NMEA,$GNGGA,080136.00,2255.524404,N,12017.695745,E,1,06,2.7,17.2,M,17.5,M,,*40,1603353695446
Raw,10009336,10242881000000,,,-1287378671552261120,0.0,143.40956113301218,-7.704315632492021,20.514126959938217,7,18,0.0,207,39696351871425,117,14.2,497.0618896484375,3.0880000591278076,0,0.0,0.0,,,,,0,,3,,
Raw,10009337,10242881000000,,,-1287378671552261120,0.0,143.40956113301218,-7.704315632492021,20.514126959938217,7,15,0.0,207,39696356965746,16,29.8,-765.6358032226562,0.26570001244544983,0,0.0,0.0,,,,,0,,3,,
Raw,10009337,10242881000000,,,-1287378671552261120,0.0,143.40956113301218,-7.704315632492021,20.514126959938217,7,19,0.0,207,39696353017051,64,18.3,352.4275817871094,1.9810000658035278,0,0.0,0.0,,,,,0,,3,,
Raw,10009338,10242881000000,,,-1287378671552261120,0.0,143.40956113301218,-7.704315632492021,20.514126959938217,7,31,0.0,15,374514355783169,8,36.0,-507.3669128417969,0.05870000272989273,0,0.0,0.0,,,,,0,,1,,
Raw,10009338,10242881000000,,,-1287378671552261120,0.0,143.40956113301218,-7.704315632492021,20.514126959938217,7,32,0.0,15,374514357143198,19,27.8,-311.099853515625,0.08180000633001328,0,0.0,0.0,,,,,0,,1,,
Raw,10009339,10242881000000,,,-1287378671552261120,0.0,143.40956113301218,-7.704315632492021,20.514126959938217,7,21,0.0,15,374500346649805,31,23.7,-524.7958984375,0.640500009059906,0,0.0,0.0,,,,,0,,5,,
Raw,10009339,10242881000000,,,-1287378671552261120,0.0,143.40956113301218,-7.704315632492021,20.514126959938217,7,26,0.0,7183,374514347008959,11,33.3,364.7574157714844,0.05140000209212303,0,0.0,0.0,,,,,0,,6,,
Raw,10009340,10242881000000,,,-1287378671552261120,0.0,143.40956113301218,-7.704315632492021,20.514126959938217,7,33,0.0,7183,374514340771974,21,26.9,91.68022155761719,0.1502000093460083,0,0.0,0.0,,,,,0,,6,,
Fix,gps,22.925409,120.294943,33.908936,0.570000,16.080000,1603353697000
NMEA,$GPGSV,3,1,11,31,21,237,36,32,28,310,28,10,63,326,,12,42,085,*71,1603353696426
NMEA,$GPGSV,3,2,11,15,14,087,,18,21,194,,20,75,163,,21,04,309,*79,1603353696428
NMEA,$GPGSV,3,3,11,23,80,127,,24,25,037,,25,48,143,*4C,1603353696430
NMEA,$GLGSV,1,1,03,82,02,230,14,79,16,205,30,83,05,274,18*51,1603353696432
NMEA,$GAGSV,2,1,07,26,21,239,33,33,11,288,27,07,54,025,,13,08,189,*6F,1603353696433
NMEA,$GAGSV,2,2,07,21,11,201,,27,56,168,,30,49,060,*5E,1603353696434
NMEA,$PQGSV,1,1,0,*73,1603353696435
NMEA,$PQGSV,4,1,16,21,12,317,24,01,51,130,,02,41,241,,03,60,202,,0,4*68,1603353696436
NMEA,$PQGSV,4,2,16,04,37,115,,05,17,258,,06,53,357,,07,40,167,,0,4*61,1603353696437
NMEA,$PQGSV,4,3,16,08,31,196,,09,44,314,,10,21,189,,13,42,226,,0,4*60,1603353696438
NMEA,$PQGSV,4,4,16,16,51,347,,19,50,102,,20,04,125,,22,59,348,,0,4*62,1603353696439
NMEA,$GNGSA,A,2,31,32,,,,,,,,,,,2.9,2.7,1.0,1*3C,1603353696442
NMEA,$GNGSA,A,2,79,83,,,,,,,,,,,2.9,2.7,1.0,2*39,1603353696442
NMEA,$GNGSA,A,2,01,26,,,,,,,,,,,2.9,2.7,1.0,3*38,1603353696444
NMEA,$GNVTG,31.3,T,31.3,M,1.1,N,2.1,K,A*3E,1603353696445
NMEA,$GNRMC,080137.00,A,2255.524544,N,12017.696573,E,1.1,31.3,221020,2.8,W,A*07,1603353696446
NMEA,$GNGGA,080137.00,2255.524544,N,12017.696573,E,1,06,2.7,16.4,M,17.5,M,,*47,1603353696447
Fix,gps,22.925413,120.294958,35.218018,0.670000,16.080000,1603353698000
Raw,10010354,10243881000000,,,-1287378671552261120,0.0,138.80679034627974,-5.782227433267809,18.56300591607196,7,18,0.0,207,39697351869767,137,14.2,497.0618896484375,4.588000297546387,0,0.0,0.0,,,,,0,,3,,
Raw,10010355,10243881000000,,,-1287378671552261120,0.0,138.80679034627974,-5.782227433267809,18.56300591607196,7,15,0.0,207,39697356968240,14,30.1,-765.3338623046875,0.2648000121116638,0,0.0,0.0,,,,,0,,3,,
Raw,10010356,10243881000000,,,-1287378671552261120,0.0,138.80679034627974,-5.782227433267809,18.56300591607196,7,19,0.0,207,39697353015892,61,18.6,352.41827392578125,1.2310000658035278,0,0.0,0.0,,,,,0,,3,,
Raw,10010359,10243881000000,,,-1287378671552261120,0.0,138.80679034627974,-5.782227433267809,18.56300591607196,7,31,0.0,15,374515355784856,8,36.4,-507.0334777832031,0.05870000272989273,0,0.0,0.0,,,,,0,,1,,
Raw,10010361,10243881000000,,,-1287378671552261120,0.0,138.80679034627974,-5.782227433267809,18.56300591607196,7,32,0.0,15,374515357144269,19,27.6,-310.8336181640625,0.08180000633001328,0,0.0,0.0,,,,,0,,1,,
Raw,10010363,10243881000000,,,-1287378671552261120,0.0,138.80679034627974,-5.782227433267809,18.56300591607196,7,21,0.0,15,374501346651570,35,22.7,-524.1046142578125,0.6904999613761902,0,0.0,0.0,,,,,0,,5,,
Raw,10010366,10243881000000,,,-1287378671552261120,0.0,138.80679034627974,-5.782227433267809,18.56300591607196,7,26,0.0,7183,374515347007738,10,34.1,366.19390869140625,0.05060000345110893,0,0.0,0.0,,,,,0,,6,,
Raw,10010368,10243881000000,,,-1287378671552261120,0.0,138.80679034627974,-5.782227433267809,18.56300591607196,7,33,0.0,7183,374515340771662,19,27.7,92.99556732177734,0.08030000329017639,0,0.0,0.0,,,,,0,,6,,
NMEA,$GPGSV,3,1,11,31,21,237,36,32,28,310,28,10,63,326,,12,42,085,*71,1603353697425
NMEA,$GPGSV,3,2,11,15,14,087,,18,21,194,,20,75,163,,21,04,309,*79,1603353697430
NMEA,$GPGSV,3,3,11,23,80,127,,24,25,037,,25,48,143,*4C,1603353697431
NMEA,$GLGSV,1,1,03,82,02,230,14,79,16,205,30,83,05,274,19*50,1603353697431
NMEA,$GAGSV,2,1,07,26,21,239,34,33,11,288,28,07,54,025,,13,08,189,*67,1603353697434
NMEA,$GAGSV,2,2,07,21,11,201,,27,56,168,,30,49,060,*5E,1603353697435
NMEA,$PQGSV,1,1,0,*73,1603353697436
NMEA,$PQGSV,4,1,16,21,12,317,23,01,51,130,,02,41,241,,03,60,202,,0,4*6F,1603353697437
NMEA,$PQGSV,4,2,16,04,37,115,,05,17,258,,06,53,357,,07,40,167,,0,4*61,1603353697441
NMEA,$PQGSV,4,3,16,08,31,196,,09,44,314,,10,21,189,,13,42,226,,0,4*60,1603353697446
NMEA,$PQGSV,4,4,16,16,51,347,,19,50,102,,20,04,125,,22,59,348,,0,4*62,1603353697449
NMEA,$GNGSA,A,2,31,32,,,,,,,,,,,2.9,2.7,1.0,1*3C,1603353697451
NMEA,$GNGSA,A,2,79,83,,,,,,,,,,,2.9,2.7,1.0,2*39,1603353697451
NMEA,$GNGSA,A,2,01,26,,,,,,,,,,,2.9,2.7,1.0,3*38,1603353697452
NMEA,$GNVTG,64.7,T,64.7,M,1.3,N,2.4,K,A*39,1603353697453
NMEA,$GNRMC,080138.00,A,2255.524801,N,12017.697472,E,1.3,64.7,221020,2.8,W,A*03,1603353697453
NMEA,$GNGGA,080138.00,2255.524801,N,12017.697472,E,1,06,2.7,17.7,M,17.5,M,,*47,1603353697454
Raw,10011337,10244881000000,,,-1287378671552261120,0.0,136.08358858618885,-3.239612232677832,19.053842433375323,7,18,0.0,207,39698351868109,168,14.2,497.0618896484375,6.088000297546387,0,0.0,0.0,,,,,0,,3,,
Raw,10011337,10244881000000,,,-1287378671552261120,0.0,136.08358858618885,-3.239612232677832,19.053842433375323,7,15,0.0,207,39698356970744,14,30.6,-765.209716796875,0.2648000121116638,0,0.0,0.0,,,,,0,,3,,
Raw,10011338,10244881000000,,,-1287378671552261120,0.0,136.08358858618885,-3.239612232677832,19.053842433375323,7,19,0.0,207,39698353014824,46,20.9,352.4462890625,1.0809999704360962,0,0.0,0.0,,,,,0,,3,,
Raw,10011338,10244881000000,,,-1287378671552261120,0.0,136.08358858618885,-3.239612232677832,19.053842433375323,7,31,0.0,15,374516355786556,8,36.4,-506.8938293457031,0.05870000272989273,0,0.0,0.0,,,,,0,,1,,
Raw,10011339,10244881000000,,,-1287378671552261120,0.0,136.08358858618885,-3.239612232677832,19.053842433375323,7,32,0.0,15,374516357145273,16,29.2,-310.76824951171875,0.06720000505447388,0,0.0,0.0,,,,,0,,1,,
Raw,10011339,10244881000000,,,-1287378671552261120,0.0,136.08358858618885,-3.239612232677832,19.053842433375323,7,21,0.0,15,374502346653326,40,21.3,-525.5833129882812,0.750499963760376,0,0.0,0.0,,,,,0,,5,,
Raw,10011340,10244881000000,,,-1287378671552261120,0.0,136.08358858618885,-3.239612232677832,19.053842433375323,7,26,0.0,7183,374516347006522,10,34.8,366.2087707519531,0.05060000345110893,0,0.0,0.0,,,,,0,,6,,
Raw,10011340,10244881000000,,,-1287378671552261120,0.0,136.08358858618885,-3.239612232677832,19.053842433375323,7,33,0.0,7183,374516340771343,17,28.5,92.55496215820312,0.0723000019788742,0,0.0,0.0,,,,,0,,6,,
Fix,gps,22.925416,120.294966,34.902405,0.400000,17.152000,1603353699000
NMEA,$GPGSV,3,1,11,31,21,237,36,32,28,310,29,10,63,326,,12,42,085,*70,1603353698426
NMEA,$GPGSV,3,2,11,15,14,087,,18,21,194,,20,75,163,,21,04,309,*79,1603353698427
NMEA,$GPGSV,3,3,11,23,80,127,,24,25,037,,25,48,143,*4C,1603353698430
NMEA,$GLGSV,1,1,03,82,02,230,14,79,16,205,31,83,05,274,21*5A,1603353698432
NMEA,$GAGSV,2,1,07,26,21,239,35,33,11,288,29,07,54,025,,13,08,189,*67,1603353698432
NMEA,$GAGSV,2,2,07,21,11,201,,27,56,168,,30,49,060,*5E,1603353698437
NMEA,$PQGSV,1,1,0,*73,1603353698438
NMEA,$PQGSV,4,1,16,21,12,317,21,01,51,130,,02,41,241,,03,60,202,,0,4*6D,1603353698439
NMEA,$PQGSV,4,2,16,04,37,115,,05,17,258,,06,53,357,,07,40,167,,0,4*61,1603353698440
NMEA,$PQGSV,4,3,16,08,31,196,,09,44,314,,10,21,189,,13,42,226,,0,4*60,1603353698441
NMEA,$PQGSV,4,4,16,16,51,347,,19,50,102,,20,04,125,,22,59,348,,0,4*62,1603353698442
NMEA,$GNGSA,A,2,31,32,,,,,,,,,,,2.9,2.7,1.0,1*3C,1603353698444
NMEA,$GNGSA,A,2,79,83,,,,,,,,,,,2.9,2.7,1.0,2*39,1603353698445
NMEA,$GNGSA,A,2,01,26,,,,,,,,,,,2.9,2.7,1.0,3*38,1603353698446
NMEA,$GNVTG,71.6,T,71.6,M,0.8,N,1.4,K,A*30,1603353698446
NMEA,$GNRMC,080139.00,A,2255.524961,N,12017.697941,E,0.8,71.6,221020,2.8,W,A*07,1603353698447
NMEA,$GNGGA,080139.00,2255.524961,N,12017.697941,E,1,06,2.7,17.4,M,17.5,M,,*4F,1603353698447
Raw,10012547,10245881000000,,,-1287378671552261120,0.0,153.5530318506062,-2.1841216208872156,19.137795242102346,7,18,0.0,207,39699351866451,208,14.2,497.0618896484375,7.588000297546387,0,0.0,0.0,,,,,0,,3,,
Raw,10012550,10245881000000,,,-1287378671552261120,0.0,153.5530318506062,-2.1841216208872156,19.137795242102346,7,15,0.0,207,39699356973293,14,30.5,-765.1317138671875,0.2648000121116638,0,0.0,0.0,,,,,0,,3,,
Raw,10012552,10245881000000,,,-1287378671552261120,0.0,153.5530318506062,-2.1841216208872156,19.137795242102346,7,19,0.0,207,39699353013528,46,20.7,352.82952880859375,1.0809999704360962,0,0.0,0.0,,,,,0,,3,,
Raw,10012554,10245881000000,,,-1287378671552261120,0.0,153.5530318506062,-2.1841216208872156,19.137795242102346,7,31,0.0,15,374517355788243,8,36.4,-506.8119201660156,0.05870000272989273,0,0.0,0.0,,,,,0,,1,,
Raw,10012558,10245881000000,,,-1287378671552261120,0.0,153.5530318506062,-2.1841216208872156,19.137795242102346,7,32,0.0,15,374517357146296,16,29.3,-310.7513427734375,0.06720000505447388,0,0.0,0.0,,,,,0,,1,,
Raw,10012560,10245881000000,,,-1287378671552261120,0.0,153.5530318506062,-2.1841216208872156,19.137795242102346,7,21,0.0,15,374503346655057,40,21.6,-524.6903076171875,0.750499963760376,0,0.0,0.0,,,,,0,,5,,
Raw,10012562,10245881000000,,,-1287378671552261120,0.0,153.5530318506062,-2.1841216208872156,19.137795242102346,7,26,0.0,7183,374517347005300,10,34.5,365.9666442871094,0.05060000345110893,0,0.0,0.0,,,,,0,,6,,
Raw,10012565,10245881000000,,,-1287378671552261120,0.0,153.5530318506062,-2.1841216208872156,19.137795242102346,7,33,0.0,7183,374517340771031,16,29.3,92.33599090576172,0.065700002014637,0,0.0,0.0,,,,,0,,6,,
Fix,gps,22.925420,120.294964,35.975342,0.770000,18.224001,1603353700000
NMEA,$GPGSV,3,1,11,31,21,237,36,32,28,310,29,10,63,326,,12,42,085,*70,1603353699426
NMEA,$GPGSV,3,2,11,15,14,087,,18,21,194,,20,75,163,,21,04,309,*79,1603353699426
NMEA,$GPGSV,3,3,11,23,80,127,,24,25,037,,25,48,143,*4C,1603353699427
NMEA,$GLGSV,1,1,03,82,02,230,14,79,16,205,31,83,05,274,21*5A,1603353699431
NMEA,$GAGSV,2,1,07,26,21,239,35,33,11,288,29,07,54,025,,13,08,189,*67,1603353699434
NMEA,$GAGSV,2,2,07,21,11,201,,27,56,168,,30,49,060,*5E,1603353699436
NMEA,$PQGSV,1,1,0,*73,1603353699436
NMEA,$PQGSV,4,1,16,21,12,317,22,01,51,130,,02,41,241,,03,60,202,,0,4*6E,1603353699437
NMEA,$PQGSV,4,2,16,04,37,115,,05,17,258,,06,53,357,,07,40,167,,0,4*61,1603353699438
NMEA,$PQGSV,4,3,16,08,31,196,,09,44,314,,10,21,189,,13,42,226,,0,4*60,1603353699438
NMEA,$PQGSV,4,4,16,16,51,347,,19,50,102,,20,04,125,,22,59,348,,0,4*62,1603353699440
NMEA,$GNGSA,A,2,31,32,,,,,,,,,,,2.9,2.7,1.0,1*3C,1603353699442
NMEA,$GNGSA,A,2,79,83,,,,,,,,,,,2.9,2.7,1.0,2*39,1603353699442
NMEA,$GNGSA,A,2,01,26,,,,,,,,,,,2.9,2.7,1.0,3*38,1603353699443
NMEA,$GNVTG,8.7,T,8.7,M,1.5,N,2.8,K,A*33,1603353699444
NMEA,$GNRMC,080140.00,A,2255.525184,N,12017.697820,E,1.5,8.7,221020,2.8,W,A*3E,1603353699444
NMEA,$GNGGA,080140.00,2255.525184,N,12017.697820,E,1,06,2.7,18.5,M,17.5,M,,*4B,1603353699445
Raw,10013338,10246881000000,,,-1287378671552261120,0.0,162.6158773433417,-0.8791314791754884,18.460437221752482,7,18,0.0,207,39700351864793,259,14.2,497.0618896484375,9.088000297546387,0,0.0,0.0,,,,,0,,3,,
Raw,10013338,10246881000000,,,-1287378671552261120,0.0,162.6158773433417,-0.8791314791754884,18.460437221752482,7,15,0.0,207,39700356975930,14,30.1,-764.8843383789062,0.2648000121116638,0,0.0,0.0,,,,,0,,3,,
Raw,10013339,10246881000000,,,-1287378671552261120,0.0,162.6158773433417,-0.8791314791754884,18.460437221752482,7,19,0.0,207,39700353012714,46,20.4,353.0818786621094,1.0809999704360962,0,0.0,0.0,,,,,0,,3,,
Raw,10013339,10246881000000,,,-1287378671552261120,0.0,162.6158773433417,-0.8791314791754884,18.460437221752482,7,31,0.0,15,374518355789933,8,36.7,-506.55426025390625,0.05870000272989273,0,0.0,0.0,,,,,0,,1,,
Raw,10013340,10246881000000,,,-1287378671552261120,0.0,162.6158773433417,-0.8791314791754884,18.460437221752482,7,32,0.0,15,374518357147335,16,29.3,-310.57867431640625,0.06720000505447388,0,0.0,0.0,,,,,0,,1,,
Raw,10013340,10246881000000,,,-1287378671552261120,0.0,162.6158773433417,-0.8791314791754884,18.460437221752482,7,21,0.0,15,374504346656803,35,22.5,-524.4022216796875,0.6904999613761902,0,0.0,0.0,,,,,0,,5,,
Raw,10013341,10246881000000,,,-1287378671552261120,0.0,162.6158773433417,-0.8791314791754884,18.460437221752482,7,26,0.0,7183,374518347004077,10,34.5,365.0577392578125,0.05060000345110893,0,0.0,0.0,,,,,0,,6,,
Raw,10013341,10246881000000,,,-1287378671552261120,0.0,162.6158773433417,-0.8791314791754884,18.460437221752482,7,33,0.0,7183,374518340770735,16,29.3,92.4726333618164,0.065700002014637,0,0.0,0.0,,,,,0,,6,,
Fix,gps,22.925423,120.294955,30.986938,0.800000,19.296001,1603353701000
NMEA,$GPGSV,3,1,11,31,21,237,37,32,28,310,29,10,63,326,,12,42,085,*71,1603353700429
NMEA,$GPGSV,3,2,11,15,14,087,,18,21,194,,20,75,163,,21,04,309,*79,1603353700430
NMEA,$GPGSV,3,3,11,23,80,127,,24,25,037,,25,48,143,*4C,1603353700430
NMEA,$GLGSV,1,1,03,82,02,230,14,79,16,205,30,83,05,274,20*5A,1603353700431
NMEA,$GAGSV,2,1,07,26,21,239,35,33,11,288,29,07,54,025,,13,08,189,*67,1603353700432
NMEA,$GAGSV,2,2,07,21,11,201,,27,56,168,,30,49,060,*5E,1603353700436
NMEA,$PQGSV,1,1,0,*73,1603353700437
NMEA,$PQGSV,4,1,16,21,12,317,23,01,51,130,,02,41,241,,03,60,202,,0,4*6F,1603353700438
NMEA,$PQGSV,4,2,16,04,37,115,,05,17,258,,06,53,357,,07,40,167,,0,4*61,1603353700440
NMEA,$PQGSV,4,3,16,08,31,196,,09,44,314,,10,21,189,,13,42,226,,0,4*60,1603353700441
NMEA,$PQGSV,4,4,16,16,51,347,,19,50,102,,20,04,125,,22,59,348,,0,4*62,1603353700448
NMEA,$GNGSA,A,2,31,32,,,,,,,,,,,2.9,2.7,1.0,1*3C,1603353700453
NMEA,$GNGSA,A,2,79,83,,,,,,,,,,,2.9,2.7,1.0,2*39,1603353700454
NMEA,$GNGSA,A,2,01,26,,,,,,,,,,,2.9,2.7,1.0,3*38,1603353700454
NMEA,$GNVTG,304.1,T,304.1,M,1.6,N,2.9,K,A*31,1603353700456
NMEA,$GNRMC,080141.00,A,2255.525361,N,12017.697325,E,1.6,304.1,221020,2.8,W,A*32,1603353700457
NMEA,$GNGGA,080141.00,2255.525361,N,12017.697325,E,1,06,2.7,13.5,M,17.5,M,,*46,1603353700457
Raw,10014336,10247881000000,,,-1287378671552261120,0.0,168.7475887592882,-1.3964393475927206,18.622806108366866,7,18,0.0,207,39701351863135,319,14.2,497.0618896484375,10.588000297546387,0,0.0,0.0,,,,,0,,3,,
Raw,10014337,10247881000000,,,-1287378671552261120,0.0,168.7475887592882,-1.3964393475927206,18.622806108366866,7,15,0.0,207,39701356978480,16,29.7,-764.4696655273438,0.26570001244544983,0,0.0,0.0,,,,,0,,3,,
Raw,10014337,10247881000000,,,-1287378671552261120,0.0,168.7475887592882,-1.3964393475927206,18.622806108366866,7,19,0.0,207,39701353011233,46,20.0,352.2126159667969,1.0809999704360962,0,0.0,0.0,,,,,0,,3,,
Raw,10014338,10247881000000,,,-1287378671552261120,0.0,168.7475887592882,-1.3964393475927206,18.622806108366866,7,31,0.0,15,374519355791626,8,36.5,-506.1240234375,0.05870000272989273,0,0.0,0.0,,,,,0,,1,,
Raw,10014339,10247881000000,,,-1287378671552261120,0.0,168.7475887592882,-1.3964393475927206,18.622806108366866,7,32,0.0,15,374519357148382,16,29.9,-310.20196533203125,0.06720000505447388,0,0.0,0.0,,,,,0,,1,,
Raw,10014339,10247881000000,,,-1287378671552261120,0.0,168.7475887592882,-1.3964393475927206,18.622806108366866,7,21,0.0,15,374505346658581,35,22.6,-523.5956420898438,0.6904999613761902,0,0.0,0.0,,,,,0,,5,,
Raw,10014340,10247881000000,,,-1287378671552261120,0.0,168.7475887592882,-1.3964393475927206,18.622806108366866,7,26,0.0,7183,374519347002861,10,34.4,365.93072509765625,0.05060000345110893,0,0.0,0.0,,,,,0,,6,,
Raw,10014340,10247881000000,,,-1287378671552261120,0.0,168.7475887592882,-1.3964393475927206,18.622806108366866,7,33,0.0,7183,374519340770420,16,29.5,93.13919830322266,0.065700002014637,0,0.0,0.0,,,,,0,,6,,
Fix,gps,22.925422,120.294947,30.453918,0.920000,16.080000,1603353702000
NMEA,$GPGSV,3,1,11,31,21,237,37,32,28,310,30,10,63,326,,12,42,085,*79,1603353701426
NMEA,$GPGSV,3,2,11,15,14,087,,18,21,194,,20,75,163,,21,04,309,*79,1603353701426
NMEA,$GPGSV,3,3,11,23,80,127,,24,25,037,,25,48,143,*4C,1603353701428
NMEA,$GLGSV,1,1,03,82,02,230,14,79,16,205,30,83,05,274,20*5A,1603353701429
NMEA,$GAGSV,2,1,07,26,21,239,34,33,11,288,30,07,54,025,,13,08,189,*6E,1603353701429
NMEA,$GAGSV,2,2,07,21,11,201,,27,56,168,,30,49,060,*5E,1603353701430
NMEA,$PQGSV,1,1,0,*73,1603353701430
NMEA,$PQGSV,4,1,16,21,12,317,23,01,51,130,,02,41,241,,03,60,202,,0,4*6F,1603353701431
NMEA,$PQGSV,4,2,16,04,37,115,,05,17,258,,06,53,357,,07,40,167,,0,4*61,1603353701431
NMEA,$PQGSV,4,3,16,08,31,196,,09,44,314,,10,21,189,,13,42,226,,0,4*60,1603353701431
NMEA,$PQGSV,4,4,16,16,51,347,,19,50,102,,20,04,125,,22,59,348,,0,4*62,1603353701432
NMEA,$GNGSA,A,2,31,32,,,,,,,,,,,2.9,2.7,1.0,1*3C,1603353701433
NMEA,$GNGSA,A,2,79,83,,,,,,,,,,,2.9,2.7,1.0,2*39,1603353701433
NMEA,$GNGSA,A,2,01,26,,,,,,,,,,,2.9,2.7,1.0,3*38,1603353701434
NMEA,$GNVTG,283.6,T,283.6,M,1.8,N,3.3,K,A*34,1603353701434
NMEA,$GNRMC,080142.00,A,2255.525341,N,12017.696812,E,1.8,283.6,221020,2.8,W,A*3A,1603353701435
NMEA,$GNGGA,080142.00,2255.525341,N,12017.696812,E,1,06,2.7,13.0,M,17.5,M,,*4C,1603353701435
Raw,10015337,10248881000000,,,-1287378671552261120,0.0,146.64969057776034,0.627993227631167,16.93341290029387,7,18,0.0,207,39702351861477,390,14.2,497.0618896484375,12.088000297546387,0,0.0,0.0,,,,,0,,3,,
Raw,10015338,10248881000000,,,-1287378671552261120,0.0,146.64969057776034,0.627993227631167,16.93341290029387,7,15,0.0,207,39702356980985,16,29.1,-764.77783203125,0.26570001244544983,0,0.0,0.0,,,,,0,,3,,
Raw,10015339,10248881000000,,,-1287378671552261120,0.0,146.64969057776034,0.627993227631167,16.93341290029387,7,19,0.0,207,39702353009941,40,21.5,353.7548522949219,1.0210000276565552,0,0.0,0.0,,,,,0,,3,,
Raw,10015340,10248881000000,,,-1287378671552261120,0.0,146.64969057776034,0.627993227631167,16.93341290029387,7,31,0.0,15,374520355793312,8,36.6,-506.41522216796875,0.05870000272989273,0,0.0,0.0,,,,,0,,1,,
Raw,10015340,10248881000000,,,-1287378671552261120,0.0,146.64969057776034,0.627993227631167,16.93341290029387,7,32,0.0,15,374520357149398,17,28.9,-310.5717468261719,0.07380000501871109,0,0.0,0.0,,,,,0,,1,,
Raw,10015341,10248881000000,,,-1287378671552261120,0.0,146.64969057776034,0.627993227631167,16.93341290029387,7,21,0.0,15,374506346660333,35,22.3,-524.0853881835938,0.6904999613761902,0,0.0,0.0,,,,,0,,5,,
Raw,10015342,10248881000000,,,-1287378671552261120,0.0,146.64969057776034,0.627993227631167,16.93341290029387,7,26,0.0,7183,374520347001639,10,34.2,367.0680236816406,0.05060000345110893,0,0.0,0.0,,,,,0,,6,,
Raw,10015343,10248881000000,,,-1287378671552261120,0.0,146.64969057776034,0.627993227631167,16.93341290029387,7,33,0.0,7183,374520340770108,17,28.2,93.49762725830078,0.0723000019788742,0,0.0,0.0,,,,,0,,6,,
Fix,gps,22.925421,120.294934,31.098022,1.000000,16.080000,1603353703000
NMEA,$GPGSV,3,1,11,31,21,237,37,32,28,310,29,10,63,326,,12,42,085,*71,1603353702425
NMEA,$GPGSV,3,2,11,15,14,087,,18,21,194,,20,75,163,,21,04,309,*79,1603353702426
NMEA,$GPGSV,3,3,11,23,80,127,,24,25,037,,25,48,143,*4C,1603353702426
NMEA,$GLGSV,1,1,03,82,02,230,14,79,16,205,29,83,05,274,22*50,1603353702427
NMEA,$GAGSV,2,1,07,26,21,239,34,33,11,288,28,07,54,025,,13,08,189,*67,1603353702428
NMEA,$GAGSV,2,2,07,21,11,201,,27,56,168,,30,49,060,*5E,1603353702428
NMEA,$PQGSV,1,1,0,*73,1603353702429
NMEA,$PQGSV,4,1,16,21,12,317,22,01,51,130,,02,41,241,,03,60,202,,0,4*6E,1603353702430
NMEA,$PQGSV,4,2,16,04,37,115,,05,17,258,,06,53,357,,07,40,167,,0,4*61,1603353702432
NMEA,$PQGSV,4,3,16,08,31,196,,09,44,314,,10,21,189,,13,42,226,,0,4*60,1603353702432
NMEA,$PQGSV,4,4,16,16,51,347,,19,50,102,,20,04,125,,22,59,348,,0,4*62,1603353702433
NMEA,$GNGSA,A,2,31,32,,,,,,,,,,,2.9,2.7,1.0,1*3C,1603353702438
NMEA,$GNGSA,A,2,79,83,,,,,,,,,,,2.9,2.7,1.0,2*39,1603353702440
NMEA,$GNGSA,A,2,01,26,,,,,,,,,,,2.9,2.7,1.0,3*38,1603353702441
NMEA,$GNVTG,277.6,T,277.6,M,1.9,N,3.6,K,A*30,1603353702442
NMEA,$GNRMC,080143.00,A,2255.525255,N,12017.696043,E,1.9,277.6,221020,2.8,W,A*39,1603353702444
NMEA,$GNGGA,080143.00,2255.525255,N,12017.696043,E,1,06,2.7,13.6,M,17.5,M,,*43,1603353702447
Raw,10016337,10249881000000,,,-1287378671552261120,0.0,152.5492552900687,2.299315564597997,19.576071785089002,7,18,0.0,207,39703351859819,470,14.2,497.0618896484375,13.588000297546387,0,0.0,0.0,,,,,0,,3,,
Raw,10016338,10249881000000,,,-1287378671552261120,0.0,152.5492552900687,2.299315564597997,19.576071785089002,7,15,0.0,207,39703356983559,16,29.7,-764.6539306640625,0.26570001244544983,0,0.0,0.0,,,,,0,,3,,
Raw,10016338,10249881000000,,,-1287378671552261120,0.0,152.5492552900687,2.299315564597997,19.576071785089002,7,19,0.0,207,39703353008890,46,20.6,352.41827392578125,1.0809999704360962,0,0.0,0.0,,,,,0,,3,,
Raw,10016339,10249881000000,,,-1287378671552261120,0.0,152.5492552900687,2.299315564597997,19.576071785089002,7,31,0.0,15,374521355794992,9,35.9,-506.26898193359375,0.05910000205039978,0,0.0,0.0,,,,,0,,1,,
Raw,10016340,10249881000000,,,-1287378671552261120,0.0,152.5492552900687,2.299315564597997,19.576071785089002,7,32,0.0,15,374521357150473,14,30.1,-310.49700927734375,0.06630000472068787,0,0.0,0.0,,,,,0,,1,,
Raw,10016340,10249881000000,,,-1287378671552261120,0.0,152.5492552900687,2.299315564597997,19.576071785089002,7,21,0.0,15,374507346662051,27,24.0,-523.9317626953125,0.6004999876022339,0,0.0,0.0,,,,,0,,5,,
Raw,10016341,10249881000000,,,-1287378671552261120,0.0,152.5492552900687,2.299315564597997,19.576071785089002,7,26,0.0,7183,374521347000417,11,33.6,366.5050354003906,0.05140000209212303,0,0.0,0.0,,,,,0,,6,,
Raw,10016342,10249881000000,,,-1287378671552261120,0.0,152.5492552900687,2.299315564597997,19.576071785089002,7,33,0.0,7183,374521340769796,16,29.1,94.10494995117188,0.065700002014637,0,0.0,0.0,,,,,0,,6,,
Fix,gps,22.925421,120.294932,31.531128,0.200000,15.008000,1603353704000
NMEA,$GPGSV,3,1,11,31,21,237,36,32,28,310,30,10,63,326,,12,42,085,*78,1603353703426
NMEA,$GPGSV,3,2,11,15,14,087,,18,21,194,,20,75,163,,21,04,309,*79,1603353703426
NMEA,$GPGSV,3,3,11,23,80,127,,24,25,037,,25,48,143,*4C,1603353703427
NMEA,$GLGSV,1,1,03,82,02,230,14,79,16,205,30,83,05,274,21*5B,1603353703428
NMEA,$GAGSV,2,1,07,26,21,239,34,33,11,288,29,07,54,025,,13,08,189,*66,1603353703428
NMEA,$GAGSV,2,2,07,21,11,201,,27,56,168,,30,49,060,*5E,1603353703429
NMEA,$PQGSV,1,1,0,*73,1603353703435
NMEA,$PQGSV,4,1,16,21,12,317,24,01,51,130,,02,41,241,,03,60,202,,0,4*68,1603353703437
NMEA,$PQGSV,4,2,16,04,37,115,,05,17,258,,06,53,357,,07,40,167,,0,4*61,1603353703438
NMEA,$PQGSV,4,3,16,08,31,196,,09,44,314,,10,21,189,,13,42,226,,0,4*60,1603353703439
NMEA,$PQGSV,4,4,16,16,51,347,,19,50,102,,20,04,125,,22,59,348,,0,4*62,1603353703439
NMEA,$GNGSA,A,2,31,32,,,,,,,,,,,2.9,2.7,1.0,1*3C,1603353703442
NMEA,$GNGSA,A,2,79,83,,,,,,,,,,,2.9,2.7,1.0,2*39,1603353703445
NMEA,$GNGSA,A,2,01,26,,,,,,,,,,,2.9,2.7,1.0,3*38,1603353703446
NMEA,$GNVTG,282.0,T,282.0,M,0.4,N,0.7,K,A*3E,1603353703447
NMEA,$GNRMC,080144.00,A,2255.525247,N,12017.695949,E,0.4,282.0,221020,2.8,W,A*3D,1603353703448
NMEA,$GNGGA,080144.00,2255.525247,N,12017.695949,E,1,06,2.7,14.1,M,17.5,M,,*47,1603353703448
Raw,10017337,10250881000000,,,-1287378671552261120,0.0,140.66495350562036,0.6127881932998325,18.87047341539754,7,18,0.0,207,39704351858161,561,14.2,497.0618896484375,15.088000297546387,0,0.0,0.0,,,,,0,,3,,
Raw,10017338,10250881000000,,,-1287378671552261120,0.0,140.66495350562036,0.6127881932998325,18.87047341539754,7,15,0.0,207,39704356986093,16,29.5,-764.1779174804688,0.26570001244544983,0,0.0,0.0,,,,,0,,3,,
Raw,10017338,10250881000000,,,-1287378671552261120,0.0,140.66495350562036,0.6127881932998325,18.87047341539754,7,19,0.0,207,39704353007504,46,20.1,352.904296875,1.0809999704360962,0,0.0,0.0,,,,,0,,3,,
Raw,10017339,10250881000000,,,-1287378671552261120,0.0,140.66495350562036,0.6127881932998325,18.87047341539754,7,31,0.0,15,374522355796685,8,36.1,-505.7776794433594,0.05870000272989273,0,0.0,0.0,,,,,0,,1,,
Raw,10017339,10250881000000,,,-1287378671552261120,0.0,140.66495350562036,0.6127881932998325,18.87047341539754,7,32,0.0,15,374522357151458,14,30.8,-310.0726623535156,0.06630000472068787,0,0.0,0.0,,,,,0,,1,,
Raw,10017340,10250881000000,,,-1287378671552261120,0.0,140.66495350562036,0.6127881932998325,18.87047341539754,7,21,0.0,15,374508346663787,31,23.0,-524.094970703125,0.640500009059906,0,0.0,0.0,,,,,0,,5,,
Raw,10017341,10250881000000,,,-1287378671552261120,0.0,140.66495350562036,0.6127881932998325,18.87047341539754,7,26,0.0,7183,374522346999203,11,33.2,366.0914001464844,0.04990000277757645,0,0.0,0.0,,,,,0,,6,,
Raw,10017341,10250881000000,,,-1287378671552261120,0.0,140.66495350562036,0.6127881932998325,18.87047341539754,7,33,0.0,7183,374522340769496,17,28.7,93.57910919189453,0.0723000019788742,0,0.0,0.0,,,,,0,,6,,
Fix,gps,22.925420,120.294926,31.726807,0.810000,15.008000,1603353705000
NMEA,$GPGSV,3,1,11,31,21,237,36,32,28,310,31,10,63,326,,12,42,085,*79,1603353704427
NMEA,$GPGSV,3,2,11,15,14,087,,18,21,194,,20,75,163,,21,04,309,*79,1603353704432
NMEA,$GPGSV,3,3,11,23,80,127,,24,25,037,,25,48,143,*4C,1603353704433
NMEA,$GLGSV,1,1,03,82,02,230,14,79,16,205,30,83,05,274,20*5A,1603353704433
NMEA,$GAGSV,2,1,07,26,21,239,33,33,11,288,29,07,54,025,,13,08,189,*61,1603353704434
NMEA,$GAGSV,2,2,07,21,11,201,,27,56,168,,30,49,060,*5E,1603353704437
NMEA,$PQGSV,1,1,0,*73,1603353704437
NMEA,$PQGSV,4,1,16,21,12,317,23,01,51,130,,02,41,241,,03,60,202,,0,4*6F,1603353704438
