# 
# Header Description:
# 
# Version: v2.0.0.1 Platform: 8.0.0 Manufacturer: Sony Model: G8142
# 
# Raw,ElapsedRealtimeMillis,TimeNanos,LeapSecond,TimeUncertaintyNanos,FullBiasNanos,BiasNanos,BiasUncertaintyNanos,DriftNanosPerSecond,DriftUncertaintyNanosPerSecond,HardwareClockDiscontinuityCount,Svid,TimeOffsetNanos,State,ReceivedSvTimeNanos,ReceivedSvTimeUncertaintyNanos,Cn0DbHz,PseudorangeRateMetersPerSecond,PseudorangeRateUncertaintyMetersPerSecond,AccumulatedDeltaRangeState,AccumulatedDeltaRangeMeters,AccumulatedDeltaRangeUncertaintyMeters,CarrierFrequencyHz,CarrierCycles,CarrierPhase,CarrierPhaseUncertainty,MultipathIndicator,SnrInDb,ConstellationType,AgcDb,CarrierFrequencyHz
# 
# Fix,Provider,Latitude,Longitude,Altitude,Speed,Accuracy,(UTC)TimeInMs
# 
# Nav,Svid,Type,Status,MessageId,Sub-messageId,Data(Bytes)
# 
Raw,5088620,5092448000000,,,-1291005709998549504,0.0,233.39749895967543,-0.4556016414204765,29.16062049245509,3,9,0.0,207,32784376914560,21,26.8,-481.3209533691406,0.3352000117301941,0,0.0,0.0,,,,,0,,3,,
Raw,5088620,5092448000000,,,-1291005709998549504,0.0,233.39749895967543,-0.4556016414204765,29.16062049245509,3,16,0.0,207,32784382346004,1346,13.4,189.07411193847656,4.589500427246094,0,0.0,0.0,,,,,0,,3,,
Raw,5088621,5092448000000,,,-1291005709998549504,0.0,233.39749895967543,-0.4556016414204765,29.16062049245509,3,5,0.0,207,32784379665256,608,14.1,144.9049530029297,15.805000305175781,0,0.0,0.0,,,,,0,,3,,
Raw,5088621,5092448000000,,,-1291005709998549504,0.0,233.39749895967543,-0.4556016414204765,29.16062049245509,3,7,0.0,207,32784364216401,794,14.9,-682.7286987304688,18.377500534057617,0,0.0,0.0,,,,,0,,3,,
Raw,5088622,5092448000000,,,-1291005709998549504,0.0,233.39749895967543,-0.4556016414204765,29.16062049245509,3,10,0.0,15,367602379266894,395,16.4,72.98713684082031,12.535000801086426,0,0.0,0.0,,,,,0,,1,,
Raw,5088622,5092448000000,,,-1291005709998549504,0.0,233.39749895967543,-0.4556016414204765,29.16062049245509,3,12,0.0,15,367602372007509,98,16.3,409.7022705078125,3.5245001316070557,0,0.0,0.0,,,,,0,,1,,
Raw,5088622,5092448000000,,,-1291005709998549504,0.0,233.39749895967543,-0.4556016414204765,29.16062049245509,3,20,0.0,15,367602375337269,512,17.4,541.02392578125,14.689001083374023,0,0.0,0.0,,,,,0,,1,,
Raw,5088623,5092448000000,,,-1291005709998549504,0.0,233.39749895967543,-0.4556016414204765,29.16062049245509,3,23,0.0,15,367602375724673,27,24.9,472.9273376464844,0.6389999985694885,0,0.0,0.0,,,,,0,,1,,
Raw,5088623,5092448000000,,,-1291005709998549504,0.0,233.39749895967543,-0.4556016414204765,29.16062049245509,3,25,0.0,15,367602378441006,96,15.4,-23.758163452148438,2.133500099182129,0,0.0,0.0,,,,,0,,1,,
Raw,5088623,5092448000000,,,-1291005709998549504,0.0,233.39749895967543,-0.4556016414204765,29.16062049245509,3,26,0.0,15,367602364451661,11,33.5,-713.808349609375,0.02890000119805336,0,0.0,0.0,,,,,0,,1,,
Raw,5088624,5092448000000,,,-1291005709998549504,0.0,233.39749895967543,-0.4556016414204765,29.16062049245509,3,31,0.0,15,367602373399182,13,31.4,-273.2658386230469,0.04470000043511391,0,0.0,0.0,,,,,0,,1,,
Raw,5088624,5092448000000,,,-1291005709998549504,0.0,233.39749895967543,-0.4556016414204765,29.16062049245509,3,2,0.0,783,367588321652057,87,22.2,-0.8545758128166199,5.164999961853027,0,0.0,0.0,,,,,0,,5,,
Raw,5088625,5092448000000,,,-1291005709998549504,0.0,233.39749895967543,-0.4556016414204765,29.16062049245509,3,5,0.0,783,367588313525287,42,22.7,3.936809539794922,2.1649999618530273,0,0.0,0.0,,,,,0,,5,,
Raw,5088625,5092448000000,,,-1291005709998549504,0.0,233.39749895967543,-0.4556016414204765,29.16062049245509,3,8,0.0,15,367588314926691,27,24.0,356.7421569824219,0.5975000262260437,0,0.0,0.0,,,,,0,,5,,
Raw,5088625,5092448000000,,,-1291005709998549504,0.0,233.39749895967543,-0.4556016414204765,29.16062049245509,3,10,0.0,15,367588317257795,31,23.2,-232.6558380126953,0.6420000195503235,0,0.0,0.0,,,,,0,,5,,
Raw,5088626,5092448000000,,,-1291005709998549504,0.0,233.39749895967543,-0.4556016414204765,29.16062049245509,3,13,0.0,15,367588318514923,35,22.8,351.32666015625,0.643500030040741,0,0.0,0.0,,,,,0,,5,,
Raw,5088626,5092448000000,,,-1291005709998549504,0.0,233.39749895967543,-0.4556016414204765,29.16062049245509,3,19,0.0,15,367588368142326,150,15.0,427.8448181152344,5.678500175476074,0,0.0,0.0,,,,,0,,5,,
Raw,5088626,5092448000000,,,-1291005709998549504,0.0,233.39749895967543,-0.4556016414204765,29.16062049245509,3,21,0.0,15,367588365643594,147,14.8,-508.9238586425781,4.924000263214111,0,0.0,0.0,,,,,0,,5,,
Raw,5088627,5092448000000,,,-1291005709998549504,0.0,233.39749895967543,-0.4556016414204765,29.16062049245509,3,22,0.0,15,367588373708216,46,20.2,-70.38247680664062,0.8059999942779541,0,0.0,0.0,,,,,0,,5,,
Raw,5088627,5092448000000,,,-1291005709998549504,0.0,233.39749895967543,-0.4556016414204765,29.16062049245509,3,26,0.0,15,367588362606605,12,32.1,-480.3726806640625,0.026900000870227814,0,0.0,0.0,,,,,0,,5,,
Fix,gps,22.925493,120.294792,35.929077,0.000000,25.728001,1606975585000
NMEA,$GPGSV,3,1,10,10,78,224,16,12,00,000,16,20,00,000,17,23,51,161,25*73,1606975584899
NMEA,$GPGSV,3,2,10,25,64,094,15,26,09,205,34,31,37,264,31,21,00,000,*7F,1606975584900
NMEA,$GPGSV,3,3,10,24,05,052,,29,06,137,*74,1606975584900
NMEA,$GLGSV,2,1,07,73,40,224,27,80,74,333,13,69,53,095,14,71,00,000,15*68,1606975584900
NMEA,$GLGSV,2,2,07,70,43,347,,79,21,025,,68,10,129,*5D,1606975584900
NMEA,$GAGSV,1,1,0,*74,1606975584900
NMEA,$PQGSV,1,1,03,193,67,108,16,194,71,078,18,195,16,154,,0,5*6B,1606975584904
NMEA,$PQGSV,4,1,14,02,41,241,22,05,17,258,23,08,20,198,24,10,29,194,23,0,4*6D,1606975584904
NMEA,$PQGSV,4,2,14,13,30,222,23,19,35,130,15,21,31,323,15,22,80,030,20,0,4*6C,1606975584905
NMEA,$PQGSV,4,3,14,26,15,232,32,01,51,129,,03,59,202,,06,54,005,,0,4*69,1606975584905
NMEA,$PQGSV,4,4,14,07,50,172,,09,43,323,,0,4*64,1606975584905
NMEA,$GNGSA,A,2,26,31,,,,,,,,,,,7.9,7.9,1.0,1*37,1606975584905
NMEA,$GNGSA,A,2,73,,,,,,,,,,,,7.9,7.9,1.0,2*36,1606975584906
NMEA,$PQGSA,A,2,26,,,,,,,,,,,,7.9,7.9,1.0,4*38,1606975584906
NMEA,$GNVTG,,T,,M,0.0,N,0.0,K,A*3D,1606975584906
NMEA,$GNRMC,060625.00,A,2255.529556,N,12017.687492,E,0.0,,031220,2.8,W,A*13,1606975584906
NMEA,$GNGGA,060625.00,2255.529556,N,12017.687492,E,1,04,7.9,18.5,M,17.5,M,,*4B,1606975584907
Fix,gps,22.925493,120.294791,36.098877,0.000000,28.944000,1606975586000
NMEA,$GPGSV,3,1,10,10,78,224,16,12,00,000,14,20,00,000,17,23,51,161,24*70,1606975585898
NMEA,$GPGSV,3,2,10,25,64,094,15,26,09,205,32,31,37,264,31,21,00,000,*79,1606975585898
NMEA,$GPGSV,3,3,10,24,05,052,,29,06,137,*74,1606975585899
Raw,5089620,5093448000000,,,-1291005709998549504,0.0,265.65190637484193,-0.4132993218735093,28.211207146124696,3,9,0.0,207,32785376916131,21,26.0,-483.2375183105469,0.3352000117301941,0,0.0,0.0,,,,,0,,3,,
Raw,5089620,5093448000000,,,-1291005709998549504,0.0,265.65190637484193,-0.4132993218735093,28.211207146124696,3,16,0.0,207,32785382345426,1360,13.4,189.0928497314453,5.339500427246094,0,0.0,0.0,,,,,0,,3,,
Raw,5089620,5093448000000,,,-1291005709998549504,0.0,265.65190637484193,-0.4132993218735093,28.211207146124696,3,5,0.0,207,32785379664773,713,14.1,144.9049530029297,17.30500030517578,0,0.0,0.0,,,,,0,,3,,
Raw,5089621,5093448000000,,,-1291005709998549504,0.0,265.65190637484193,-0.4132993218735093,28.211207146124696,3,7,0.0,207,32785364218679,917,14.9,-682.7286987304688,19.877500534057617,0,0.0,0.0,,,,,0,,3,,
Raw,5089621,5093448000000,,,-1291005709998549504,0.0,265.65190637484193,-0.4132993218735093,28.211207146124696,3,10,0.0,15,367603379266650,480,16.4,72.98713684082031,14.035000801086426,0,0.0,0.0,,,,,0,,1,,
Raw,5089621,5093448000000,,,-1291005709998549504,0.0,265.65190637484193,-0.4132993218735093,28.211207146124696,3,12,0.0,15,367603372006207,110,14.4,408.43682861328125,2.244500160217285,0,0.0,0.0,,,,,0,,1,,
Raw,5089621,5093448000000,,,-1291005709998549504,0.0,265.65190637484193,-0.4132993218735093,28.211207146124696,3,20,0.0,15,367603375335465,611,17.4,541.02392578125,16.189001083374023,0,0.0,0.0,,,,,0,,1,,
Raw,5089622,5093448000000,,,-1291005709998549504,0.0,265.65190637484193,-0.4132993218735093,28.211207146124696,3,23,0.0,15,367603375723057,31,23.6,471.6523742675781,0.6889999508857727,0,0.0,0.0,,,,,0,,1,,
Raw,5089622,5093448000000,,,-1291005709998549504,0.0,265.65190637484193,-0.4132993218735093,28.211207146124696,3,25,0.0,15,367603378441085,111,15.4,-23.758163452148438,3.633500099182129,0,0.0,0.0,,,,,0,,1,,
Raw,5089622,5093448000000,,,-1291005709998549504,0.0,265.65190637484193,-0.4132993218735093,28.211207146124696,3,26,0.0,15,367603364454057,12,32.0,-715.2606811523438,0.029900001361966133,0,0.0,0.0,,,,,0,,1,,
Raw,5089622,5093448000000,,,-1291005709998549504,0.0,265.65190637484193,-0.4132993218735093,28.211207146124696,3,31,0.0,15,367603373400093,13,31.0,-274.6723327636719,0.04470000043511391,0,0.0,0.0,,,,,0,,1,,
Raw,5089623,5093448000000,,,-1291005709998549504,0.0,265.65190637484193,-0.4132993218735093,28.211207146124696,3,2,0.0,783,367589321652023,42,22.2,9.179487228393555,2.1649999618530273,0,0.0,0.0,,,,,0,,5,,
Raw,5089623,5093448000000,,,-1291005709998549504,0.0,265.65190637484193,-0.4132993218735093,28.211207146124696,3,5,0.0,783,367589313525274,59,22.7,3.936809539794922,3.6650002002716064,0,0.0,0.0,,,,,0,,5,,
Raw,5089623,5093448000000,,,-1291005709998549504,0.0,265.65190637484193,-0.4132993218735093,28.211207146124696,3,8,0.0,15,367589314925580,31,23.2,355.1386413574219,0.6375000476837158,0,0.0,0.0,,,,,0,,5,,
Raw,5089623,5093448000000,,,-1291005709998549504,0.0,265.65190637484193,-0.4132993218735093,28.211207146124696,3,10,0.0,15,367589317258603,31,23.5,-233.85609436035156,0.6420000195503235,0,0.0,0.0,,,,,0,,5,,
Raw,5089623,5093448000000,,,-1291005709998549504,0.0,265.65190637484193,-0.4132993218735093,28.211207146124696,3,13,0.0,15,367589318513747,40,21.6,350.9041442871094,0.7534999847412109,0,0.0,0.0,,,,,0,,5,,
Raw,5089624,5093448000000,,,-1291005709998549504,0.0,265.65190637484193,-0.4132993218735093,28.211207146124696,3,19,0.0,15,367589368140899,189,15.0,427.8448181152344,7.178500175476074,0,0.0,0.0,,,,,0,,5,,
Raw,5089624,5093448000000,,,-1291005709998549504,0.0,265.65190637484193,-0.4132993218735093,28.211207146124696,3,21,0.0,15,367589365645291,181,14.8,-508.9238586425781,6.424000263214111,0,0.0,0.0,,,,,0,,5,,
Raw,5089624,5093448000000,,,-1291005709998549504,0.0,265.65190637484193,-0.4132993218735093,28.211207146124696,3,22,0.0,15,367589373708455,53,19.2,-71.01620483398438,0.8659999966621399,0,0.0,0.0,,,,,0,,5,,
Raw,5089624,5093448000000,,,-1291005709998549504,0.0,265.65190637484193,-0.4132993218735093,28.211207146124696,3,26,0.0,15,367589362608198,12,32.0,-481.7737121582031,0.026900000870227814,0,0.0,0.0,,,,,0,,5,,
NMEA,$GLGSV,2,1,07,73,40,224,26,80,74,333,13,69,53,095,14,71,00,000,15*69,1606975585899
NMEA,$GLGSV,2,2,07,70,43,347,,79,21,025,,68,10,129,*5D,1606975585900
NMEA,$GAGSV,1,1,0,*74,1606975585901
NMEA,$PQGSV,1,1,03,193,67,108,16,194,71,078,18,195,16,154,,0,5*6B,1606975585901
NMEA,$PQGSV,4,1,14,02,41,241,22,05,17,258,23,08,20,198,23,10,29,194,24,0,4*6D,1606975585901
NMEA,$PQGSV,4,2,14,13,30,222,22,19,35,130,15,21,31,323,15,22,80,030,19,0,4*67,1606975585902
NMEA,$PQGSV,4,3,14,26,15,232,32,01,51,129,,03,59,202,,06,54,005,,0,4*69,1606975585902
NMEA,$PQGSV,4,4,14,07,50,172,,09,43,323,,0,4*64,1606975585903
NMEA,$GNGSA,A,2,26,31,,,,,,,,,,,7.9,7.9,1.0,1*37,1606975585904
NMEA,$GNGSA,A,2,73,,,,,,,,,,,,7.9,7.9,1.0,2*36,1606975585904
NMEA,$PQGSA,A,2,26,,,,,,,,,,,,7.9,7.9,1.0,4*38,1606975585904
NMEA,$GNVTG,,T,,M,0.0,N,0.0,K,A*3D,1606975585904
NMEA,$GNRMC,060626.00,A,2255.529555,N,12017.687489,E,0.0,,031220,2.8,W,A*19,1606975585905
NMEA,$GNGGA,060626.00,2255.529555,N,12017.687489,E,1,04,7.9,18.6,M,17.5,M,,*42,1606975585905
Fix,gps,22.925493,120.294791,36.278809,0.000000,32.160000,1606975587000
NMEA,$GPGSV,3,1,10,10,78,224,16,12,00,000,14,20,00,000,17,23,51,161,25*71,1606975586899
NMEA,$GPGSV,3,2,10,25,64,094,15,26,09,205,32,31,37,264,32,21,00,000,*7A,1606975586899
NMEA,$GPGSV,3,3,10,24,05,052,,29,06,137,*74,1606975586899
Raw,5090621,5094448000000,,,-1291005709998549504,0.0,297.67228988930583,-4.909892108283881,27.263934690259735,3,9,0.0,207,32786376917800,21,26.9,-481.8308410644531,0.750499963760376,0,0.0,0.0,,,,,0,,3,,
Raw,5090621,5094448000000,,,-1291005709998549504,0.0,297.67228988930583,-4.909892108283881,27.263934690259735,3,16,0.0,207,32786382344803,1376,13.4,188.89627075195312,6.089500427246094,0,0.0,0.0,,,,,0,,3,,
Raw,5090621,5094448000000,,,-1291005709998549504,0.0,297.67228988930583,-4.909892108283881,27.263934690259735,3,5,0.0,207,32786379664289,828,14.1,144.9049530029297,18.80500030517578,0,0.0,0.0,,,,,0,,3,,
Raw,5090621,5094448000000,,,-1291005709998549504,0.0,297.67228988930583,-4.909892108283881,27.263934690259735,3,7,0.0,207,32786364220956,1049,14.9,-682.7286987304688,21.377500534057617,0,0.0,0.0,,,,,0,,3,,
Raw,5090621,5094448000000,,,-1291005709998549504,0.0,297.67228988930583,-4.909892108283881,27.263934690259735,3,10,0.0,15,367604379266407,574,16.4,72.98713684082031,15.535000801086426,0,0.0,0.0,,,,,0,,1,,
Raw,5090622,5094448000000,,,-1291005709998549504,0.0,297.67228988930583,-4.909892108283881,27.263934690259735,3,12,0.0,15,367604372004845,125,14.4,408.43682861328125,3.744500160217285,0,0.0,0.0,,,,,0,,1,,
Raw,5090622,5094448000000,,,-1291005709998549504,0.0,297.67228988930583,-4.909892108283881,27.263934690259735,3,20,0.0,15,367604375333660,720,17.4,541.02392578125,17.689001083374023,0,0.0,0.0,,,,,0,,1,,
Raw,5090622,5094448000000,,,-1291005709998549504,0.0,297.67228988930583,-4.909892108283881,27.263934690259735,3,23,0.0,15,367604375721500,24,25.3,472.7177734375,0.4043000042438507,0,0.0,0.0,,,,,0,,1,,
Raw,5090622,5094448000000,,,-1291005709998549504,0.0,297.67228988930583,-4.909892108283881,27.263934690259735,3,25,0.0,15,367604378441045,110,14.9,-23.291946411132812,2.133500099182129,0,0.0,0.0,,,,,0,,1,,
Raw,5090623,5094448000000,,,-1291005709998549504,0.0,297.67228988930583,-4.909892108283881,27.263934690259735,3,26,0.0,15,367604364456437,13,31.9,-714.3478393554688,0.031200001016259193,0,0.0,0.0,,,,,0,,1,,
Raw,5090623,5094448000000,,,-1291005709998549504,0.0,297.67228988930583,-4.909892108283881,27.263934690259735,3,31,0.0,15,367604373401007,12,32.4,-273.67169189453125,0.04340000078082085,0,0.0,0.0,,,,,0,,1,,
Raw,5090623,5094448000000,,,-1291005709998549504,0.0,297.67228988930583,-4.909892108283881,27.263934690259735,3,2,0.0,783,367590321651992,59,22.2,9.179487228393555,3.6650002002716064,0,0.0,0.0,,,,,0,,5,,
Raw,5090623,5094448000000,,,-1291005709998549504,0.0,297.67228988930583,-4.909892108283881,27.263934690259735,3,5,0.0,783,367590313525260,87,22.7,3.936809539794922,5.164999961853027,0,0.0,0.0,,,,,0,,5,,
Raw,5090623,5094448000000,,,-1291005709998549504,0.0,297.67228988930583,-4.909892108283881,27.263934690259735,3,8,0.0,15,367590314924355,27,24.8,355.8011779785156,0.5475000143051147,0,0.0,0.0,,,,,0,,5,,
Raw,5090624,5094448000000,,,-1291005709998549504,0.0,297.67228988930583,-4.909892108283881,27.263934690259735,3,10,0.0,15,367590317259384,40,21.8,-232.61744689941406,0.6919999718666077,0,0.0,0.0,,,,,0,,5,,
Raw,5090624,5094448000000,,,-1291005709998549504,0.0,297.67228988930583,-4.909892108283881,27.263934690259735,3,13,0.0,15,367590318512601,35,22.0,350.4720764160156,0.6934999823570251,0,0.0,0.0,,,,,0,,5,,
Raw,5090624,5094448000000,,,-1291005709998549504,0.0,297.67228988930583,-4.909892108283881,27.263934690259735,3,19,0.0,15,367590368139472,238,15.0,427.8448181152344,8.678500175476074,0,0.0,0.0,,,,,0,,5,,
Raw,5090624,5094448000000,,,-1291005709998549504,0.0,297.67228988930583,-4.909892108283881,27.263934690259735,3,21,0.0,15,367590365646989,226,14.8,-508.9238586425781,7.924000263214111,0,0.0,0.0,,,,,0,,5,,
Raw,5090625,5094448000000,,,-1291005709998549504,0.0,297.67228988930583,-4.909892108283881,27.263934690259735,3,22,0.0,15,367590373708689,61,18.9,-70.81455993652344,0.8659999966621399,0,0.0,0.0,,,,,0,,5,,
Raw,5090625,5094448000000,,,-1291005709998549504,0.0,297.67228988930583,-4.909892108283881,27.263934690259735,3,26,0.0,15,367590362609809,12,32.2,-480.8328857421875,0.026900000870227814,0,0.0,0.0,,,,,0,,5,,
NMEA,$GLGSV,2,1,07,73,40,224,27,80,74,333,13,69,53,095,14,71,00,000,15*68,1606975586899
NMEA,$GLGSV,2,2,07,70,43,347,,79,21,025,,68,10,129,*5D,1606975586899
NMEA,$GAGSV,1,1,0,*74,1606975586900
NMEA,$PQGSV,1,1,03,193,67,108,16,194,71,078,18,195,16,154,,0,5*6B,1606975586902
NMEA,$PQGSV,4,1,14,02,41,241,22,05,17,258,23,08,20,198,25,10,29,194,22,0,4*6D,1606975586902
NMEA,$PQGSV,4,2,14,13,30,222,22,19,35,130,15,21,31,323,15,22,80,030,19,0,4*67,1606975586902
NMEA,$PQGSV,4,3,14,26,15,232,32,01,51,129,,03,59,202,,06,54,005,,0,4*69,1606975586903
NMEA,$PQGSV,4,4,14,07,50,172,,09,43,323,,0,4*64,1606975586903
NMEA,$GNGSA,A,2,26,31,,,,,,,,,,,7.9,7.9,1.0,1*37,1606975586905
NMEA,$GNGSA,A,2,73,,,,,,,,,,,,7.9,7.9,1.0,2*36,1606975586905
NMEA,$PQGSA,A,2,26,,,,,,,,,,,,7.9,7.9,1.0,4*38,1606975586905
NMEA,$GNVTG,,T,,M,0.0,N,0.0,K,A*3D,1606975586905
NMEA,$GNRMC,060627.00,A,2255.529554,N,12017.687484,E,0.0,,031220,2.8,W,A*14,1606975586905
NMEA,$GNGGA,060627.00,2255.529554,N,12017.687484,E,1,04,7.9,18.8,M,17.5,M,,*41,1606975586906
Fix,gps,22.925493,120.294791,36.443054,0.000000,35.375999,1606975588000
Raw,5091638,5095448000000,,,-1291005709998549504,0.0,329.56473296508193,-2.232754110967834,27.304093087340934,3,9,0.0,207,32787376919367,19,27.0,-483.3808898925781,0.2653000056743622,0,0.0,0.0,,,,,0,,3,,
Raw,5091638,5095448000000,,,-1291005709998549504,0.0,329.56473296508193,-2.232754110967834,27.304093087340934,3,16,0.0,207,32787382344180,1597,12.2,188.6342010498047,6.959500312805176,0,0.0,0.0,,,,,0,,3,,
Raw,5091638,5095448000000,,,-1291005709998549504,0.0,329.56473296508193,-2.232754110967834,27.304093087340934,3,5,0.0,207,32787379663806,953,14.1,144.9049530029297,20.30500030517578,0,0.0,0.0,,,,,0,,3,,
Raw,5091638,5095448000000,,,-1291005709998549504,0.0,329.56473296508193,-2.232754110967834,27.304093087340934,3,7,0.0,207,32787364223233,1192,14.9,-682.7286987304688,22.877500534057617,0,0.0,0.0,,,,,0,,3,,
Raw,5091639,5095448000000,,,-1291005709998549504,0.0,329.56473296508193,-2.232754110967834,27.304093087340934,3,10,0.0,15,367605379266163,679,16.4,72.98713684082031,17.03499984741211,0,0.0,0.0,,,,,0,,1,,
Raw,5091639,5095448000000,,,-1291005709998549504,0.0,329.56473296508193,-2.232754110967834,27.304093087340934,3,12,0.0,15,367605372003506,126,13.7,408.8174133300781,2.244500160217285,0,0.0,0.0,,,,,0,,1,,
Raw,5091639,5095448000000,,,-1291005709998549504,0.0,329.56473296508193,-2.232754110967834,27.304093087340934,3,20,0.0,15,367605375331855,840,17.4,541.02392578125,19.189001083374023,0,0.0,0.0,,,,,0,,1,,
Raw,5091639,5095448000000,,,-1291005709998549504,0.0,329.56473296508193,-2.232754110967834,27.304093087340934,3,23,0.0,15,367605375719932,24,25.1,471.08355712890625,0.4043000042438507,0,0.0,0.0,,,,,0,,1,,
Raw,5091639,5095448000000,,,-1291005709998549504,0.0,329.56473296508193,-2.232754110967834,27.304093087340934,3,25,0.0,15,367605378441123,125,14.9,-23.291946411132812,3.633500099182129,0,0.0,0.0,,,,,0,,1,,
Raw,5091640,5095448000000,,,-1291005709998549504,0.0,329.56473296508193,-2.232754110967834,27.304093087340934,3,26,0.0,15,367605364458822,13,31.6,-716.1671752929688,0.031200001016259193,0,0.0,0.0,,,,,0,,1,,
Raw,5091640,5095448000000,,,-1291005709998549504,0.0,329.56473296508193,-2.232754110967834,27.304093087340934,3,31,0.0,15,367605373401900,12,32.2,-275.428466796875,0.04340000078082085,0,0.0,0.0,,,,,0,,1,,
Raw,5091640,5095448000000,,,-1291005709998549504,0.0,329.56473296508193,-2.232754110967834,27.304093087340934,3,2,0.0,783,367591321651962,87,22.2,9.179487228393555,5.164999961853027,0,0.0,0.0,,,,,0,,5,,
Raw,5091640,5095448000000,,,-1291005709998549504,0.0,329.56473296508193,-2.232754110967834,27.304093087340934,3,5,0.0,783,367591313525250,34,24.5,7.652774333953857,2.075000047683716,0,0.0,0.0,,,,,0,,5,,
Raw,5091641,5095448000000,,,-1291005709998549504,0.0,329.56473296508193,-2.232754110967834,27.304093087340934,3,8,0.0,15,367591314923178,31,23.6,354.1880187988281,0.6375000476837158,0,0.0,0.0,,,,,0,,5,,
Raw,5091641,5095448000000,,,-1291005709998549504,0.0,329.56473296508193,-2.232754110967834,27.304093087340934,3,10,0.0,15,367591317260169,35,22.8,-234.68186950683594,0.6420000195503235,0,0.0,0.0,,,,,0,,5,,
Raw,5091641,5095448000000,,,-1291005709998549504,0.0,329.56473296508193,-2.232754110967834,27.304093087340934,3,13,0.0,15,367591318511430,40,21.9,349.49267578125,0.6934999823570251,0,0.0,0.0,,,,,0,,5,,
Raw,5091641,5095448000000,,,-1291005709998549504,0.0,329.56473296508193,-2.232754110967834,27.304093087340934,3,19,0.0,15,367591368138045,297,15.0,427.8448181152344,10.178500175476074,0,0.0,0.0,,,,,0,,5,,
Raw,5091642,5095448000000,,,-1291005709998549504,0.0,329.56473296508193,-2.232754110967834,27.304093087340934,3,21,0.0,15,367591365648652,101,15.8,-511.5548095703125,2.5840001106262207,0,0.0,0.0,,,,,0,,5,,
Raw,5091642,5095448000000,,,-1291005709998549504,0.0,329.56473296508193,-2.232754110967834,27.304093087340934,3,22,0.0,15,367591373708953,46,20.6,-72.46610260009766,0.8059999942779541,0,0.0,0.0,,,,,0,,5,,
Raw,5091642,5095448000000,,,-1291005709998549504,0.0,329.56473296508193,-2.232754110967834,27.304093087340934,3,26,0.0,15,367591362611416,12,32.1,-482.5879821777344,0.026900000870227814,0,0.0,0.0,,,,,0,,5,,
NMEA,$GPGSV,3,1,10,10,78,224,16,12,00,000,14,20,00,000,17,23,51,161,25*71,1606975587910
NMEA,$GPGSV,3,2,10,25,64,094,15,26,09,205,32,31,37,264,32,21,00,000,*7A,1606975587910
NMEA,$GPGSV,3,3,10,24,05,052,,29,06,137,*74,1606975587911
NMEA,$GLGSV,2,1,07,73,40,224,27,80,74,333,12,69,53,095,14,71,00,000,15*69,1606975587912
NMEA,$GLGSV,2,2,07,70,43,347,,79,21,025,,68,10,129,*5D,1606975587915
NMEA,$GAGSV,1,1,0,*74,1606975587918
NMEA,$PQGSV,1,1,03,193,67,108,18,194,71,078,18,195,16,154,,0,5*65,1606975587919
NMEA,$PQGSV,4,1,14,02,41,241,22,05,17,258,25,08,20,198,24,10,29,194,23,0,4*6B,1606975587921
NMEA,$PQGSV,4,2,14,13,30,222,22,19,35,130,15,21,31,323,16,22,80,030,21,0,4*6F,1606975587921
NMEA,$PQGSV,4,3,14,26,15,232,32,01,51,129,,03,59,202,,06,54,005,,0,4*69,1606975587922
NMEA,$PQGSV,4,4,14,07,50,172,,09,43,323,,0,4*64,1606975587923
NMEA,$GNGSA,A,2,26,31,,,,,,,,,,,7.9,7.9,1.0,1*37,1606975587925
NMEA,$GNGSA,A,2,73,,,,,,,,,,,,7.9,7.9,1.0,2*36,1606975587926
NMEA,$PQGSA,A,2,26,,,,,,,,,,,,7.9,7.9,1.0,4*38,1606975587927
NMEA,$GNVTG,,T,,M,0.0,N,0.0,K,A*3D,1606975587928
NMEA,$GNRMC,060628.00,A,2255.529550,N,12017.687482,E,0.0,,031220,2.8,W,A*19,1606975587929
NMEA,$GNGGA,060628.00,2255.529550,N,12017.687482,E,1,04,7.9,19.0,M,17.5,M,,*45,1606975587930
Fix,gps,22.925492,120.294791,36.337341,0.000000,34.304001,1606975589000
Raw,5092641,5096448000000,,,-1291005709998549504,0.0,360.04630965180695,-7.658710371072873,27.316429451716797,3,9,0.0,207,32788376921024,21,26.3,-482.20068359375,0.3352000117301941,0,0.0,0.0,,,,,0,,3,,
Raw,5092642,5096448000000,,,-1291005709998549504,0.0,360.04630965180695,-7.658710371072873,27.316429451716797,3,16,0.0,207,32788382343589,1416,13.2,188.82139587402344,7.589500427246094,0,0.0,0.0,,,,,0,,3,,
Raw,5092642,5096448000000,,,-1291005709998549504,0.0,360.04630965180695,-7.658710371072873,27.316429451716797,3,5,0.0,207,32788379663323,1089,14.1,144.9049530029297,21.80500030517578,0,0.0,0.0,,,,,0,,3,,
Raw,5092642,5096448000000,,,-1291005709998549504,0.0,360.04630965180695,-7.658710371072873,27.316429451716797,3,7,0.0,207,32788364225511,1344,14.9,-682.7286987304688,24.377500534057617,0,0.0,0.0,,,,,0,,3,,
Raw,5092642,5096448000000,,,-1291005709998549504,0.0,360.04630965180695,-7.658710371072873,27.316429451716797,3,10,0.0,15,367606379265849,341,9.9,71.7216796875,9.555000305175781,0,0.0,0.0,,,,,0,,1,,
Raw,5092643,5096448000000,,,-1291005709998549504,0.0,360.04630965180695,-7.658710371072873,27.316429451716797,3,12,0.0,15,367606372002142,141,13.7,408.8174133300781,3.744500160217285,0,0.0,0.0,,,,,0,,1,,
Raw,5092644,5096448000000,,,-1291005709998549504,0.0,360.04630965180695,-7.658710371072873,27.316429451716797,3,20,0.0,15,367606375330051,969,17.4,541.02392578125,20.689001083374023,0,0.0,0.0,,,,,0,,1,,
Raw,5092644,5096448000000,,,-1291005709998549504,0.0,360.04630965180695,-7.658710371072873,27.316429451716797,3,23,0.0,15,367606375718354,31,23.8,472.31842041015625,0.6889999508857727,0,0.0,0.0,,,,,0,,1,,
Raw,5092644,5096448000000,,,-1291005709998549504,0.0,360.04630965180695,-7.658710371072873,27.316429451716797,3,25,0.0,15,367606378441266,96,15.9,-24.7572078704834,2.0334999561309814,0,0.0,0.0,,,,,0,,1,,
Raw,5092645,5096448000000,,,-1291005709998549504,0.0,360.04630965180695,-7.658710371072873,27.316429451716797,3,26,0.0,15,367606364461192,13,31.4,-715.0995483398438,0.031200001016259193,0,0.0,0.0,,,,,0,,1,,
Raw,5092645,5096448000000,,,-1291005709998549504,0.0,360.04630965180695,-7.658710371072873,27.316429451716797,3,31,0.0,15,367606373402826,12,32.5,-274.2992858886719,0.04340000078082085,0,0.0,0.0,,,,,0,,1,,
Raw,5092646,5096448000000,,,-1291005709998549504,0.0,360.04630965180695,-7.658710371072873,27.316429451716797,3,2,0.0,783,367592321652046,47,21.9,-2.5829310417175293,2.1649999618530273,0,0.0,0.0,,,,,0,,5,,
Raw,5092647,5096448000000,,,-1291005709998549504,0.0,360.04630965180695,-7.658710371072873,27.316429451716797,3,5,0.0,783,367592313525225,51,24.5,7.652774333953857,3.575000047683716,0,0.0,0.0,,,,,0,,5,,
Raw,5092647,5096448000000,,,-1291005709998549504,0.0,360.04630965180695,-7.658710371072873,27.316429451716797,3,8,0.0,15,367592314922026,31,23.9,355.42669677734375,0.5975000262260437,0,0.0,0.0,,,,,0,,5,,
Raw,5092647,5096448000000,,,-1291005709998549504,0.0,360.04630965180695,-7.658710371072873,27.316429451716797,3,10,0.0,15,367592317260928,35,22.5,-234.20176696777344,0.6919999718666077,0,0.0,0.0,,,,,0,,5,,
Raw,5092648,5096448000000,,,-1291005709998549504,0.0,360.04630965180695,-7.658710371072873,27.316429451716797,3,13,0.0,15,367592318510275,35,22.5,350.0879821777344,0.6934999823570251,0,0.0,0.0,,,,,0,,5,,
Raw,5092648,5096448000000,,,-1291005709998549504,0.0,360.04630965180695,-7.658710371072873,27.316429451716797,3,19,0.0,15,367592368136618,366,15.0,427.8448181152344,11.678500175476074,0,0.0,0.0,,,,,0,,5,,
Raw,5092649,5096448000000,,,-1291005709998549504,0.0,360.04630965180695,-7.658710371072873,27.316429451716797,3,21,0.0,15,367592365650358,120,15.8,-511.5548095703125,4.084000110626221,0,0.0,0.0,,,,,0,,5,,
Raw,5092649,5096448000000,,,-1291005709998549504,0.0,360.04630965180695,-7.658710371072873,27.316429451716797,3,22,0.0,15,367592373709138,40,21.0,-70.7281494140625,0.7459999918937683,0,0.0,0.0,,,,,0,,5,,
Raw,5092650,5096448000000,,,-1291005709998549504,0.0,360.04630965180695,-7.658710371072873,27.316429451716797,3,26,0.0,15,367592362613022,13,31.9,-481.5021667480469,0.028200000524520874,0,0.0,0.0,,,,,0,,5,,
NMEA,$GPGSV,3,1,10,10,78,224,10,12,00,000,14,20,00,000,17,23,51,161,24*76,1606975588899
NMEA,$GPGSV,3,2,10,25,64,094,16,26,09,205,31,31,37,264,33,21,00,000,*7B,1606975588899
NMEA,$GPGSV,3,3,10,24,05,052,,29,06,137,*74,1606975588900
NMEA,$GLGSV,2,1,07,73,40,224,26,80,74,333,13,69,53,095,14,71,00,000,15*69,1606975588903
NMEA,$GLGSV,2,2,07,70,43,347,,79,21,025,,68,10,129,*5D,1606975588903
NMEA,$GAGSV,1,1,0,*74,1606975588903
NMEA,$PQGSV,1,1,03,193,67,108,18,194,71,078,18,195,16,154,,0,5*65,1606975588904
NMEA,$PQGSV,4,1,14,02,41,241,22,05,17,258,25,08,20,198,24,10,29,194,23,0,4*6B,1606975588904
NMEA,$PQGSV,4,2,14,13,30,222,23,19,35,130,15,21,31,323,16,22,80,030,21,0,4*6E,1606975588904
NMEA,$PQGSV,4,3,14,26,15,232,32,01,51,129,,03,59,202,,06,54,005,,0,4*69,1606975588904
NMEA,$PQGSV,4,4,14,07,50,172,,09,43,323,,0,4*64,1606975588905
NMEA,$GNGSA,A,2,26,31,,,,,,,,,,,2.8,2.7,1.0,1*38,1606975588905
NMEA,$GNGSA,A,2,73,,,,,,,,,,,,2.8,2.7,1.0,2*39,1606975588906
NMEA,$PQGSA,A,2,26,,,,,,,,,,,,2.8,2.7,1.0,4*37,1606975588906
NMEA,$GNVTG,,T,,M,0.0,N,0.0,K,A*3D,1606975588906
NMEA,$GNRMC,060629.00,A,2255.529546,N,12017.687475,E,0.0,,031220,2.8,W,A*17,1606975588906
NMEA,$GNGGA,060629.00,2255.529546,N,12017.687475,E,1,04,2.7,18.9,M,17.5,M,,*48,1606975588906
Fix,gps,22.925492,120.294791,36.220093,0.000000,32.160000,1606975590000
NMEA,$GPGSV,3,1,10,10,78,224,10,12,00,000,15,20,00,000,17,23,51,161,25*76,1606975589899
NMEA,$GPGSV,3,2,10,25,64,094,17,26,09,205,32,31,37,264,32,21,00,000,*78,1606975589899
NMEA,$GPGSV,3,3,10,24,05,052,,29,06,137,*74,1606975589899
Raw,5093626,5097448000000,,,-1291005709998549504,0.0,345.17113817855716,-4.578752738546377,27.303806786981514,3,9,0.0,207,32789376922535,21,26.1,-484.1998291015625,0.750499963760376,0,0.0,0.0,,,,,0,,3,,
Raw,5093627,5097448000000,,,-1291005709998549504,0.0,345.17113817855716,-4.578752738546377,27.303806786981514,3,16,0.0,207,32789382342911,1440,13.4,188.84011840820312,8.339500427246094,0,0.0,0.0,,,,,0,,3,,
Raw,5093628,5097448000000,,,-1291005709998549504,0.0,345.17113817855716,-4.578752738546377,27.303806786981514,3,5,0.0,207,32789379662839,1234,14.1,144.9049530029297,23.30500030517578,0,0.0,0.0,,,,,0,,3,,
Raw,5093628,5097448000000,,,-1291005709998549504,0.0,345.17113817855716,-4.578752738546377,27.303806786981514,3,7,0.0,207,32789364227788,1507,14.9,-682.7286987304688,25.877500534057617,0,0.0,0.0,,,,,0,,3,,
Raw,5093629,5097448000000,,,-1291005709998549504,0.0,345.17113817855716,-4.578752738546377,27.303806786981514,3,10,0.0,15,367607379265610,403,9.9,71.7216796875,11.055000305175781,0,0.0,0.0,,,,,0,,1,,
Raw,5093629,5097448000000,,,-1291005709998549504,0.0,345.17113817855716,-4.578752738546377,27.303806786981514,3,12,0.0,15,367607372000601,110,14.9,407.3140869140625,2.124500036239624,0,0.0,0.0,,,,,0,,1,,
Raw,5093630,5097448000000,,,-1291005709998549504,0.0,345.17113817855716,-4.578752738546377,27.303806786981514,3,20,0.0,15,367607375328246,1108,17.4,541.02392578125,22.189001083374023,0,0.0,0.0,,,,,0,,1,,
Raw,5093630,5097448000000,,,-1291005709998549504,0.0,345.17113817855716,-4.578752738546377,27.303806786981514,3,23,0.0,15,367607375716755,27,24.6,470.7960510253906,0.6389999985694885,0,0.0,0.0,,,,,0,,1,,
Raw,5093631,5097448000000,,,-1291005709998549504,0.0,345.17113817855716,-4.578752738546377,27.303806786981514,3,25,0.0,15,367607378441660,81,16.8,-26.022659301757812,1.1934999227523804,0,0.0,0.0,,,,,0,,1,,
Raw,5093632,5097448000000,,,-1291005709998549504,0.0,345.17113817855716,-4.578752738546377,27.303806786981514,3,26,0.0,15,367607364463598,12,32.2,-716.7586059570312,0.029900001361966133,0,0.0,0.0,,,,,0,,1,,
Raw,5093632,5097448000000,,,-1291005709998549504,0.0,345.17113817855716,-4.578752738546377,27.303806786981514,3,31,0.0,15,367607373403766,13,31.7,-275.89483642578125,0.04470000043511391,0,0.0,0.0,,,,,0,,1,,
Raw,5093633,5097448000000,,,-1291005709998549504,0.0,345.17113817855716,-4.578752738546377,27.303806786981514,3,2,0.0,783,367593321652055,65,21.9,-2.5829310417175293,3.6650002002716064,0,0.0,0.0,,,,,0,,5,,
Raw,5093633,5097448000000,,,-1291005709998549504,0.0,345.17113817855716,-4.578752738546377,27.303806786981514,3,5,0.0,783,367593313525199,78,24.5,7.652774333953857,5.075000286102295,0,0.0,0.0,,,,,0,,5,,
Raw,5093634,5097448000000,,,-1291005709998549504,0.0,345.17113817855716,-4.578752738546377,27.303806786981514,3,8,0.0,15,367593314920805,35,22.7,354.5337219238281,0.6875,0,0.0,0.0,,,,,0,,5,,
Raw,5093634,5097448000000,,,-1291005709998549504,0.0,345.17113817855716,-4.578752738546377,27.303806786981514,3,10,0.0,15,367593317261727,35,22.6,-235.99732971191406,0.6919999718666077,0,0.0,0.0,,,,,0,,5,,
Raw,5093635,5097448000000,,,-1291005709998549504,0.0,345.17113817855716,-4.578752738546377,27.303806786981514,3,13,0.0,15,367593318509108,46,20.2,347.98516845703125,0.8134999871253967,0,0.0,0.0,,,,,0,,5,,
Raw,5093636,5097448000000,,,-1291005709998549504,0.0,345.17113817855716,-4.578752738546377,27.303806786981514,3,19,0.0,15,367593368135190,445,15.0,427.8448181152344,13.178500175476074,0,0.0,0.0,,,,,0,,5,,
Raw,5093636,5097448000000,,,-1291005709998549504,0.0,345.17113817855716,-4.578752738546377,27.303806786981514,3,21,0.0,15,367593365652065,149,15.8,-511.5548095703125,5.584000110626221,0,0.0,0.0,,,,,0,,5,,
Raw,5093637,5097448000000,,,-1291005709998549504,0.0,345.17113817855716,-4.578752738546377,27.303806786981514,3,22,0.0,15,367593373709416,46,20.2,-71.97640228271484,0.8059999942779541,0,0.0,0.0,,,,,0,,5,,
Raw,5093637,5097448000000,,,-1291005709998549504,0.0,345.17113817855716,-4.578752738546377,27.303806786981514,3,26,0.0,15,367593362614625,13,31.0,-483.1019287109375,0.028200000524520874,0,0.0,0.0,,,,,0,,5,,
NMEA,$GLGSV,2,1,07,73,40,224,26,80,74,333,13,69,53,095,14,71,00,000,15*69,1606975589899
NMEA,$GLGSV,2,2,07,70,43,347,,79,21,025,,68,10,129,*5D,1606975589901
NMEA,$GAGSV,1,1,0,*74,1606975589901
NMEA,$PQGSV,1,1,03,193,67,108,19,194,71,078,18,195,16,154,,0,5*64,1606975589901
NMEA,$PQGSV,4,1,14,02,41,241,22,05,17,258,25,08,20,198,23,10,29,194,23,0,4*6C,1606975589901
NMEA,$PQGSV,4,2,14,13,30,222,20,19,35,130,15,21,31,323,16,22,80,030,20,0,4*6C,1606975589901
NMEA,$PQGSV,4,3,14,26,15,232,31,01,51,129,,03,59,202,,06,54,005,,0,4*6A,1606975589902
NMEA,$PQGSV,4,4,14,07,50,172,,09,43,323,,0,4*64,1606975589902
NMEA,$GNGSA,A,2,10,26,31,,,,,,,,,,2.8,2.7,1.0,1*39,1606975589903
NMEA,$GNGSA,A,2,73,,,,,,,,,,,,2.8,2.7,1.0,2*39,1606975589903
NMEA,$PQGSA,A,2,26,,,,,,,,,,,,2.8,2.7,1.0,4*37,1606975589903
NMEA,$GNVTG,,T,,M,0.0,N,0.0,K,A*3D,1606975589903
NMEA,$GNRMC,060630.00,A,2255.529548,N,12017.687471,E,0.0,,031220,2.8,W,A*15,1606975589904
NMEA,$GNGGA,060630.00,2255.529548,N,12017.687471,E,1,05,2.7,18.8,M,17.5,M,,*4A,1606975589904
Fix,gps,22.925492,120.294791,36.083923,0.000000,30.016001,1606975591000
Raw,5094614,5098448000000,,,-1291005709998549504,0.0,328.86286498978734,-9.82940072752914,28.289736153598273,3,9,0.0,207,32790376924192,19,27.1,-484.7269592285156,0.2653000056743622,0,0.0,0.0,,,,,0,,3,,
Raw,5094615,5098448000000,,,-1291005709998549504,0.0,328.86286498978734,-9.82940072752914,28.289736153598273,3,16,0.0,207,32790382342283,1669,12.1,189.06475830078125,9.209500312805176,0,0.0,0.0,,,,,0,,3,,
Raw,5094616,5098448000000,,,-1291005709998549504,0.0,328.86286498978734,-9.82940072752914,28.289736153598273,3,5,0.0,207,32790379662356,1389,14.1,144.9049530029297,24.80500030517578,0,0.0,0.0,,,,,0,,3,,
Raw,5094616,5098448000000,,,-1291005709998549504,0.0,328.86286498978734,-9.82940072752914,28.289736153598273,3,7,0.0,207,32790364230065,1679,14.9,-682.7286987304688,27.377500534057617,0,0.0,0.0,,,,,0,,3,,
Raw,5094617,5098448000000,,,-1291005709998549504,0.0,328.86286498978734,-9.82940072752914,28.289736153598273,3,10,0.0,15,367608379265371,475,9.9,71.7216796875,12.555000305175781,0,0.0,0.0,,,,,0,,1,,
Raw,5094617,5098448000000,,,-1291005709998549504,0.0,328.86286498978734,-9.82940072752914,28.289736153598273,3,12,0.0,15,367608371999242,125,14.9,407.3140869140625,3.624500036239624,0,0.0,0.0,,,,,0,,1,,
Raw,5094618,5098448000000,,,-1291005709998549504,0.0,328.86286498978734,-9.82940072752914,28.289736153598273,3,20,0.0,15,367608375326441,1257,17.4,541.02392578125,23.689001083374023,0,0.0,0.0,,,,,0,,1,,
Raw,5094618,5098448000000,,,-1291005709998549504,0.0,328.86286498978734,-9.82940072752914,28.289736153598273,3,23,0.0,15,367608375715247,24,25.0,469.5497741699219,0.4043000042438507,0,0.0,0.0,,,,,0,,1,,
Raw,5094619,5098448000000,,,-1291005709998549504,0.0,328.86286498978734,-9.82940072752914,28.289736153598273,3,25,0.0,15,367608378441747,90,16.8,-26.022659301757812,2.69350004196167,0,0.0,0.0,,,,,0,,1,,
Raw,5094619,5098448000000,,,-1291005709998549504,0.0,328.86286498978734,-9.82940072752914,28.289736153598273,3,26,0.0,15,367608364465971,12,32.0,-717.852783203125,0.029900001361966133,0,0.0,0.0,,,,,0,,1,,
Raw,5094620,5098448000000,,,-1291005709998549504,0.0,328.86286498978734,-9.82940072752914,28.289736153598273,3,31,0.0,15,367608373404668,14,30.9,-276.9041442871094,0.04530000314116478,0,0.0,0.0,,,,,0,,1,,
Raw,5094620,5098448000000,,,-1291005709998549504,0.0,328.86286498978734,-9.82940072752914,28.289736153598273,3,2,0.0,783,367594321652063,92,21.9,-2.5829310417175293,5.164999961853027,0,0.0,0.0,,,,,0,,5,,
Raw,5094621,5098448000000,,,-1291005709998549504,0.0,328.86286498978734,-9.82940072752914,28.289736153598273,3,5,0.0,783,367594313525262,38,23.7,-3.4183032512664795,2.115000009536743,0,0.0,0.0,,,,,0,,5,,
Raw,5094621,5098448000000,,,-1291005709998549504,0.0,328.86286498978734,-9.82940072752914,28.289736153598273,3,8,0.0,15,367594314919648,40,21.8,353.17022705078125,0.6875,0,0.0,0.0,,,,,0,,5,,
Raw,5094622,5098448000000,,,-1291005709998549504,0.0,328.86286498978734,-9.82940072752914,28.289736153598273,3,10,0.0,15,367594317262514,35,22.5,-236.15097045898438,0.6919999718666077,0,0.0,0.0,,,,,0,,5,,
Raw,5094622,5098448000000,,,-1291005709998549504,0.0,328.86286498978734,-9.82940072752914,28.289736153598273,3,13,0.0,15,367594318507908,61,18.0,347.59149169921875,0.9434999823570251,0,0.0,0.0,,,,,0,,5,,
Raw,5094622,5098448000000,,,-1291005709998549504,0.0,328.86286498978734,-9.82940072752914,28.289736153598273,3,19,0.0,15,367594368133763,534,15.0,427.8448181152344,14.678500175476074,0,0.0,0.0,,,,,0,,5,,
Raw,5094623,5098448000000,,,-1291005709998549504,0.0,328.86286498978734,-9.82940072752914,28.289736153598273,3,21,0.0,15,367594365653771,187,15.8,-511.5548095703125,7.084000110626221,0,0.0,0.0,,,,,0,,5,,
Raw,5094623,5098448000000,,,-1291005709998549504,0.0,328.86286498978734,-9.82940072752914,28.289736153598273,3,22,0.0,15,367594373709721,53,19.5,-74.8761978149414,0.8659999966621399,0,0.0,0.0,,,,,0,,5,,
Raw,5094624,5098448000000,,,-1291005709998549504,0.0,328.86286498978734,-9.82940072752914,28.289736153598273,3,26,0.0,15,367594362616243,13,31.2,-484.17071533203125,0.028200000524520874,0,0.0,0.0,,,,,0,,5,,
NMEA,$GPGSV,3,1,10,10,78,224,10,12,00,000,15,20,00,000,17,23,51,161,25*76,1606975590898
NMEA,$GPGSV,3,2,10,25,64,094,17,26,09,205,32,31,37,264,31,21,00,000,*7B,1606975590899
NMEA,$GPGSV,3,3,10,24,05,052,,29,06,137,*74,1606975590900
NMEA,$GLGSV,2,1,07,73,40,224,27,80,74,333,12,69,53,095,14,71,00,000,15*69,1606975590900
NMEA,$GLGSV,2,2,07,70,43,347,,79,21,025,,68,10,129,*5D,1606975590901
NMEA,$GAGSV,1,1,0,*74,1606975590901
NMEA,$PQGSV,1,1,03,193,67,108,18,194,71,078,18,195,16,154,,0,5*65,1606975590901
NMEA,$PQGSV,4,1,14,02,41,241,22,05,17,258,24,08,20,198,22,10,29,194,23,0,4*6C,1606975590901
NMEA,$PQGSV,4,2,14,13,30,222,18,19,35,130,15,21,31,323,16,22,80,030,20,0,4*67,1606975590901
NMEA,$PQGSV,4,3,14,26,15,232,31,01,51,129,,03,59,202,,06,54,005,,0,4*6A,1606975590901
NMEA,$PQGSV,4,4,14,07,50,172,,09,43,323,,0,4*64,1606975590902
NMEA,$GNGSA,A,2,10,26,31,,,,,,,,,,2.8,2.7,1.0,1*39,1606975590903
NMEA,$GNGSA,A,2,73,,,,,,,,,,,,2.8,2.7,1.0,2*39,1606975590904
NMEA,$PQGSA,A,2,26,,,,,,,,,,,,2.8,2.7,1.0,4*37,1606975590905
NMEA,$GNVTG,,T,,M,0.0,N,0.0,K,A*3D,1606975590905
NMEA,$GNRMC,060631.00,A,2255.529546,N,12017.687463,E,0.0,,031220,2.8,W,A*19,1606975590906
NMEA,$GNGGA,060631.00,2255.529546,N,12017.687463,E,1,05,2.7,18.6,M,17.5,M,,*48,1606975590906
Fix,gps,22.925492,120.294791,36.000732,0.000000,27.872002,1606975592000
NMEA,$GPGSV,3,1,10,10,78,224,10,12,00,000,15,20,00,000,17,23,51,161,26*75,1606975591900
NMEA,$GPGSV,3,2,10,25,64,094,17,26,09,205,33,31,37,264,31,21,00,000,*7A,1606975591900
NMEA,$GPGSV,3,3,10,24,05,052,,29,06,137,*74,1606975591900
Raw,5095621,5099448000000,,,-1291005709998549504,0.0,308.4547643084079,-13.215389188272079,29.245476737871833,3,9,0.0,207,32791376925832,19,27.8,-484.58148193359375,0.2653000056743622,0,0.0,0.0,,,,,0,,3,,
Raw,5095622,5099448000000,,,-1291005709998549504,0.0,308.4547643084079,-13.215389188272079,29.245476737871833,3,16,0.0,207,32791382341673,1495,13.3,188.84947204589844,9.839500427246094,0,0.0,0.0,,,,,0,,3,,
Raw,5095622,5099448000000,,,-1291005709998549504,0.0,308.4547643084079,-13.215389188272079,29.245476737871833,3,5,0.0,207,32791379661872,1555,14.1,144.9049530029297,26.30500030517578,0,0.0,0.0,,,,,0,,3,,
Raw,5095623,5099448000000,,,-1291005709998549504,0.0,308.4547643084079,-13.215389188272079,29.245476737871833,3,7,0.0,207,32791364232343,1862,14.9,-682.7286987304688,28.877500534057617,0,0.0,0.0,,,,,0,,3,,
Raw,5095624,5099448000000,,,-1291005709998549504,0.0,308.4547643084079,-13.215389188272079,29.245476737871833,3,10,0.0,15,367609379265132,557,9.9,71.7216796875,14.055000305175781,0,0.0,0.0,,,,,0,,1,,
Raw,5095624,5099448000000,,,-1291005709998549504,0.0,308.4547643084079,-13.215389188272079,29.245476737871833,3,12,0.0,15,367609371997883,149,14.9,407.3140869140625,5.124500274658203,0,0.0,0.0,,,,,0,,1,,
Raw,5095624,5099448000000,,,-1291005709998549504,0.0,308.4547643084079,-13.215389188272079,29.245476737871833,3,20,0.0,15,367609375324637,1416,17.4,541.02392578125,25.189001083374023,0,0.0,0.0,,,,,0,,1,,
Raw,5095625,5099448000000,,,-1291005709998549504,0.0,308.4547643084079,-13.215389188272079,29.245476737871833,3,23,0.0,15,367609375713658,24,25.5,469.78814697265625,0.4043000042438507,0,0.0,0.0,,,,,0,,1,,
Raw,5095625,5099448000000,,,-1291005709998549504,0.0,308.4547643084079,-13.215389188272079,29.245476737871833,3,25,0.0,15,367609378441834,109,16.8,-26.022659301757812,4.19350004196167,0,0.0,0.0,,,,,0,,1,,
Raw,5095626,5099448000000,,,-1291005709998549504,0.0,308.4547643084079,-13.215389188272079,29.245476737871833,3,26,0.0,15,367609364468375,11,33.1,-717.8054809570312,0.02890000119805336,0,0.0,0.0,,,,,0,,1,,
Raw,5095627,5099448000000,,,-1291005709998549504,0.0,308.4547643084079,-13.215389188272079,29.245476737871833,3,31,0.0,15,367609373405592,13,31.1,-276.81402587890625,0.04470000043511391,0,0.0,0.0,,,,,0,,1,,
Raw,5095627,5099448000000,,,-1291005709998549504,0.0,308.4547643084079,-13.215389188272079,29.245476737871833,3,2,0.0,783,367595321651959,54,20.6,-0.43208885192871094,2.2850000858306885,0,0.0,0.0,,,,,0,,5,,
Raw,5095628,5099448000000,,,-1291005709998549504,0.0,308.4547643084079,-13.215389188272079,29.245476737871833,3,5,0.0,783,367595313525273,55,23.7,-3.4183032512664795,3.6150002479553223,0,0.0,0.0,,,,,0,,5,,
Raw,5095628,5099448000000,,,-1291005709998549504,0.0,308.4547643084079,-13.215389188272079,29.245476737871833,3,8,0.0,15,367595314918478,31,23.4,352.69012451171875,0.6375000476837158,0,0.0,0.0,,,,,0,,5,,
Raw,5095629,5099448000000,,,-1291005709998549504,0.0,308.4547643084079,-13.215389188272079,29.245476737871833,3,10,0.0,15,367595317263295,40,21.3,-236.5926513671875,0.7519999742507935,0,0.0,0.0,,,,,0,,5,,
Raw,5095629,5099448000000,,,-1291005709998549504,0.0,308.4547643084079,-13.215389188272079,29.245476737871833,3,13,0.0,15,367595318506799,46,20.6,347.3706359863281,0.8134999871253967,0,0.0,0.0,,,,,0,,5,,
Raw,5095629,5099448000000,,,-1291005709998549504,0.0,308.4547643084079,-13.215389188272079,29.245476737871833,3,19,0.0,15,367595368132336,633,15.0,427.8448181152344,16.17850112915039,0,0.0,0.0,,,,,0,,5,,
Raw,5095630,5099448000000,,,-1291005709998549504,0.0,308.4547643084079,-13.215389188272079,29.245476737871833,3,21,0.0,15,367595365655477,236,15.8,-511.5548095703125,8.584000587463379,0,0.0,0.0,,,,,0,,5,,
Raw,5095630,5099448000000,,,-1291005709998549504,0.0,308.4547643084079,-13.215389188272079,29.245476737871833,3,22,0.0,15,367595373709914,53,19.5,-73.42630004882812,0.8659999966621399,0,0.0,0.0,,,,,0,,5,,
Raw,5095631,5099448000000,,,-1291005709998549504,0.0,308.4547643084079,-13.215389188272079,29.245476737871833,3,26,0.0,15,367595362617872,13,31.1,-484.08184814453125,0.028200000524520874,0,0.0,0.0,,,,,0,,5,,
NMEA,$GLGSV,2,1,07,73,40,224,28,80,74,333,13,69,53,095,14,71,00,000,15*67,1606975591901
NMEA,$GLGSV,2,2,07,70,43,347,,79,21,025,,68,10,129,*5D,1606975591901
NMEA,$GAGSV,1,1,0,*74,1606975591901
NMEA,$PQGSV,1,1,03,193,67,108,18,194,71,078,18,195,16,154,,0,5*65,1606975591902
NMEA,$PQGSV,4,1,14,02,41,241,21,05,17,258,24,08,20,198,23,10,29,194,21,0,4*6C,1606975591902
NMEA,$PQGSV,4,2,14,13,30,222,21,19,35,130,15,21,31,323,16,22,80,030,20,0,4*6D,1606975591903
NMEA,$PQGSV,4,3,14,26,15,232,31,01,51,129,,03,59,202,,06,54,005,,0,4*6A,1606975591903
NMEA,$PQGSV,4,4,14,07,50,172,,09,43,323,,0,4*64,1606975591904
NMEA,$GNGSA,A,2,10,26,31,,,,,,,,,,2.8,2.7,1.0,1*39,1606975591905
NMEA,$GNGSA,A,2,73,,,,,,,,,,,,2.8,2.7,1.0,2*39,1606975591905
NMEA,$PQGSA,A,2,26,,,,,,,,,,,,2.8,2.7,1.0,4*37,1606975591905
NMEA,$GNVTG,,T,,M,0.0,N,0.0,K,A*3D,1606975591905
NMEA,$GNRMC,060632.00,A,2255.529545,N,12017.687456,E,0.0,,031220,2.8,W,A*1F,1606975591906
NMEA,$GNGGA,060632.00,2255.529545,N,12017.687456,E,1,05,2.7,18.5,M,17.5,M,,*4D,1606975591906
Fix,gps,22.925492,120.294791,35.908264,0.000000,26.800001,1606975593000
NMEA,$GPGSV,3,1,10,10,78,224,10,12,00,000,15,20,00,000,17,23,51,161,23*70,1606975592900
NMEA,$GPGSV,3,2,10,25,64,094,17,26,09,205,34,31,37,264,30,21,00,000,*7C,1606975592900
NMEA,$GPGSV,3,3,10,24,05,052,,29,06,137,*74,1606975592900
Raw,5096620,5100448000000,,,-1291005709998549504,0.0,293.7991521321237,-13.285894628172935,29.220317298509098,3,9,0.0,207,32792376927447,17,28.0,-484.40509033203125,0.2573000192642212,0,0.0,0.0,,,,,0,,3,,
Raw,5096621,5100448000000,,,-1291005709998549504,0.0,293.7991521321237,-13.285894628172935,29.220317298509098,3,16,0.0,207,32792382341053,369,12.1,188.86819458007812,11.084500312805176,0,0.0,0.0,,,,,0,,3,,
Raw,5096621,5100448000000,,,-1291005709998549504,0.0,293.7991521321237,-13.285894628172935,29.220317298509098,3,5,0.0,207,32792379661389,1730,14.1,144.9049530029297,27.805002212524414,0,0.0,0.0,,,,,0,,3,,
Raw,5096622,5100448000000,,,-1291005709998549504,0.0,293.7991521321237,-13.285894628172935,29.220317298509098,3,7,0.0,207,32792364234620,2054,14.9,-682.7286987304688,30.377500534057617,0,0.0,0.0,,,,,0,,3,,
Raw,5096622,5100448000000,,,-1291005709998549504,0.0,293.7991521321237,-13.285894628172935,29.220317298509098,3,10,0.0,15,367610379264892,649,9.9,71.7216796875,15.555000305175781,0,0.0,0.0,,,,,0,,1,,
Raw,5096622,5100448000000,,,-1291005709998549504,0.0,293.7991521321237,-13.285894628172935,29.220317298509098,3,12,0.0,15,367610371996525,184,14.9,407.3140869140625,6.624500274658203,0,0.0,0.0,,,,,0,,1,,
Raw,5096623,5100448000000,,,-1291005709998549504,0.0,293.7991521321237,-13.285894628172935,29.220317298509098,3,20,0.0,15,367610375322832,1586,17.4,541.02392578125,26.689001083374023,0,0.0,0.0,,,,,0,,1,,
Raw,5096623,5100448000000,,,-1291005709998549504,0.0,293.7991521321237,-13.285894628172935,29.220317298509098,3,23,0.0,15,367610375712142,35,22.8,469.67333984375,0.7489999532699585,0,0.0,0.0,,,,,0,,1,,
Raw,5096624,5100448000000,,,-1291005709998549504,0.0,293.7991521321237,-13.285894628172935,29.220317298509098,3,25,0.0,15,367610378441921,138,16.8,-26.022659301757812,5.69350004196167,0,0.0,0.0,,,,,0,,1,,
Raw,5096624,5100448000000,,,-1291005709998549504,0.0,293.7991521321237,-13.285894628172935,29.220317298509098,3,26,0.0,15,367610364470778,11,33.8,-717.693115234375,0.02890000119805336,0,0.0,0.0,,,,,0,,1,,
Raw,5096625,5100448000000,,,-1291005709998549504,0.0,293.7991521321237,-13.285894628172935,29.220317298509098,3,31,0.0,15,367610373406527,16,29.9,-276.67510986328125,0.04620000347495079,0,0.0,0.0,,,,,0,,1,,
Raw,5096625,5100448000000,,,-1291005709998549504,0.0,293.7991521321237,-13.285894628172935,29.220317298509098,3,2,0.0,783,367596321651960,71,20.6,-0.43208885192871094,3.7850000858306885,0,0.0,0.0,,,,,0,,5,,
Raw,5096626,5100448000000,,,-1291005709998549504,0.0,293.7991521321237,-13.285894628172935,29.220317298509098,3,5,0.0,783,367596313525285,82,23.7,-3.4183032512664795,5.115000247955322,0,0.0,0.0,,,,,0,,5,,
Raw,5096626,5100448000000,,,-1291005709998549504,0.0,293.7991521321237,-13.285894628172935,29.220317298509098,3,8,0.0,15,367596314917305,40,21.5,352.7669677734375,0.7475000023841858,0,0.0,0.0,,,,,0,,5,,
Raw,5096627,5100448000000,,,-1291005709998549504,0.0,293.7991521321237,-13.285894628172935,29.220317298509098,3,10,0.0,15,367596317264084,46,20.5,-236.00694274902344,0.8119999766349792,0,0.0,0.0,,,,,0,,5,,
Raw,5096627,5100448000000,,,-1291005709998549504,0.0,293.7991521321237,-13.285894628172935,29.220317298509098,3,13,0.0,15,367596318505674,61,18.3,346.2663879394531,0.9434999823570251,0,0.0,0.0,,,,,0,,5,,
Raw,5096628,5100448000000,,,-1291005709998549504,0.0,293.7991521321237,-13.285894628172935,29.220317298509098,3,19,0.0,15,367596368130909,742,15.0,427.8448181152344,17.67850112915039,0,0.0,0.0,,,,,0,,5,,
Raw,5096628,5100448000000,,,-1291005709998549504,0.0,293.7991521321237,-13.285894628172935,29.220317298509098,3,21,0.0,15,367596365657184,295,15.8,-511.5548095703125,10.084000587463379,0,0.0,0.0,,,,,0,,5,,
Raw,5096629,5100448000000,,,-1291005709998549504,0.0,293.7991521321237,-13.285894628172935,29.220317298509098,3,22,0.0,15,367596373710166,40,21.1,-73.38788604736328,0.7459999918937683,0,0.0,0.0,,,,,0,,5,,
Raw,5096629,5100448000000,,,-1291005709998549504,0.0,293.7991521321237,-13.285894628172935,29.220317298509098,3,26,0.0,15,367596362619477,12,32.1,-483.93359375,0.026900000870227814,0,0.0,0.0,,,,,0,,5,,
NMEA,$GLGSV,2,1,07,73,40,224,28,80,74,333,12,69,53,095,14,71,00,000,15*66,1606975592901
NMEA,$GLGSV,2,2,07,70,43,347,,79,21,025,,68,10,129,*5D,1606975592901
NMEA,$GAGSV,1,1,0,*74,1606975592901
NMEA,$PQGSV,1,1,03,193,67,108,17,194,71,078,18,195,16,154,,0,5*6A,1606975592902
NMEA,$PQGSV,4,1,14,02,41,241,21,05,17,258,24,08,20,198,22,10,29,194,21,0,4*6D,1606975592902
NMEA,$PQGSV,4,2,14,13,30,222,18,19,35,130,15,21,31,323,16,22,80,030,21,0,4*66,1606975592902
NMEA,$PQGSV,4,3,14,26,15,232,32,01,51,129,,03,59,202,,06,54,005,,0,4*69,1606975592903
NMEA,$PQGSV,4,4,14,07,50,172,,09,43,323,,0,4*64,1606975592903
NMEA,$GNGSA,A,2,10,26,31,,,,,,,,,,2.8,2.7,1.0,1*39,1606975592904
NMEA,$GNGSA,A,2,73,,,,,,,,,,,,2.8,2.7,1.0,2*39,1606975592905
NMEA,$PQGSA,A,2,26,,,,,,,,,,,,2.8,2.7,1.0,4*37,1606975592906
NMEA,$GNVTG,,T,,M,0.0,N,0.0,K,A*3D,1606975592909
NMEA,$GNRMC,060633.00,A,2255.529543,N,12017.687449,E,0.0,,031220,2.8,W,A*16,1606975592909
NMEA,$GNGGA,060633.00,2255.529543,N,12017.687449,E,1,05,2.7,18.4,M,17.5,M,,*45,1606975592910
Fix,gps,22.925492,120.294791,35.821655,0.000000,24.656000,1606975594000
Raw,5097637,5101448000000,,,-1291005709998549504,0.0,276.0084462352097,-13.275381042752041,28.22278640510565,3,9,0.0,207,32793376929046,19,27.6,-483.2104797363281,0.2653000056743622,0,0.0,0.0,,,,,0,,3,,
Raw,5097637,5101448000000,,,-1291005709998549504,0.0,276.0084462352097,-13.275381042752041,28.22278640510565,3,16,0.0,207,32793382340423,442,12.1,188.86819458007812,12.584500312805176,0,0.0,0.0,,,,,0,,3,,
Raw,5097638,5101448000000,,,-1291005709998549504,0.0,276.0084462352097,-13.275381042752041,28.22278640510565,3,5,0.0,207,32793379660906,1916,14.1,144.9049530029297,29.305002212524414,0,0.0,0.0,,,,,0,,3,,
Raw,5097638,5101448000000,,,-1291005709998549504,0.0,276.0084462352097,-13.275381042752041,28.22278640510565,3,7,0.0,207,32793364236897,2257,14.9,-682.7286987304688,31.87750244140625,0,0.0,0.0,,,,,0,,3,,
Raw,5097639,5101448000000,,,-1291005709998549504,0.0,276.0084462352097,-13.275381042752041,28.22278640510565,3,10,0.0,15,367611379264653,751,9.9,71.7216796875,17.05500030517578,0,0.0,0.0,,,,,0,,1,,
Raw,5097639,5101448000000,,,-1291005709998549504,0.0,276.0084462352097,-13.275381042752041,28.22278640510565,3,12,0.0,15,367611371995176,159,12.2,408.10382080078125,3.993000030517578,0,0.0,0.0,,,,,0,,1,,
Raw,5097640,5101448000000,,,-1291005709998549504,0.0,276.0084462352097,-13.275381042752041,28.22278640510565,3,20,0.0,15,367611375321027,1765,17.4,541.02392578125,28.189001083374023,0,0.0,0.0,,,,,0,,1,,
Raw,5097640,5101448000000,,,-1291005709998549504,0.0,276.0084462352097,-13.275381042752041,28.22278640510565,3,23,0.0,15,367611375710492,24,25.5,470.9910583496094,0.4043000042438507,0,0.0,0.0,,,,,0,,1,,
Raw,5097641,5101448000000,,,-1291005709998549504,0.0,276.0084462352097,-13.275381042752041,28.22278640510565,3,25,0.0,15,367611378442008,177,16.8,-26.022659301757812,7.19350004196167,0,0.0,0.0,,,,,0,,1,,
Raw,5097641,5101448000000,,,-1291005709998549504,0.0,276.0084462352097,-13.275381042752041,28.22278640510565,3,26,0.0,15,367611364473175,11,33.3,-716.6336059570312,0.02890000119805336,0,0.0,0.0,,,,,0,,1,,
Raw,5097641,5101448000000,,,-1291005709998549504,0.0,276.0084462352097,-13.275381042752041,28.22278640510565,3,31,0.0,15,367611373407452,14,30.7,-275.5071716308594,0.04530000314116478,0,0.0,0.0,,,,,0,,1,,
Raw,5097642,5101448000000,,,-1291005709998549504,0.0,276.0084462352097,-13.275381042752041,28.22278640510565,3,2,0.0,783,367597321651962,99,20.6,-0.43208885192871094,5.285000324249268,0,0.0,0.0,,,,,0,,5,,
Raw,5097642,5101448000000,,,-1291005709998549504,0.0,276.0084462352097,-13.275381042752041,28.22278640510565,3,5,0.0,783,367597313525247,38,23.1,-2.938204288482666,2.115000009536743,0,0.0,0.0,,,,,0,,5,,
Raw,5097643,5101448000000,,,-1291005709998549504,0.0,276.0084462352097,-13.275381042752041,28.22278640510565,3,8,0.0,15,367597314916104,35,22.2,354.40887451171875,0.6875,0,0.0,0.0,,,,,0,,5,,
Raw,5097643,5101448000000,,,-1291005709998549504,0.0,276.0084462352097,-13.275381042752041,28.22278640510565,3,10,0.0,15,367597317264887,53,19.9,-234.9699249267578,0.8119999766349792,0,0.0,0.0,,,,,0,,5,,
Raw,5097643,5101448000000,,,-1291005709998549504,0.0,276.0084462352097,-13.275381042752041,28.22278640510565,3,13,0.0,15,367597318504507,61,18.9,348.46527099609375,0.8734999895095825,0,0.0,0.0,,,,,0,,5,,
Raw,5097644,5101448000000,,,-1291005709998549504,0.0,276.0084462352097,-13.275381042752041,28.22278640510565,3,19,0.0,15,367597368129482,861,15.0,427.8448181152344,19.17850112915039,0,0.0,0.0,,,,,0,,5,,
Raw,5097644,5101448000000,,,-1291005709998549504,0.0,276.0084462352097,-13.275381042752041,28.22278640510565,3,21,0.0,15,367597365658890,364,15.8,-511.5548095703125,11.584000587463379,0,0.0,0.0,,,,,0,,5,,
Raw,5097645,5101448000000,,,-1291005709998549504,0.0,276.0084462352097,-13.275381042752041,28.22278640510565,3,22,0.0,15,367597373710408,40,21.4,-71.89958190917969,0.7459999918937683,0,0.0,0.0,,,,,0,,5,,
Raw,5097645,5101448000000,,,-1291005709998549504,0.0,276.0084462352097,-13.275381042752041,28.22278640510565,3,26,0.0,15,367597362621090,12,32.2,-482.794677734375,0.026900000870227814,0,0.0,0.0,,,,,0,,5,,
NMEA,$GPGSV,3,1,10,10,78,224,10,12,00,000,12,20,00,000,17,23,51,161,26*72,1606975593910
NMEA,$GPGSV,3,2,10,25,64,094,17,26,09,205,33,31,37,264,31,21,00,000,*7A,1606975593918
NMEA,$GPGSV,3,3,10,24,05,052,,29,06,137,*74,1606975593919
NMEA,$GLGSV,2,1,07,73,40,224,28,80,74,333,12,69,53,095,14,71,00,000,15*66,1606975593919
NMEA,$GLGSV,2,2,07,70,43,347,,79,21,025,,68,10,129,*5D,1606975593920
NMEA,$GAGSV,1,1,0,*74,1606975593921
NMEA,$PQGSV,1,1,03,193,67,108,17,194,71,078,15,195,16,154,,0,5*67,1606975593922
NMEA,$PQGSV,4,1,14,02,41,241,21,05,17,258,23,08,20,198,22,10,29,194,20,0,4*6B,1606975593923
NMEA,$PQGSV,4,2,14,13,30,222,19,19,35,130,15,21,31,323,16,22,80,030,21,0,4*67,1606975593924
NMEA,$PQGSV,4,3,14,26,15,232,32,01,51,129,,03,59,202,,06,54,005,,0,4*69,1606975593925
NMEA,$PQGSV,4,4,14,07,50,172,,09,43,323,,0,4*64,1606975593926
NMEA,$GNGSA,A,2,10,26,31,,,,,,,,,,2.8,2.7,1.0,1*39,1606975593930
NMEA,$GNGSA,A,2,73,,,,,,,,,,,,2.8,2.7,1.0,2*39,1606975593930
NMEA,$PQGSA,A,2,26,,,,,,,,,,,,2.8,2.7,1.0,4*37,1606975593930
NMEA,$GNVTG,,T,,M,0.0,N,0.0,K,A*3D,1606975593931
NMEA,$GNRMC,060634.00,A,2255.529542,N,12017.687444,E,0.0,,031220,2.8,W,A*1D,1606975593931
NMEA,$GNGGA,060634.00,2255.529542,N,12017.687444,E,1,05,2.7,18.4,M,17.5,M,,*4E,1606975593931
Fix,gps,22.925492,120.294791,35.778748,0.000000,23.584000,1606975595000
Raw,5098643,5102448000000,,,-1291005709998549504,0.0,257.7037666924298,-10.393896760359631,28.20857318281804,3,9,0.0,207,32794376930631,17,28.5,-482.2989807128906,0.2573000192642212,0,0.0,0.0,,,,,0,,3,,
Raw,5098644,5102448000000,,,-1291005709998549504,0.0,257.7037666924298,-10.393896760359631,28.20857318281804,3,16,0.0,207,32794382339793,525,12.1,188.86819458007812,14.084500312805176,0,0.0,0.0,,,,,0,,3,,
Raw,5098645,5102448000000,,,-1291005709998549504,0.0,257.7037666924298,-10.393896760359631,28.20857318281804,3,5,0.0,207,32794379660422,2111,14.1,144.9049530029297,30.805002212524414,0,0.0,0.0,,,,,0,,3,,
Raw,5098645,5102448000000,,,-1291005709998549504,0.0,257.7037666924298,-10.393896760359631,28.20857318281804,3,7,0.0,207,32794364239175,2469,14.9,-682.7286987304688,33.37750244140625,0,0.0,0.0,,,,,0,,3,,
Raw,5098646,5102448000000,,,-1291005709998549504,0.0,257.7037666924298,-10.393896760359631,28.20857318281804,3,10,0.0,15,367612379264414,864,9.9,71.7216796875,18.55500030517578,0,0.0,0.0,,,,,0,,1,,
Raw,5098646,5102448000000,,,-1291005709998549504,0.0,257.7037666924298,-10.393896760359631,28.20857318281804,3,12,0.0,15,367612371993814,185,12.2,408.10382080078125,5.493000030517578,0,0.0,0.0,,,,,0,,1,,
Raw,5098646,5102448000000,,,-1291005709998549504,0.0,257.7037666924298,-10.393896760359631,28.20857318281804,3,20,0.0,15,367612375319223,1954,17.4,541.02392578125,29.689001083374023,0,0.0,0.0,,,,,0,,1,,
Raw,5098647,5102448000000,,,-1291005709998549504,0.0,257.7037666924298,-10.393896760359631,28.20857318281804,3,23,0.0,15,367612375708924,27,24.4,472.2327880859375,0.6889999508857727,0,0.0,0.0,,,,,0,,1,,
Raw,5098647,5102448000000,,,-1291005709998549504,0.0,257.7037666924298,-10.393896760359631,28.20857318281804,3,25,0.0,15,367612378441809,170,12.7,-27.47840690612793,4.623500347137451,0,0.0,0.0,,,,,0,,1,,
Raw,5098648,5102448000000,,,-1291005709998549504,0.0,257.7037666924298,-10.393896760359631,28.20857318281804,3,26,0.0,15,367612364475566,11,33.4,-715.85107421875,0.02890000119805336,0,0.0,0.0,,,,,0,,1,,
Raw,5098648,5102448000000,,,-1291005709998549504,0.0,257.7037666924298,-10.393896760359631,28.20857318281804,3,31,0.0,15,367612373408349,14,30.3,-274.6617126464844,0.04530000314116478,0,0.0,0.0,,,,,0,,1,,
Raw,5098649,5102448000000,,,-1291005709998549504,0.0,257.7037666924298,-10.393896760359631,28.20857318281804,3,2,0.0,783,367598321652063,47,21.8,0.0864177718758583,2.1649999618530273,0,0.0,0.0,,,,,0,,5,,
Raw,5098650,5102448000000,,,-1291005709998549504,0.0,257.7037666924298,-10.393896760359631,28.20857318281804,3,5,0.0,783,367598313525257,55,23.1,-2.938204288482666,3.6150002479553223,0,0.0,0.0,,,,,0,,5,,
Raw,5098650,5102448000000,,,-1291005709998549504,0.0,257.7037666924298,-10.393896760359631,28.20857318281804,3,8,0.0,15,367598314914891,40,21.3,354.3704833984375,0.7475000023841858,0,0.0,0.0,,,,,0,,5,,
Raw,5098651,5102448000000,,,-1291005709998549504,0.0,257.7037666924298,-10.393896760359631,28.20857318281804,3,10,0.0,15,367598317265660,53,19.6,-235.00833129882812,0.871999979019165,0,0.0,0.0,,,,,0,,5,,
Raw,5098651,5102448000000,,,-1291005709998549504,0.0,257.7037666924298,-10.393896760359631,28.20857318281804,3,13,0.0,15,367598318503344,69,18.9,348.46527099609375,2.373500108718872,0,0.0,0.0,,,,,0,,5,,
Raw,5098652,5102448000000,,,-1291005709998549504,0.0,257.7037666924298,-10.393896760359631,28.20857318281804,3,19,0.0,15,367598368128055,990,15.0,427.8448181152344,20.67850112915039,0,0.0,0.0,,,,,0,,5,,
Raw,5098652,5102448000000,,,-1291005709998549504,0.0,257.7037666924298,-10.393896760359631,28.20857318281804,3,21,0.0,15,367598365660596,442,15.8,-511.5548095703125,13.084000587463379,0,0.0,0.0,,,,,0,,5,,
Raw,5098653,5102448000000,,,-1291005709998549504,0.0,257.7037666924298,-10.393896760359631,28.20857318281804,3,22,0.0,15,367598373710641,46,20.9,-71.25625610351562,0.7459999918937683,0,0.0,0.0,,,,,0,,5,,
Raw,5098653,5102448000000,,,-1291005709998549504,0.0,257.7037666924298,-10.393896760359631,28.20857318281804,3,26,0.0,15,367598362622697,13,31.4,-481.9939270019531,0.028200000524520874,0,0.0,0.0,,,,,0,,5,,
NMEA,$GPGSV,3,1,10,10,78,224,10,12,00,000,12,20,00,000,17,23,51,161,24*70,1606975594899
NMEA,$GPGSV,3,2,10,25,64,094,13,26,09,205,33,31,37,264,30,21,00,000,*7F,1606975594899
NMEA,$GPGSV,3,3,10,24,05,052,,29,06,137,*74,1606975594899
NMEA,$GLGSV,2,1,07,73,40,224,29,80,74,333,12,69,53,095,14,71,00,000,15*67,1606975594899
NMEA,$GLGSV,2,2,07,70,43,347,,79,21,025,,68,10,129,*5D,1606975594900
NMEA,$GAGSV,1,1,0,*74,1606975594901
NMEA,$PQGSV,1,1,03,193,67,108,16,194,71,078,15,195,16,154,,0,5*66,1606975594901
NMEA,$PQGSV,4,1,14,02,41,241,22,05,17,258,23,08,20,198,21,10,29,194,20,0,4*6B,1606975594902
NMEA,$PQGSV,4,2,14,13,30,222,19,19,35,130,15,21,31,323,16,22,80,030,21,0,4*67,1606975594902
NMEA,$PQGSV,4,3,14,26,15,232,31,01,51,129,,03,59,202,,06,54,005,,0,4*6A,1606975594903
NMEA,$PQGSV,4,4,14,07,50,172,,09,43,323,,0,4*64,1606975594903
