# 
# Header Description:
# 
# Version: v2.0.0.1 Platform: 8.0.0 Manufacturer: Sony Model: G8142
# 
# Raw,ElapsedRealtimeMillis,TimeNanos,LeapSecond,TimeUncertaintyNanos,FullBiasNanos,BiasNanos,BiasUncertaintyNanos,DriftNanosPerSecond,DriftUncertaintyNanosPerSecond,HardwareClockDiscontinuityCount,Svid,TimeOffsetNanos,State,ReceivedSvTimeNanos,ReceivedSvTimeUncertaintyNanos,Cn0DbHz,PseudorangeRateMetersPerSecond,PseudorangeRateUncertaintyMetersPerSecond,AccumulatedDeltaRangeState,AccumulatedDeltaRangeMeters,AccumulatedDeltaRangeUncertaintyMeters,CarrierFrequencyHz,CarrierCycles,CarrierPhase,CarrierPhaseUncertainty,MultipathIndicator,SnrInDb,ConstellationType,AgcDb,CarrierFrequencyHz
# 
# Fix,Provider,Latitude,Longitude,Altitude,Speed,Accuracy,(UTC)TimeInMs
# 
# Nav,Svid,Type,Status,MessageId,Sub-messageId,Data(Bytes)
# 
Raw,5982770,5986448000000,,,-1291005709998546944,0.0,71.29610457923263,2.08572118145331,17.759313090455723,3,9,0.0,207,33678378194834,404,10.9,-378.79608154296875,11.093500137329102,0,0.0,0.0,,,,,0,,3,,
Raw,5982770,5986448000000,,,-1291005709998546944,0.0,71.29610457923263,2.08572118145331,17.759313090455723,3,15,0.0,207,33678369686771,99,16.2,733.2283935546875,3.630000114440918,0,0.0,0.0,,,,,0,,3,,
Raw,5982771,5986448000000,,,-1291005709998546944,0.0,71.29610457923263,2.08572118145331,17.759313090455723,3,5,0.0,207,33678379070654,84,16.3,251.9935760498047,2.1449999809265137,0,0.0,0.0,,,,,0,,3,,
Raw,5982771,5986448000000,,,-1291005709998546944,0.0,71.29610457923263,2.08572118145331,17.759313090455723,3,7,0.0,207,33678366296107,88,17.1,-711.011474609375,3.5355000495910645,0,0.0,0.0,,,,,0,,3,,
Raw,5982771,5986448000000,,,-1291005709998546944,0.0,71.29610457923263,2.08572118145331,17.759313090455723,3,10,0.0,15,368496378881023,160,12.4,185.7456512451172,4.003499984741211,0,0.0,0.0,,,,,0,,1,,
Raw,5982771,5986448000000,,,-1291005709998546944,0.0,71.29610457923263,2.08572118145331,17.759313090455723,3,12,0.0,15,368496370648039,386,12.9,497.989013671875,11.36150074005127,0,0.0,0.0,,,,,0,,1,,
Raw,5982772,5986448000000,,,-1291005709998546944,0.0,71.29610457923263,2.08572118145331,17.759313090455723,3,20,0.0,15,368496373623327,671,11.3,604.3726806640625,16.136001586914062,0,0.0,0.0,,,,,0,,1,,
Raw,5982772,5986448000000,,,-1291005709998546944,0.0,71.29610457923263,2.08572118145331,17.759313090455723,3,23,0.0,15,368496374199052,61,19.6,545.3436279296875,2.4375,0,0.0,0.0,,,,,0,,1,,
Raw,5982772,5986448000000,,,-1291005709998546944,0.0,71.29610457923263,2.08572118145331,17.759313090455723,3,25,0.0,15,368496378331387,1520,7.2,93.9670181274414,25.8435001373291,0,0.0,0.0,,,,,0,,1,,
Raw,5982772,5986448000000,,,-1291005709998546944,0.0,71.29610457923263,2.08572118145331,17.759313090455723,3,26,0.0,15,368496366563700,21,26.8,-703.1282348632812,0.20000000298023224,0,0.0,0.0,,,,,0,,1,,
Raw,5982772,5986448000000,,,-1291005709998546944,0.0,71.29610457923263,2.08572118145331,17.759313090455723,3,31,0.0,15,368496374120006,14,30.0,-213.81593322753906,0.20000000298023224,0,0.0,0.0,,,,,0,,1,,
Raw,5982773,5986448000000,,,-1291005709998546944,0.0,71.29610457923263,2.08572118145331,17.759313090455723,3,32,0.0,15,368496374813646,3150,6.6,-298.0569763183594,37.837501525878906,0,0.0,0.0,,,,,0,,1,,
Raw,5982773,5986448000000,,,-1291005709998546944,0.0,71.29610457923263,2.08572118145331,17.759313090455723,3,2,0.0,783,368482321641886,92,21.0,6.231681823730469,5.225000381469727,0,0.0,0.0,,,,,0,,5,,
Raw,5982773,5986448000000,,,-1291005709998546944,0.0,71.29610457923263,2.08572118145331,17.759313090455723,3,5,0.0,783,368482313509985,35,26.5,6.471731185913086,2.745000123977661,0,0.0,0.0,,,,,0,,5,,
Raw,5982773,5986448000000,,,-1291005709998546944,0.0,71.29610457923263,2.08572118145331,17.759313090455723,3,6,0.0,15,368482323160056,430,10.2,-85.51519012451172,11.481000900268555,0,0.0,0.0,,,,,0,,5,,
Raw,5982773,5986448000000,,,-1291005709998546944,0.0,71.29610457923263,2.08572118145331,17.759313090455723,3,8,0.0,15,368482313871962,46,20.4,346.2856140136719,0.8059999942779541,0,0.0,0.0,,,,,0,,5,,
Raw,5982774,5986448000000,,,-1291005709998546944,0.0,71.29610457923263,2.08572118145331,17.759313090455723,3,10,0.0,15,368482317935632,2976,9.7,-221.78640747070312,36.39200210571289,0,0.0,0.0,,,,,0,,5,,
Raw,5982777,5986448000000,,,-1291005709998546944,0.0,71.29610457923263,2.08572118145331,17.759313090455723,3,13,0.0,15,368482317457227,27,24.3,353.92877197265625,0.6019999980926514,0,0.0,0.0,,,,,0,,5,,
Raw,5982777,5986448000000,,,-1291005709998546944,0.0,71.29610457923263,2.08572118145331,17.759313090455723,3,19,0.0,15,368482366783172,1132,11.0,484.1027526855469,21.720500946044922,0,0.0,0.0,,,,,0,,5,,
Raw,5982777,5986448000000,,,-1291005709998546944,0.0,71.29610457923263,2.08572118145331,17.759313090455723,3,21,0.0,15,368482367121521,61,19.1,-481.1357727050781,2.3570001125335693,0,0.0,0.0,,,,,0,,5,,
Raw,5982778,5986448000000,,,-1291005709998546944,0.0,71.29610457923263,2.08572118145331,17.759313090455723,3,22,0.0,15,368482373798968,110,15.7,8.71859359741211,3.436000108718872,0,0.0,0.0,,,,,0,,5,,
Raw,5982778,5986448000000,,,-1291005709998546944,0.0,71.29610457923263,2.08572118145331,17.759313090455723,3,26,0.0,15,368482363973549,35,22.3,-438.7910461425781,0.6710000038146973,0,0.0,0.0,,,,,0,,5,,
Raw,5982778,5986448000000,,,-1291005709998546944,0.0,71.29610457923263,2.08572118145331,17.759313090455723,3,5,0.0,7183,368496353942103,46,20.6,-416.6194763183594,0.7519999742507935,0,0.0,0.0,,,,,0,,6,,
Fix,gps,22.925503,120.294760,35.300049,0.000000,11.792000,1606976479000
NMEA,$GPGSV,3,1,12,10,73,206,12,12,27,045,13,20,37,168,11,23,44,164,20*76,1606976478403
NMEA,$GPGSV,3,2,12,25,63,075,07,26,14,205,27,31,40,272,30,32,47,344,07*7B,1606976478403
NMEA,$GPGSV,3,3,12,18,00,000,,21,00,000,,24,02,056,,29,09,132,*75,1606976478404
NMEA,$GLGSV,2,1,08,73,46,233,11,79,15,026,16,69,50,108,16,71,05,327,17*64,1606976478404
NMEA,$GLGSV,2,2,08,74,00,000,,70,50,351,,80,66,347,,68,05,135,*6F,1606976478404
NMEA,$GAGSV,1,1,01,05,11,313,21*5E,1606976478404
NMEA,$PQGSV,1,1,03,193,67,115,13,194,71,071,,195,16,153,,0,5*65,1606976478404
NMEA,$PQGSV,4,1,16,02,41,241,21,05,17,258,27,06,55,008,10,08,17,198,20,0,4*60,1606976478404
NMEA,$PQGSV,4,2,16,10,31,196,10,13,26,222,24,19,30,135,11,21,36,323,19,0,4*64,1606976478410
NMEA,$PQGSV,4,3,16,22,83,082,16,26,19,237,22,01,51,129,,03,59,202,,0,4*67,1606976478411
NMEA,$PQGSV,4,4,16,04,37,115,,07,54,175,,09,43,326,,29,00,000,,0,4*6E,1606976478411
NMEA,$GNGSA,A,3,10,23,26,31,,,,,,,,,1.4,1.2,0.8,1*39,1606976478414
NMEA,$GNGSA,A,2,73,79,,,,,,,,,,,1.4,1.2,0.8,2*37,1606976478414
NMEA,$GNGSA,A,2,05,,,,,,,,,,,,1.4,1.2,0.8,3*39,1606976478414
NMEA,$PQGSA,A,2,26,,,,,,,,,,,,1.4,1.2,0.8,4*37,1606976478415
NMEA,$GNVTG,,T,,M,0.0,N,0.0,K,A*3D,1606976478415
NMEA,$GNRMC,062119.00,A,2255.530194,N,12017.685582,E,0.0,,031220,2.8,W,A*19,1606976478415
NMEA,$GNGGA,062119.00,2255.530194,N,12017.685582,E,1,08,1.2,17.8,M,17.5,M,,*42,1606976478415
Fix,gps,22.925503,120.294760,35.294128,0.000000,10.720000,1606976480000
NMEA,$GPGSV,3,1,12,10,73,206,16,12,27,045,13,20,37,168,14,23,44,164,18*7C,1606976479401
Raw,5983622,5987448000000,,,-1291005709998546944,0.0,74.97385377064347,-1.644930165796114,17.13184767940731,3,9,0.0,207,33679378196098,476,10.9,-378.79608154296875,12.593500137329102,0,0.0,0.0,,,,,0,,3,,
Raw,5983622,5987448000000,,,-1291005709998546944,0.0,74.97385377064347,-1.644930165796114,17.13184767940731,3,15,0.0,207,33679369684404,96,15.8,730.056396484375,2.2200000286102295,0,0.0,0.0,,,,,0,,3,,
Raw,5983623,5987448000000,,,-1291005709998546944,0.0,74.97385377064347,-1.644930165796114,17.13184767940731,3,5,0.0,207,33679379069908,70,17.5,251.1610870361328,1.3049999475479126,0,0.0,0.0,,,,,0,,3,,
Raw,5983623,5987448000000,,,-1291005709998546944,0.0,74.97385377064347,-1.644930165796114,17.13184767940731,3,7,0.0,207,33679366298479,112,17.1,-711.011474609375,5.0355000495910645,0,0.0,0.0,,,,,0,,3,,
Raw,5983624,5987448000000,,,-1291005709998546944,0.0,74.97385377064347,-1.644930165796114,17.13184767940731,3,10,0.0,15,368497378880543,81,16.4,183.7666015625,1.2834999561309814,0,0.0,0.0,,,,,0,,1,,
Raw,5983624,5987448000000,,,-1291005709998546944,0.0,74.97385377064347,-1.644930165796114,17.13184767940731,3,12,0.0,15,368497370646378,462,12.9,497.989013671875,12.86150074005127,0,0.0,0.0,,,,,0,,1,,
Raw,5983625,5987448000000,,,-1291005709998546944,0.0,74.97385377064347,-1.644930165796114,17.13184767940731,3,20,0.0,15,368497373621457,137,14.2,601.480224609375,4.496000289916992,0,0.0,0.0,,,,,0,,1,,
Raw,5983625,5987448000000,,,-1291005709998546944,0.0,74.97385377064347,-1.644930165796114,17.13184767940731,3,23,0.0,15,368497374197397,73,17.7,544.2113647460938,1.847499966621399,0,0.0,0.0,,,,,0,,1,,
Raw,5983626,5987448000000,,,-1291005709998546944,0.0,74.97385377064347,-1.644930165796114,17.13184767940731,3,25,0.0,15,368497378331073,1688,7.2,93.9670181274414,27.343502044677734,0,0.0,0.0,,,,,0,,1,,
Raw,5983626,5987448000000,,,-1291005709998546944,0.0,74.97385377064347,-1.644930165796114,17.13184767940731,3,26,0.0,15,368497366566065,19,27.6,-704.9812622070312,0.20000000298023224,0,0.0,0.0,,,,,0,,1,,
Raw,5983627,5987448000000,,,-1291005709998546944,0.0,74.97385377064347,-1.644930165796114,17.13184767940731,3,31,0.0,15,368497374120723,14,30.4,-215.5584259033203,0.20000000298023224,0,0.0,0.0,,,,,0,,1,,
Raw,5983627,5987448000000,,,-1291005709998546944,0.0,74.97385377064347,-1.644930165796114,17.13184767940731,3,2,0.0,783,368483321641928,47,21.1,-12.36734390258789,2.2250001430511475,0,0.0,0.0,,,,,0,,5,,
Raw,5983627,5987448000000,,,-1291005709998546944,0.0,74.97385377064347,-1.644930165796114,17.13184767940731,3,5,0.0,783,368483313510015,26,25.8,-0.18243750929832458,1.2450000047683716,0,0.0,0.0,,,,,0,,5,,
Raw,5983628,5987448000000,,,-1291005709998546944,0.0,74.97385377064347,-1.644930165796114,17.13184767940731,3,6,0.0,15,368483323160341,506,10.2,-85.51519012451172,12.981000900268555,0,0.0,0.0,,,,,0,,5,,
Raw,5983628,5987448000000,,,-1291005709998546944,0.0,74.97385377064347,-1.644930165796114,17.13184767940731,3,8,0.0,15,368483313870776,53,19.7,344.4228210449219,0.8659999966621399,0,0.0,0.0,,,,,0,,5,,
Raw,5983629,5987448000000,,,-1291005709998546944,0.0,74.97385377064347,-1.644930165796114,17.13184767940731,3,10,0.0,15,368483317936372,3218,9.7,-221.78640747070312,37.89200210571289,0,0.0,0.0,,,,,0,,5,,
Raw,5983629,5987448000000,,,-1291005709998546944,0.0,74.97385377064347,-1.644930165796114,17.13184767940731,3,13,0.0,15,368483317456037,24,25.3,354.30364990234375,0.4072999954223633,0,0.0,0.0,,,,,0,,5,,
Raw,5983630,5987448000000,,,-1291005709998546944,0.0,74.97385377064347,-1.644930165796114,17.13184767940731,3,19,0.0,15,368483366781558,1276,11.0,484.1027526855469,23.220500946044922,0,0.0,0.0,,,,,0,,5,,
Raw,5983630,5987448000000,,,-1291005709998546944,0.0,74.97385377064347,-1.644930165796114,17.13184767940731,3,21,0.0,15,368483367123126,79,19.1,-481.1357727050781,3.8570001125335693,0,0.0,0.0,,,,,0,,5,,
Raw,5983631,5987448000000,,,-1291005709998546944,0.0,74.97385377064347,-1.644930165796114,17.13184767940731,3,22,0.0,15,368483373798939,134,15.7,8.71859359741211,4.936000347137451,0,0.0,0.0,,,,,0,,5,,
Raw,5983631,5987448000000,,,-1291005709998546944,0.0,74.97385377064347,-1.644930165796114,17.13184767940731,3,26,0.0,15,368483363974993,40,21.8,-440.5674133300781,0.6710000038146973,0,0.0,0.0,,,,,0,,5,,
Raw,5983631,5987448000000,,,-1291005709998546944,0.0,74.97385377064347,-1.644930165796114,17.13184767940731,3,5,0.0,7183,368497353943554,46,20.5,-418.065673828125,0.7519999742507935,0,0.0,0.0,,,,,0,,6,,
NMEA,$GPGSV,3,2,12,25,63,075,07,26,14,205,28,31,40,272,30,18,00,000,*7B,1606976479402
NMEA,$GPGSV,3,3,12,21,00,000,,24,02,056,,29,09,132,,32,47,344,*7D,1606976479402
NMEA,$GLGSV,2,1,08,73,46,233,11,79,15,026,16,69,50,108,18,71,05,327,17*6A,1606976479402
NMEA,$GLGSV,2,2,08,74,00,000,,70,50,351,,80,66,347,,68,05,135,*6F,1606976479404
NMEA,$GAGSV,1,1,01,05,11,313,21*5E,1606976479404
NMEA,$PQGSV,1,1,03,193,67,115,13,194,71,071,,195,16,153,,0,5*65,1606976479404
NMEA,$PQGSV,4,1,16,02,41,241,21,05,17,258,26,06,55,008,10,08,17,198,20,0,4*61,1606976479405
NMEA,$PQGSV,4,2,16,10,31,196,10,13,26,222,25,19,30,135,11,21,36,323,19,0,4*65,1606976479405
NMEA,$PQGSV,4,3,16,22,83,082,16,26,19,237,22,01,51,129,,03,59,202,,0,4*67,1606976479405
NMEA,$PQGSV,4,4,16,04,37,115,,07,54,175,,09,43,326,,29,00,000,,0,4*6E,1606976479405
NMEA,$GNGSA,A,3,10,23,26,31,,,,,,,,,1.4,1.2,0.8,1*39,1606976479406
NMEA,$GNGSA,A,2,73,79,,,,,,,,,,,1.4,1.2,0.8,2*37,1606976479406
NMEA,$GNGSA,A,2,05,,,,,,,,,,,,1.4,1.2,0.8,3*39,1606976479407
NMEA,$PQGSA,A,2,26,,,,,,,,,,,,1.4,1.2,0.8,4*37,1606976479407
NMEA,$GNVTG,,T,,M,0.0,N,0.0,K,A*3D,1606976479408
NMEA,$GNRMC,062120.00,A,2255.530194,N,12017.685580,E,0.0,,031220,2.8,W,A*11,1606976479408
NMEA,$GNGGA,062120.00,2255.530194,N,12017.685580,E,1,08,1.2,17.8,M,17.5,M,,*4A,1606976479408
Fix,gps,22.925503,120.294760,35.289124,0.000000,10.720000,1606976481000
NMEA,$GPGSV,3,1,12,10,73,206,16,12,27,045,13,20,37,168,14,23,44,164,18*7C,1606976480402
Raw,5984626,5988448000000,,,-1291005709998546944,0.0,74.53952275682241,-5.748594298545039,18.38640631103689,3,9,0.0,207,33680378197362,558,10.9,-378.79608154296875,14.093500137329102,0,0.0,0.0,,,,,0,,3,,
Raw,5984627,5988448000000,,,-1291005709998546944,0.0,74.53952275682241,-5.748594298545039,18.38640631103689,3,15,0.0,207,33680369681969,111,15.8,730.056396484375,3.7200002670288086,0,0.0,0.0,,,,,0,,3,,
Raw,5984627,5988448000000,,,-1291005709998546944,0.0,74.53952275682241,-5.748594298545039,18.38640631103689,3,5,0.0,207,33680379069173,61,18.6,246.8584747314453,1.225000023841858,0,0.0,0.0,,,,,0,,3,,
Raw,5984628,5988448000000,,,-1291005709998546944,0.0,74.53952275682241,-5.748594298545039,18.38640631103689,3,7,0.0,207,33680366300851,147,17.1,-711.011474609375,6.5355000495910645,0,0.0,0.0,,,,,0,,3,,
Raw,5984628,5988448000000,,,-1291005709998546944,0.0,74.53952275682241,-5.748594298545039,18.38640631103689,3,10,0.0,15,368498378879930,90,16.4,183.7666015625,2.7835001945495605,0,0.0,0.0,,,,,0,,1,,
Raw,5984629,5988448000000,,,-1291005709998546944,0.0,74.53952275682241,-5.748594298545039,18.38640631103689,3,12,0.0,15,368498370644717,547,12.9,497.989013671875,14.36150074005127,0,0.0,0.0,,,,,0,,1,,
Raw,5984630,5988448000000,,,-1291005709998546944,0.0,74.53952275682241,-5.748594298545039,18.38640631103689,3,20,0.0,15,368498373619451,167,14.2,601.480224609375,5.996000289916992,0,0.0,0.0,,,,,0,,1,,
Raw,5984631,5988448000000,,,-1291005709998546944,0.0,74.53952275682241,-5.748594298545039,18.38640631103689,3,23,0.0,15,368498374195582,87,17.7,544.2113647460938,3.3475000858306885,0,0.0,0.0,,,,,0,,1,,
Raw,5984632,5988448000000,,,-1291005709998546944,0.0,74.53952275682241,-5.748594298545039,18.38640631103689,3,25,0.0,15,368498378330760,1867,7.2,93.9670181274414,28.843502044677734,0,0.0,0.0,,,,,0,,1,,
Raw,5984632,5988448000000,,,-1291005709998546944,0.0,74.53952275682241,-5.748594298545039,18.38640631103689,3,26,0.0,15,368498366568415,19,27.1,-707.9735717773438,0.20000000298023224,0,0.0,0.0,,,,,0,,1,,
Raw,5984632,5988448000000,,,-1291005709998546944,0.0,74.53952275682241,-5.748594298545039,18.38640631103689,3,31,0.0,15,368498374121476,14,30.6,-218.43121337890625,0.20000000298023224,0,0.0,0.0,,,,,0,,1,,
Raw,5984633,5988448000000,,,-1291005709998546944,0.0,74.53952275682241,-5.748594298545039,18.38640631103689,3,2,0.0,783,368484321641969,65,21.1,-12.36734390258789,3.7250001430511475,0,0.0,0.0,,,,,0,,5,,
Raw,5984633,5988448000000,,,-1291005709998546944,0.0,74.53952275682241,-5.748594298545039,18.38640631103689,3,5,0.0,783,368484313510015,38,25.8,-0.18243750929832458,2.745000123977661,0,0.0,0.0,,,,,0,,5,,
Raw,5984634,5988448000000,,,-1291005709998546944,0.0,74.53952275682241,-5.748594298545039,18.38640631103689,3,6,0.0,15,368484323160626,592,10.2,-85.51519012451172,14.481000900268555,0,0.0,0.0,,,,,0,,5,,
Raw,5984634,5988448000000,,,-1291005709998546944,0.0,74.53952275682241,-5.748594298545039,18.38640631103689,3,8,0.0,15,368484313869611,46,20.6,341.66705322265625,0.8059999942779541,0,0.0,0.0,,,,,0,,5,,
Raw,5984634,5988448000000,,,-1291005709998546944,0.0,74.53952275682241,-5.748594298545039,18.38640631103689,3,13,0.0,15,368484317454882,24,25.6,349.6847229003906,0.5519999861717224,0,0.0,0.0,,,,,0,,5,,
Raw,5984635,5988448000000,,,-1291005709998546944,0.0,74.53952275682241,-5.748594298545039,18.38640631103689,3,19,0.0,15,368484366779943,1431,11.0,484.1027526855469,24.720500946044922,0,0.0,0.0,,,,,0,,5,,
Raw,5984635,5988448000000,,,-1291005709998546944,0.0,74.53952275682241,-5.748594298545039,18.38640631103689,3,21,0.0,15,368484367124764,101,15.8,-485.331787109375,2.5870001316070557,0,0.0,0.0,,,,,0,,5,,
Raw,5984636,5988448000000,,,-1291005709998546944,0.0,74.53952275682241,-5.748594298545039,18.38640631103689,3,22,0.0,15,368484373798910,168,15.7,8.71859359741211,6.436000347137451,0,0.0,0.0,,,,,0,,5,,
Raw,5984636,5988448000000,,,-1291005709998546944,0.0,74.53952275682241,-5.748594298545039,18.38640631103689,3,26,0.0,15,368484363976487,31,23.9,-443.6112060546875,0.581000030040741,0,0.0,0.0,,,,,0,,5,,
Raw,5984637,5988448000000,,,-1291005709998546944,0.0,74.53952275682241,-5.748594298545039,18.38640631103689,3,5,0.0,7183,368498353944926,53,19.9,-421.74786376953125,0.8119999766349792,0,0.0,0.0,,,,,0,,6,,
NMEA,$GPGSV,3,2,12,25,63,075,07,26,14,205,27,31,40,272,31,18,00,000,*75,1606976480402
NMEA,$GPGSV,3,3,12,21,00,000,,24,02,056,,29,09,132,,32,47,344,*7D,1606976480402
NMEA,$GLGSV,2,1,08,73,46,233,11,79,15,026,16,69,50,108,19,71,05,327,17*6B,1606976480402
NMEA,$GLGSV,2,2,08,74,00,000,,70,50,351,,80,66,347,,68,05,135,*6F,1606976480403
NMEA,$GAGSV,1,1,01,05,11,313,20*5F,1606976480403
NMEA,$PQGSV,1,1,03,193,67,115,13,194,71,071,,195,16,153,,0,5*65,1606976480404
NMEA,$PQGSV,4,1,16,02,41,241,21,05,17,258,26,06,55,008,10,08,17,198,21,0,4*60,1606976480404
NMEA,$PQGSV,4,2,16,13,26,222,26,19,30,135,11,21,36,323,16,22,83,082,16,0,4*63,1606976480404
NMEA,$PQGSV,4,3,16,26,19,237,24,01,51,129,,03,59,202,,04,37,115,,0,4*62,1606976480404
NMEA,$PQGSV,4,4,16,07,54,175,,09,43,326,,10,31,196,,29,00,000,,0,4*66,1606976480404
NMEA,$GNGSA,A,3,10,23,26,31,,,,,,,,,1.4,1.2,0.8,1*39,1606976480405
NMEA,$GNGSA,A,2,73,79,,,,,,,,,,,1.4,1.2,0.8,2*37,1606976480405
NMEA,$GNGSA,A,2,05,,,,,,,,,,,,1.4,1.2,0.8,3*39,1606976480406
NMEA,$PQGSA,A,2,26,,,,,,,,,,,,1.4,1.2,0.8,4*37,1606976480406
NMEA,$GNVTG,,T,,M,0.0,N,0.0,K,A*3D,1606976480406
NMEA,$GNRMC,062121.00,A,2255.530196,N,12017.685578,E,0.0,,031220,2.8,W,A*15,1606976480407
NMEA,$GNGGA,062121.00,2255.530196,N,12017.685578,E,1,08,1.2,17.8,M,17.5,M,,*4E,1606976480407
Raw,5985642,5989448000000,,,-1291005709998546944,0.0,74.8785532778129,-15.34606191199053,19.459075143212353,3,9,0.0,207,33681378198625,651,10.9,-378.79608154296875,15.593500137329102,0,0.0,0.0,,,,,0,,3,,
Raw,5985643,5989448000000,,,-1291005709998546944,0.0,74.8785532778129,-15.34606191199053,19.459075143212353,3,15,0.0,207,33681369679903,73,17.4,724.825927734375,2.0399999618530273,0,0.0,0.0,,,,,0,,3,,
Raw,5985643,5989448000000,,,-1291005709998546944,0.0,74.8785532778129,-15.34606191199053,19.459075143212353,3,5,0.0,207,33681379068110,46,20.0,246.90524291992188,1.090000033378601,0,0.0,0.0,,,,,0,,3,,
Raw,5985644,5989448000000,,,-1291005709998546944,0.0,74.8785532778129,-15.34606191199053,19.459075143212353,3,7,0.0,207,33681366303222,191,17.1,-711.011474609375,8.035500526428223,0,0.0,0.0,,,,,0,,3,,
Raw,5985644,5989448000000,,,-1291005709998546944,0.0,74.8785532778129,-15.34606191199053,19.459075143212353,3,10,0.0,15,368499378879382,110,14.5,180.14151000976562,2.133500099182129,0,0.0,0.0,,,,,0,,1,,
Raw,5985644,5989448000000,,,-1291005709998546944,0.0,74.8785532778129,-15.34606191199053,19.459075143212353,3,12,0.0,15,368499370643055,643,12.9,497.989013671875,15.86150074005127,0,0.0,0.0,,,,,0,,1,,
Raw,5985645,5989448000000,,,-1291005709998546944,0.0,74.8785532778129,-15.34606191199053,19.459075143212353,3,20,0.0,15,368499373617444,207,14.2,601.480224609375,7.496000289916992,0,0.0,0.0,,,,,0,,1,,
Raw,5985645,5989448000000,,,-1291005709998546944,0.0,74.8785532778129,-15.34606191199053,19.459075143212353,3,23,0.0,15,368499374193757,84,16.9,540.662353515625,1.9375,0,0.0,0.0,,,,,0,,1,,
Raw,5985645,5989448000000,,,-1291005709998546944,0.0,74.8785532778129,-15.34606191199053,19.459075143212353,3,25,0.0,15,368499378330446,2056,7.2,93.9670181274414,30.343502044677734,0,0.0,0.0,,,,,0,,1,,
Raw,5985646,5989448000000,,,-1291005709998546944,0.0,74.8785532778129,-15.34606191199053,19.459075143212353,3,26,0.0,15,368499366570813,19,27.6,-708.518310546875,0.20000000298023224,0,0.0,0.0,,,,,0,,1,,
Raw,5985646,5989448000000,,,-1291005709998546944,0.0,74.8785532778129,-15.34606191199053,19.459075143212353,3,31,0.0,15,368499374122202,14,30.6,-218.89974975585938,0.20000000298023224,0,0.0,0.0,,,,,0,,1,,
Raw,5985647,5989448000000,,,-1291005709998546944,0.0,74.8785532778129,-15.34606191199053,19.459075143212353,3,2,0.0,783,368485321642010,92,21.1,-12.36734390258789,5.225000381469727,0,0.0,0.0,,,,,0,,5,,
Raw,5985647,5989448000000,,,-1291005709998546944,0.0,74.8785532778129,-15.34606191199053,19.459075143212353,3,5,0.0,783,368485313510020,23,26.2,2.141240358352661,1.2450000047683716,0,0.0,0.0,,,,,0,,5,,
Raw,5985647,5989448000000,,,-1291005709998546944,0.0,74.8785532778129,-15.34606191199053,19.459075143212353,3,6,0.0,15,368485323160911,688,10.2,-85.51519012451172,15.981000900268555,0,0.0,0.0,,,,,0,,5,,
Raw,5985648,5989448000000,,,-1291005709998546944,0.0,74.8785532778129,-15.34606191199053,19.459075143212353,3,8,0.0,15,368485313868540,46,20.1,341.9359130859375,0.8059999942779541,0,0.0,0.0,,,,,0,,5,,
Raw,5985648,5989448000000,,,-1291005709998546944,0.0,74.8785532778129,-15.34606191199053,19.459075143212353,3,13,0.0,15,368485317453705,21,26.0,349.2149658203125,0.20000000298023224,0,0.0,0.0,,,,,0,,5,,
Raw,5985649,5989448000000,,,-1291005709998546944,0.0,74.8785532778129,-15.34606191199053,19.459075143212353,3,19,0.0,15,368485366778328,1596,11.0,484.1027526855469,26.220500946044922,0,0.0,0.0,,,,,0,,5,,
Raw,5985649,5989448000000,,,-1291005709998546944,0.0,74.8785532778129,-15.34606191199053,19.459075143212353,3,21,0.0,15,368485367126383,120,15.8,-485.331787109375,4.086999893188477,0,0.0,0.0,,,,,0,,5,,
Raw,5985649,5989448000000,,,-1291005709998546944,0.0,74.8785532778129,-15.34606191199053,19.459075143212353,3,22,0.0,15,368485373798909,110,15.0,4.148053169250488,3.436000108718872,0,0.0,0.0,,,,,0,,5,,
Raw,5985650,5989448000000,,,-1291005709998546944,0.0,74.8785532778129,-15.34606191199053,19.459075143212353,3,26,0.0,15,368485363977958,35,22.8,-443.3999938964844,0.6210000514984131,0,0.0,0.0,,,,,0,,5,,
Raw,5985651,5989448000000,,,-1291005709998546944,0.0,74.8785532778129,-15.34606191199053,19.459075143212353,3,5,0.0,7183,368499353946342,46,20.8,-422.4329528808594,0.7669999599456787,0,0.0,0.0,,,,,0,,6,,
Fix,gps,22.925503,120.294760,35.279724,0.000000,10.720000,1606976482000
NMEA,$GPGSV,3,1,12,10,73,206,15,12,27,045,13,20,37,168,14,23,44,164,17*70,1606976481402
NMEA,$GPGSV,3,2,12,25,63,075,07,26,14,205,28,31,40,272,31,18,00,000,*7A,1606976481402
NMEA,$GPGSV,3,3,12,21,00,000,,24,02,056,,29,09,132,,32,47,344,*7D,1606976481403
NMEA,$GLGSV,2,1,08,73,46,233,11,79,15,026,17,69,50,108,20,71,05,327,17*60,1606976481403
NMEA,$GLGSV,2,2,08,74,00,000,,70,50,351,,80,66,347,,68,05,135,*6F,1606976481407
NMEA,$GAGSV,1,1,01,05,11,313,21*5E,1606976481407
NMEA,$PQGSV,1,1,03,193,67,115,13,194,71,071,,195,16,153,,0,5*65,1606976481408
NMEA,$PQGSV,4,1,16,02,41,241,21,05,17,258,26,06,55,008,10,08,17,198,20,0,4*61,1606976481408
NMEA,$PQGSV,4,2,16,13,26,222,26,19,30,135,11,21,36,323,16,22,83,082,15,0,4*60,1606976481408
NMEA,$PQGSV,4,3,16,26,19,237,23,01,51,129,,03,59,202,,04,37,115,,0,4*65,1606976481409
NMEA,$PQGSV,4,4,16,07,54,175,,09,43,326,,10,31,196,,29,00,000,,0,4*66,1606976481409
NMEA,$GNGSA,A,3,10,23,26,31,,,,,,,,,1.4,1.2,0.8,1*39,1606976481412
NMEA,$GNGSA,A,2,73,79,,,,,,,,,,,1.4,1.2,0.8,2*37,1606976481412
NMEA,$GNGSA,A,2,05,,,,,,,,,,,,1.4,1.2,0.8,3*39,1606976481413
NMEA,$PQGSA,A,2,26,,,,,,,,,,,,1.4,1.2,0.8,4*37,1606976481413
NMEA,$GNVTG,,T,,M,0.0,N,0.0,K,A*3D,1606976481414
NMEA,$GNRMC,062122.00,A,2255.530196,N,12017.685580,E,0.0,,031220,2.8,W,A*11,1606976481414
NMEA,$GNGGA,062122.00,2255.530196,N,12017.685580,E,1,08,1.2,17.8,M,17.5,M,,*4A,1606976481414
Fix,gps,22.925503,120.294760,35.291748,0.000000,11.792000,1606976483000
Raw,5986650,5990448000000,,,-1291005709998546944,0.0,71.39605440897867,-19.52337661338035,19.358825481804168,3,9,0.0,207,33682378199889,753,10.9,-378.79608154296875,17.0935001373291,0,0.0,0.0,,,,,0,,3,,
Raw,5986650,5990448000000,,,-1291005709998546944,0.0,71.39605440897867,-19.52337661338035,19.358825481804168,3,15,0.0,207,33682369677485,88,17.4,724.825927734375,3.5400002002716064,0,0.0,0.0,,,,,0,,3,,
Raw,5986651,5990448000000,,,-1291005709998546944,0.0,71.39605440897867,-19.52337661338035,19.358825481804168,3,5,0.0,207,33682379067313,53,19.0,245.55833435058594,1.1600000858306885,0,0.0,0.0,,,,,0,,3,,
Raw,5986651,5990448000000,,,-1291005709998546944,0.0,71.39605440897867,-19.52337661338035,19.358825481804168,3,7,0.0,207,33682366305594,245,17.1,-711.011474609375,9.535500526428223,0,0.0,0.0,,,,,0,,3,,
Raw,5986652,5990448000000,,,-1291005709998546944,0.0,71.39605440897867,-19.52337661338035,19.358825481804168,3,10,0.0,15,368500378879061,81,16.7,182.1205596923828,1.2085000276565552,0,0.0,0.0,,,,,0,,1,,
Raw,5986652,5990448000000,,,-1291005709998546944,0.0,71.39605440897867,-19.52337661338035,19.358825481804168,3,12,0.0,15,368500370641394,748,12.9,497.989013671875,17.361501693725586,0,0.0,0.0,,,,,0,,1,,
Raw,5986653,5990448000000,,,-1291005709998546944,0.0,71.39605440897867,-19.52337661338035,19.358825481804168,3,20,0.0,15,368500373615438,257,14.2,601.480224609375,8.996000289916992,0,0.0,0.0,,,,,0,,1,,
Raw,5986653,5990448000000,,,-1291005709998546944,0.0,71.39605440897867,-19.52337661338035,19.358825481804168,3,23,0.0,15,368500374191954,98,16.9,540.662353515625,3.4375,0,0.0,0.0,,,,,0,,1,,
Raw,5986653,5990448000000,,,-1291005709998546944,0.0,71.39605440897867,-19.52337661338035,19.358825481804168,3,25,0.0,15,368500378330133,2255,7.2,93.9670181274414,31.843502044677734,0,0.0,0.0,,,,,0,,1,,
Raw,5986654,5990448000000,,,-1291005709998546944,0.0,71.39605440897867,-19.52337661338035,19.358825481804168,3,26,0.0,15,368500366573177,19,27.9,-709.4176635742188,0.20000000298023224,0,0.0,0.0,,,,,0,,1,,
Raw,5986654,5990448000000,,,-1291005709998546944,0.0,71.39605440897867,-19.52337661338035,19.358825481804168,3,31,0.0,15,368500374122928,16,29.8,-219.447509765625,0.20000000298023224,0,0.0,0.0,,,,,0,,1,,
Raw,5986654,5990448000000,,,-1291005709998546944,0.0,71.39605440897867,-19.52337661338035,19.358825481804168,3,2,0.0,783,368486321641903,47,21.6,0.33606910705566406,2.2250001430511475,0,0.0,0.0,,,,,0,,5,,
Raw,5986655,5990448000000,,,-1291005709998546944,0.0,71.39605440897867,-19.52337661338035,19.358825481804168,3,5,0.0,783,368486313510013,35,26.2,2.141240358352661,2.745000123977661,0,0.0,0.0,,,,,0,,5,,
Raw,5986655,5990448000000,,,-1291005709998546944,0.0,71.39605440897867,-19.52337661338035,19.358825481804168,3,6,0.0,15,368486323161196,794,10.2,-85.51519012451172,17.481000900268555,0,0.0,0.0,,,,,0,,5,,
Raw,5986656,5990448000000,,,-1291005709998546944,0.0,71.39605440897867,-19.52337661338035,19.358825481804168,3,8,0.0,15,368486313867376,46,20.4,340.78369140625,0.8059999942779541,0,0.0,0.0,,,,,0,,5,,
Raw,5986656,5990448000000,,,-1291005709998546944,0.0,71.39605440897867,-19.52337661338035,19.358825481804168,3,13,0.0,15,368486317452522,24,25.9,348.48699951171875,0.4223000109195709,0,0.0,0.0,,,,,0,,5,,
Raw,5986657,5990448000000,,,-1291005709998546944,0.0,71.39605440897867,-19.52337661338035,19.358825481804168,3,19,0.0,15,368486366776801,337,11.1,479.6954650878906,9.76550006866455,0,0.0,0.0,,,,,0,,5,,
Raw,5986657,5990448000000,,,-1291005709998546944,0.0,71.39605440897867,-19.52337661338035,19.358825481804168,3,21,0.0,15,368486367128001,149,15.8,-485.331787109375,5.587000370025635,0,0.0,0.0,,,,,0,,5,,
Raw,5986657,5990448000000,,,-1291005709998546944,0.0,71.39605440897867,-19.52337661338035,19.358825481804168,3,22,0.0,15,368486373798895,134,15.0,4.148053169250488,4.936000347137451,0,0.0,0.0,,,,,0,,5,,
Raw,5986658,5990448000000,,,-1291005709998546944,0.0,71.39605440897867,-19.52337661338035,19.358825481804168,3,26,0.0,15,368486363979472,27,24.3,-444.47540283203125,0.581000030040741,0,0.0,0.0,,,,,0,,5,,
Raw,5986658,5990448000000,,,-1291005709998546944,0.0,71.39605440897867,-19.52337661338035,19.358825481804168,3,5,0.0,7183,368500353947771,46,20.2,-423.6983947753906,0.7669999599456787,0,0.0,0.0,,,,,0,,6,,
NMEA,$GPGSV,3,1,12,10,73,206,17,12,27,045,13,20,37,168,14,23,44,164,17*72,1606976482412
NMEA,$GPGSV,3,2,12,25,63,075,07,26,14,205,28,31,40,272,30,18,00,000,*7B,1606976482413
NMEA,$GPGSV,3,3,12,21,00,000,,24,02,056,,29,09,132,,32,47,344,*7D,1606976482414
NMEA,$GLGSV,2,1,08,73,46,233,11,79,15,026,17,69,50,108,19,71,05,327,17*6A,1606976482414
NMEA,$GLGSV,2,2,08,74,00,000,,70,50,351,,80,66,347,,68,05,135,*6F,1606976482415
NMEA,$GAGSV,1,1,01,05,11,313,20*5F,1606976482416
NMEA,$PQGSV,1,1,03,193,67,115,13,194,71,071,,195,16,153,,0,5*65,1606976482419
NMEA,$PQGSV,4,1,16,02,41,241,22,05,17,258,26,06,55,008,10,08,17,198,20,0,4*62,1606976482420
NMEA,$PQGSV,4,2,16,13,26,222,26,19,30,135,11,21,36,323,16,22,83,082,15,0,4*60,1606976482420
NMEA,$PQGSV,4,3,16,26,19,237,24,01,51,129,,03,59,202,,04,37,115,,0,4*62,1606976482422
NMEA,$PQGSV,4,4,16,07,54,175,,09,43,326,,10,31,196,,29,00,000,,0,4*66,1606976482423
NMEA,$GNGSA,A,3,10,23,26,31,,,,,,,,,1.4,1.2,0.8,1*39,1606976482425
NMEA,$GNGSA,A,2,73,79,,,,,,,,,,,1.4,1.2,0.8,2*37,1606976482426
NMEA,$GNGSA,A,2,05,,,,,,,,,,,,1.4,1.2,0.8,3*39,1606976482426
NMEA,$PQGSA,A,2,26,,,,,,,,,,,,1.4,1.2,0.8,4*37,1606976482428
NMEA,$GNVTG,,T,,M,0.0,N,0.0,K,A*3D,1606976482429
NMEA,$GNRMC,062123.00,A,2255.530196,N,12017.685580,E,0.0,,031220,2.8,W,A*10,1606976482430
NMEA,$GNGGA,062123.00,2255.530196,N,12017.685580,E,1,08,1.2,17.8,M,17.5,M,,*4B,1606976482433
Raw,5987665,5991448000000,,,-1291005709998546944,0.0,80.86841262411326,-21.74856026685818,23.216671927136083,3,9,0.0,207,33683378200873,186,12.5,-382.1200866699219,5.573500156402588,0,0.0,0.0,,,,,0,,3,,
Raw,5987666,5991448000000,,,-1291005709998546944,0.0,80.86841262411326,-21.74856026685818,23.216671927136083,3,15,0.0,207,33683369675068,112,17.4,724.825927734375,5.039999961853027,0,0.0,0.0,,,,,0,,3,,
Raw,5987666,5991448000000,,,-1291005709998546944,0.0,80.86841262411326,-21.74856026685818,23.216671927136083,3,5,0.0,207,33683379066494,62,19.0,245.55833435058594,2.6600000858306885,0,0.0,0.0,,,,,0,,3,,
Raw,5987667,5991448000000,,,-1291005709998546944,0.0,80.86841262411326,-21.74856026685818,23.216671927136083,3,7,0.0,207,33683366307892,151,14.1,-716.3355102539062,5.315500259399414,0,0.0,0.0,,,,,0,,3,,
Raw,5987667,5991448000000,,,-1291005709998546944,0.0,80.86841262411326,-21.74856026685818,23.216671927136083,3,10,0.0,15,368501378878453,90,16.7,182.1205596923828,2.7085001468658447,0,0.0,0.0,,,,,0,,1,,
Raw,5987668,5991448000000,,,-1291005709998546944,0.0,80.86841262411326,-21.74856026685818,23.216671927136083,3,12,0.0,15,368501370639733,864,12.9,497.989013671875,18.861501693725586,0,0.0,0.0,,,,,0,,1,,
Raw,5987668,5991448000000,,,-1291005709998546944,0.0,80.86841262411326,-21.74856026685818,23.216671927136083,3,20,0.0,15,368501373613432,317,14.2,601.480224609375,10.496000289916992,0,0.0,0.0,,,,,0,,1,,
Raw,5987669,5991448000000,,,-1291005709998546944,0.0,80.86841262411326,-21.74856026685818,23.216671927136083,3,23,0.0,15,368501374190144,64,18.0,539.7775268554688,1.847499966621399,0,0.0,0.0,,,,,0,,1,,
Raw,5987669,5991448000000,,,-1291005709998546944,0.0,80.86841262411326,-21.74856026685818,23.216671927136083,3,25,0.0,15,368501378329793,102,15.7,89.39044952392578,2.7985000610351562,0,0.0,0.0,,,,,0,,1,,
Raw,5987669,5991448000000,,,-1291005709998546944,0.0,80.86841262411326,-21.74856026685818,23.216671927136083,3,26,0.0,15,368501366575502,19,27.8,-708.1036376953125,0.20000000298023224,0,0.0,0.0,,,,,0,,1,,
Raw,5987670,5991448000000,,,-1291005709998546944,0.0,80.86841262411326,-21.74856026685818,23.216671927136083,3,31,0.0,15,368501374123642,14,30.8,-218.40960693359375,0.20000000298023224,0,0.0,0.0,,,,,0,,1,,
Raw,5987670,5991448000000,,,-1291005709998546944,0.0,80.86841262411326,-21.74856026685818,23.216671927136083,3,2,0.0,783,368487321641901,65,21.6,0.33606910705566406,3.7250001430511475,0,0.0,0.0,,,,,0,,5,,
Raw,5987671,5991448000000,,,-1291005709998546944,0.0,80.86841262411326,-21.74856026685818,23.216671927136083,3,5,0.0,783,368487313510012,21,27.1,-2.5829310417175293,1.2050000429153442,0,0.0,0.0,,,,,0,,5,,
Raw,5987671,5991448000000,,,-1291005709998546944,0.0,80.86841262411326,-21.74856026685818,23.216671927136083,3,6,0.0,15,368487323161482,910,10.2,-85.51519012451172,18.981000900268555,0,0.0,0.0,,,,,0,,5,,
Raw,5987672,5991448000000,,,-1291005709998546944,0.0,80.86841262411326,-21.74856026685818,23.216671927136083,3,8,0.0,15,368487313866184,40,21.5,342.6080627441406,0.7459999918937683,0,0.0,0.0,,,,,0,,5,,
Raw,5987672,5991448000000,,,-1291005709998546944,0.0,80.86841262411326,-21.74856026685818,23.216671927136083,3,13,0.0,15,368487317451366,19,27.8,349.4468994140625,0.20000000298023224,0,0.0,0.0,,,,,0,,5,,
Raw,5987673,5991448000000,,,-1291005709998546944,0.0,80.86841262411326,-21.74856026685818,23.216671927136083,3,19,0.0,15,368487366775201,401,11.1,479.6954650878906,11.26550006866455,0,0.0,0.0,,,,,0,,5,,
Raw,5987673,5991448000000,,,-1291005709998546944,0.0,80.86841262411326,-21.74856026685818,23.216671927136083,3,21,0.0,15,368487367129620,187,15.8,-485.331787109375,7.087000370025635,0,0.0,0.0,,,,,0,,5,,
Raw,5987674,5991448000000,,,-1291005709998546944,0.0,80.86841262411326,-21.74856026685818,23.216671927136083,3,22,0.0,15,368487373798869,84,16.4,1.3154704570770264,1.8459999561309814,0,0.0,0.0,,,,,0,,5,,
Raw,5987674,5991448000000,,,-1291005709998546944,0.0,80.86841262411326,-21.74856026685818,23.216671927136083,3,26,0.0,15,368487363980940,31,23.0,-442.8526611328125,0.6210000514984131,0,0.0,0.0,,,,,0,,5,,
Raw,5987674,5991448000000,,,-1291005709998546944,0.0,80.86841262411326,-21.74856026685818,23.216671927136083,3,5,0.0,7183,368501353949163,46,20.8,-422.2236022949219,0.7519999742507935,0,0.0,0.0,,,,,0,,6,,
Fix,gps,22.925503,120.294760,35.298889,0.000000,11.792000,1606976484000
NMEA,$GPGSV,3,1,12,10,73,206,17,12,27,045,13,20,37,168,14,23,44,164,18*7D,1606976483417
NMEA,$GPGSV,3,2,12,25,63,075,16,26,14,205,28,31,40,272,31,18,00,000,*7A,1606976483418
NMEA,$GPGSV,3,3,12,21,00,000,,24,02,056,,29,09,132,,32,47,344,*7D,1606976483418
NMEA,$GLGSV,2,1,08,73,46,233,13,79,15,026,17,69,50,108,19,71,05,327,14*6B,1606976483421
NMEA,$GLGSV,2,2,08,74,00,000,,70,50,351,,80,66,347,,68,05,135,*6F,1606976483422
NMEA,$GAGSV,1,1,01,05,11,313,21*5E,1606976483423
NMEA,$PQGSV,1,1,03,193,67,115,,194,71,071,,195,16,153,,0,5*67,1606976483423
NMEA,$PQGSV,4,1,16,02,41,241,22,05,17,258,27,06,55,008,10,08,17,198,22,0,4*61,1606976483424
NMEA,$PQGSV,4,2,16,13,26,222,28,19,30,135,11,21,36,323,16,22,83,082,16,0,4*6D,1606976483424
NMEA,$PQGSV,4,3,16,26,19,237,23,01,51,129,,03,59,202,,04,37,115,,0,4*65,1606976483425
NMEA,$PQGSV,4,4,16,07,54,175,,09,43,326,,10,31,196,,29,00,000,,0,4*66,1606976483425
NMEA,$GNGSA,A,3,10,23,26,31,,,,,,,,,1.4,1.2,0.8,1*39,1606976483426
NMEA,$GNGSA,A,2,73,79,,,,,,,,,,,1.4,1.2,0.8,2*37,1606976483426
NMEA,$GNGSA,A,2,05,,,,,,,,,,,,1.4,1.2,0.8,3*39,1606976483427
NMEA,$PQGSA,A,2,26,,,,,,,,,,,,1.4,1.2,0.8,4*37,1606976483427
NMEA,$GNVTG,,T,,M,0.0,N,0.0,K,A*3D,1606976483427
NMEA,$GNRMC,062124.00,A,2255.530197,N,12017.685579,E,0.0,,031220,2.8,W,A*10,1606976483427
NMEA,$GNGGA,062124.00,2255.530197,N,12017.685579,E,1,08,1.2,17.8,M,17.5,M,,*4B,1606976483427
Fix,gps,22.925503,120.294760,35.313843,0.000000,11.792000,1606976485000
NMEA,$GPGSV,3,1,12,10,73,206,17,12,27,045,13,20,37,168,14,23,44,164,19*7C,1606976484402
Raw,5988622,5992448000000,,,-1291005709998546944,0.0,82.99822366097942,-19.91925525425213,20.911728174639173,3,9,0.0,207,33684378202147,222,12.5,-382.1200866699219,7.073500156402588,0,0.0,0.0,,,,,0,,3,,
Raw,5988623,5992448000000,,,-1291005709998546944,0.0,82.99822366097942,-19.91925525425213,20.911728174639173,3,15,0.0,207,33684369672236,103,15.5,726.8844604492188,2.9700000286102295,0,0.0,0.0,,,,,0,,3,,
Raw,5988624,5992448000000,,,-1291005709998546944,0.0,82.99822366097942,-19.91925525425213,20.911728174639173,3,5,0.0,207,33684379065757,84,16.5,248.04638671875,2.1449999809265137,0,0.0,0.0,,,,,0,,3,,
Raw,5988625,5992448000000,,,-1291005709998546944,0.0,82.99822366097942,-19.91925525425213,20.911728174639173,3,7,0.0,207,33684366310406,70,17.7,-717.6151733398438,1.2855000495910645,0,0.0,0.0,,,,,0,,3,,
Raw,5988625,5992448000000,,,-1291005709998546944,0.0,82.99822366097942,-19.91925525425213,20.911728174639173,3,10,0.0,15,368502378877846,109,16.7,182.1205596923828,4.208499908447266,0,0.0,0.0,,,,,0,,1,,
Raw,5988626,5992448000000,,,-1291005709998546944,0.0,82.99822366097942,-19.91925525425213,20.911728174639173,3,12,0.0,15,368502370638072,990,12.9,497.989013671875,20.361501693725586,0,0.0,0.0,,,,,0,,1,,
Raw,5988627,5992448000000,,,-1291005709998546944,0.0,82.99822366097942,-19.91925525425213,20.911728174639173,3,20,0.0,15,368502373611634,152,13.8,596.1520385742188,4.496000289916992,0,0.0,0.0,,,,,0,,1,,
Raw,5988627,5992448000000,,,-1291005709998546944,0.0,82.99822366097942,-19.91925525425213,20.911728174639173,3,23,0.0,15,368502374188283,61,18.6,541.1000366210938,1.0175000429153442,0,0.0,0.0,,,,,0,,1,,
Raw,5988628,5992448000000,,,-1291005709998546944,0.0,82.99822366097942,-19.91925525425213,20.911728174639173,3,25,0.0,15,368502378329679,70,17.2,90.97940826416016,1.1934999227523804,0,0.0,0.0,,,,,0,,1,,
Raw,5988628,5992448000000,,,-1291005709998546944,0.0,82.99822366097942,-19.91925525425213,20.911728174639173,3,26,0.0,15,368502366577893,19,27.3,-707.5444946289062,0.20000000298023224,0,0.0,0.0,,,,,0,,1,,
Raw,5988629,5992448000000,,,-1291005709998546944,0.0,82.99822366097942,-19.91925525425213,20.911728174639173,3,31,0.0,15,368502374124398,14,30.2,-217.8179168701172,0.20000000298023224,0,0.0,0.0,,,,,0,,1,,
Raw,5988630,5992448000000,,,-1291005709998546944,0.0,82.99822366097942,-19.91925525425213,20.911728174639173,3,2,0.0,783,368488321641900,92,21.6,0.33606910705566406,5.225000381469727,0,0.0,0.0,,,,,0,,5,,
Raw,5988630,5992448000000,,,-1291005709998546944,0.0,82.99822366097942,-19.91925525425213,20.911728174639173,3,5,0.0,783,368488313510020,33,27.1,-2.5829310417175293,2.705000162124634,0,0.0,0.0,,,,,0,,5,,
Raw,5988631,5992448000000,,,-1291005709998546944,0.0,82.99822366097942,-19.91925525425213,20.911728174639173,3,6,0.0,15,368488323161767,1036,10.2,-85.51519012451172,20.481000900268555,0,0.0,0.0,,,,,0,,5,,
Raw,5988632,5992448000000,,,-1291005709998546944,0.0,82.99822366097942,-19.91925525425213,20.911728174639173,3,8,0.0,15,368488313865103,40,21.1,342.7904968261719,0.7459999918937683,0,0.0,0.0,,,,,0,,5,,
Raw,5988632,5992448000000,,,-1291005709998546944,0.0,82.99822366097942,-19.91925525425213,20.911728174639173,3,13,0.0,15,368488317450195,19,27.3,350.01263427734375,0.20000000298023224,0,0.0,0.0,,,,,0,,5,,
Raw,5988633,5992448000000,,,-1291005709998546944,0.0,82.99822366097942,-19.91925525425213,20.911728174639173,3,19,0.0,15,368488366773600,476,11.1,479.6954650878906,12.765501022338867,0,0.0,0.0,,,,,0,,5,,
Raw,5988633,5992448000000,,,-1291005709998546944,0.0,82.99822366097942,-19.91925525425213,20.911728174639173,3,21,0.0,15,368488367131256,124,14.9,-487.0217590332031,3.427000045776367,0,0.0,0.0,,,,,0,,5,,
Raw,5988634,5992448000000,,,-1291005709998546944,0.0,82.99822366097942,-19.91925525425213,20.911728174639173,3,22,0.0,15,368488373798864,97,16.4,1.3154704570770264,3.3459999561309814,0,0.0,0.0,,,,,0,,5,,
Raw,5988635,5992448000000,,,-1291005709998546944,0.0,82.99822366097942,-19.91925525425213,20.911728174639173,3,26,0.0,15,368488363982407,40,21.8,-442.6222229003906,0.6710000038146973,0,0.0,0.0,,,,,0,,5,,
Raw,5988635,5992448000000,,,-1291005709998546944,0.0,82.99822366097942,-19.91925525425213,20.911728174639173,3,5,0.0,7183,368502353950565,40,21.8,-420.8439636230469,0.6919999718666077,0,0.0,0.0,,,,,0,,6,,
NMEA,$GPGSV,3,2,12,25,63,075,17,26,14,205,27,31,40,272,30,18,00,000,*75,1606976484402
NMEA,$GPGSV,3,3,12,21,00,000,,24,02,056,,29,09,132,,32,47,344,*7D,1606976484402
NMEA,$GLGSV,2,1,08,73,46,233,13,79,15,026,16,69,50,108,17,71,05,327,18*68,1606976484403
NMEA,$GLGSV,2,2,08,74,00,000,,70,50,351,,80,66,347,,68,05,135,*6F,1606976484403
NMEA,$GAGSV,1,1,01,05,11,313,22*5D,1606976484404
NMEA,$PQGSV,1,1,03,193,67,115,,194,71,071,,195,16,153,,0,5*67,1606976484404
NMEA,$PQGSV,4,1,16,02,41,241,22,05,17,258,27,06,55,008,10,08,17,198,21,0,4*62,1606976484404
NMEA,$PQGSV,4,2,16,13,26,222,27,19,30,135,11,21,36,323,15,22,83,082,16,0,4*61,1606976484405
NMEA,$PQGSV,4,3,16,26,19,237,22,01,51,129,,03,59,202,,04,37,115,,0,4*64,1606976484405
NMEA,$PQGSV,4,4,16,07,54,175,,09,43,326,,10,31,196,,29,00,000,,0,4*66,1606976484405
NMEA,$GNGSA,A,3,10,23,26,31,,,,,,,,,1.4,1.2,0.8,1*39,1606976484408
NMEA,$GNGSA,A,2,73,79,,,,,,,,,,,1.4,1.2,0.8,2*37,1606976484408
NMEA,$GNGSA,A,2,05,,,,,,,,,,,,1.4,1.2,0.8,3*39,1606976484409
NMEA,$PQGSA,A,2,26,,,,,,,,,,,,1.4,1.2,0.8,4*37,1606976484409
NMEA,$GNVTG,,T,,M,0.0,N,0.0,K,A*3D,1606976484413
NMEA,$GNRMC,062125.00,A,2255.530197,N,12017.685575,E,0.0,,031220,2.8,W,A*1D,1606976484413
NMEA,$GNGGA,062125.00,2255.530197,N,12017.685575,E,1,08,1.2,17.8,M,17.5,M,,*46,1606976484413
Fix,gps,22.925503,120.294760,35.322876,0.000000,12.864000,1606976486000
Raw,5989609,5993448000000,,,-1291005709998547200,0.0,85.30500053893775,-16.47364792477525,18.595087461902434,3,9,0.0,207,33685378203091,96,15.5,-382.9440612792969,2.2335000038146973,0,0.0,0.0,,,,,0,,3,,
Raw,5989609,5993448000000,,,-1291005709998547200,0.0,85.30500053893775,-16.47364792477525,18.595087461902434,3,15,0.0,207,33685369669811,123,15.5,726.8844604492188,4.470000267028809,0,0.0,0.0,,,,,0,,3,,
Raw,5989610,5993448000000,,,-1291005709998547200,0.0,85.30500053893775,-16.47364792477525,18.595087461902434,3,5,0.0,207,33685379064964,70,17.5,248.8320770263672,1.3200000524520874,0,0.0,0.0,,,,,0,,3,,
Raw,5989610,5993448000000,,,-1291005709998547200,0.0,85.30500053893775,-16.47364792477525,18.595087461902434,3,7,0.0,207,33685366312806,61,18.0,-716.363525390625,1.2055001258850098,0,0.0,0.0,,,,,0,,3,,
Raw,5989610,5993448000000,,,-1291005709998547200,0.0,85.30500053893775,-16.47364792477525,18.595087461902434,3,10,0.0,15,368503378876946,116,14.0,178.9236297607422,3.00350022315979,0,0.0,0.0,,,,,0,,1,,
Raw,5989610,5993448000000,,,-1291005709998547200,0.0,85.30500053893775,-16.47364792477525,18.595087461902434,3,12,0.0,15,368503370636411,1125,12.9,497.989013671875,21.861501693725586,0,0.0,0.0,,,,,0,,1,,
Raw,5989610,5993448000000,,,-1291005709998547200,0.0,85.30500053893775,-16.47364792477525,18.595087461902434,3,20,0.0,15,368503373609645,182,13.8,596.1520385742188,5.996000289916992,0,0.0,0.0,,,,,0,,1,,
Raw,5989611,5993448000000,,,-1291005709998547200,0.0,85.30500053893775,-16.47364792477525,18.595087461902434,3,23,0.0,15,368503374186478,69,18.6,541.1000366210938,2.517500162124634,0,0.0,0.0,,,,,0,,1,,
Raw,5989611,5993448000000,,,-1291005709998547200,0.0,85.30500053893775,-16.47364792477525,18.595087461902434,3,25,0.0,15,368503378329229,61,18.9,92.02601623535156,1.0385000705718994,0,0.0,0.0,,,,,0,,1,,
Raw,5989611,5993448000000,,,-1291005709998547200,0.0,85.30500053893775,-16.47364792477525,18.595087461902434,3,26,0.0,15,368503366580251,17,28.8,-706.8416748046875,0.20000000298023224,0,0.0,0.0,,,,,0,,1,,
Raw,5989611,5993448000000,,,-1291005709998547200,0.0,85.30500053893775,-16.47364792477525,18.595087461902434,3,31,0.0,15,368503374125121,14,30.7,-217.052490234375,0.20000000298023224,0,0.0,0.0,,,,,0,,1,,
Raw,5989611,5993448000000,,,-1291005709998547200,0.0,85.30500053893775,-16.47364792477525,18.595087461902434,3,32,0.0,15,368503374820786,1190,14.6,-302.68109130859375,5.367500305175781,0,0.0,0.0,,,,,0,,1,,
Raw,5989612,5993448000000,,,-1291005709998547200,0.0,85.30500053893775,-16.47364792477525,18.595087461902434,3,2,0.0,783,368489321641998,54,20.4,-1.5075099468231201,2.2850000858306885,0,0.0,0.0,,,,,0,,5,,
Raw,5989612,5993448000000,,,-1291005709998547200,0.0,85.30500053893775,-16.47364792477525,18.595087461902434,3,5,0.0,783,368489313510024,23,26.2,-0.412884920835495,1.2450000047683716,0,0.0,0.0,,,,,0,,5,,
Raw,5989612,5993448000000,,,-1291005709998547200,0.0,85.30500053893775,-16.47364792477525,18.595087461902434,3,6,0.0,15,368489323162052,1172,10.2,-85.51519012451172,21.981000900268555,0,0.0,0.0,,,,,0,,5,,
Raw,5989612,5993448000000,,,-1291005709998547200,0.0,85.30500053893775,-16.47364792477525,18.595087461902434,3,8,0.0,15,368489313863904,40,21.2,343.203369140625,0.7459999918937683,0,0.0,0.0,,,,,0,,5,,
Raw,5989612,5993448000000,,,-1291005709998547200,0.0,85.30500053893775,-16.47364792477525,18.595087461902434,3,13,0.0,15,368489317449024,17,28.0,350.72991943359375,0.20000000298023224,0,0.0,0.0,,,,,0,,5,,
Raw,5989613,5993448000000,,,-1291005709998547200,0.0,85.30500053893775,-16.47364792477525,18.595087461902434,3,19,0.0,15,368489366772000,561,11.1,479.6954650878906,14.265501022338867,0,0.0,0.0,,,,,0,,5,,
Raw,5989613,5993448000000,,,-1291005709998547200,0.0,85.30500053893775,-16.47364792477525,18.595087461902434,3,21,0.0,15,368489367132881,148,14.9,-487.0217590332031,4.927000045776367,0,0.0,0.0,,,,,0,,5,,
Raw,5989613,5993448000000,,,-1291005709998547200,0.0,85.30500053893775,-16.47364792477525,18.595087461902434,3,22,0.0,15,368489373798790,73,17.1,2.967010021209717,1.7660000324249268,0,0.0,0.0,,,,,0,,5,,
Raw,5989613,5993448000000,,,-1291005709998547200,0.0,85.30500053893775,-16.47364792477525,18.595087461902434,3,26,0.0,15,368489363983909,35,22.7,-441.4700012207031,0.6710000038146973,0,0.0,0.0,,,,,0,,5,,
Raw,5989613,5993448000000,,,-1291005709998547200,0.0,85.30500053893775,-16.47364792477525,18.595087461902434,3,5,0.0,7183,368503353951955,40,21.0,-421.7098083496094,0.7069999575614929,0,0.0,0.0,,,,,0,,6,,
NMEA,$GPGSV,3,1,12,10,73,206,14,12,27,045,13,20,37,168,14,23,44,164,19*7F,1606976485400
NMEA,$GPGSV,3,2,12,25,63,075,19,26,14,205,29,31,40,272,31,32,47,344,15*78,1606976485400
NMEA,$GPGSV,3,3,12,18,00,000,,21,00,000,,24,02,056,,29,09,132,*75,1606976485400
NMEA,$GLGSV,2,1,08,73,46,233,16,79,15,026,16,69,50,108,18,71,05,327,18*62,1606976485401
NMEA,$GLGSV,2,2,08,74,00,000,,70,50,351,,80,66,347,,68,05,135,*6F,1606976485401
NMEA,$GAGSV,1,1,01,05,11,313,21*5E,1606976485401
NMEA,$PQGSV,1,1,03,193,67,115,,194,71,071,,195,16,153,,0,5*67,1606976485402
NMEA,$PQGSV,4,1,16,02,41,241,20,05,17,258,26,06,55,008,10,08,17,198,21,0,4*61,1606976485402
NMEA,$PQGSV,4,2,16,13,26,222,28,19,30,135,11,21,36,323,15,22,83,082,17,0,4*6F,1606976485402
NMEA,$PQGSV,4,3,16,26,19,237,23,01,51,129,,03,59,202,,04,37,115,,0,4*65,1606976485402
NMEA,$PQGSV,4,4,16,07,54,175,,09,43,326,,10,31,196,,29,00,000,,0,4*66,1606976485402
NMEA,$GNGSA,A,3,10,23,26,31,,,,,,,,,1.4,1.2,0.8,1*39,1606976485403
NMEA,$GNGSA,A,2,73,79,,,,,,,,,,,1.4,1.2,0.8,2*37,1606976485403
NMEA,$GNGSA,A,2,05,,,,,,,,,,,,1.4,1.2,0.8,3*39,1606976485403
NMEA,$PQGSA,A,2,26,,,,,,,,,,,,1.4,1.2,0.8,4*37,1606976485403
NMEA,$GNVTG,,T,,M,0.0,N,0.0,K,A*3D,1606976485403
NMEA,$GNRMC,062126.00,A,2255.530197,N,12017.685575,E,0.0,,031220,2.8,W,A*1E,1606976485403
NMEA,$GNGGA,062126.00,2255.530197,N,12017.685575,E,1,08,1.2,17.9,M,17.5,M,,*44,1606976485403
NMEA,$GPGSV,3,1,12,10,73,206,14,12,27,045,13,20,37,168,18,23,44,164,17*7D,1606976486404
NMEA,$GPGSV,3,2,12,25,63,075,18,26,14,205,29,31,40,272,31,32,47,344,15*79,1606976486404
Fix,gps,22.925503,120.294760,35.323792,0.000000,12.864000,1606976487000
Raw,5990638,5994448000000,,,-1291005709998547200,0.0,90.05339961731806,-16.831712650397964,18.37004265493853,3,9,0.0,207,33686378204369,111,15.5,-382.9440612792969,3.7335002422332764,0,0.0,0.0,,,,,0,,3,,
Raw,5990639,5994448000000,,,-1291005709998547200,0.0,90.05339961731806,-16.831712650397964,18.37004265493853,3,15,0.0,207,33686369667743,73,17.2,727.1651611328125,2.0399999618530273,0,0.0,0.0,,,,,0,,3,,
Raw,5990639,5994448000000,,,-1291005709998547200,0.0,90.05339961731806,-16.831712650397964,18.37004265493853,3,5,0.0,207,33686379064139,53,19.7,249.0752716064453,1.1449999809265137,0,0.0,0.0,,,,,0,,3,,
Raw,5990640,5994448000000,,,-1291005709998547200,0.0,90.05339961731806,-16.831712650397964,18.37004265493853,3,7,0.0,207,33686366315336,61,18.4,-715.1119384765625,1.2055001258850098,0,0.0,0.0,,,,,0,,3,,
Raw,5990641,5994448000000,,,-1291005709998547200,0.0,90.05339961731806,-16.831712650397964,18.37004265493853,3,10,0.0,15,368504378876349,137,14.0,178.9236297607422,4.503499984741211,0,0.0,0.0,,,,,0,,1,,
Raw,5990641,5994448000000,,,-1291005709998547200,0.0,90.05339961731806,-16.831712650397964,18.37004265493853,3,12,0.0,15,368504370634750,1271,12.9,497.989013671875,23.361501693725586,0,0.0,0.0,,,,,0,,1,,
Raw,5990642,5994448000000,,,-1291005709998547200,0.0,90.05339961731806,-16.831712650397964,18.37004265493853,3,20,0.0,15,368504373607492,64,18.2,599.0444946289062,1.8459999561309814,0,0.0,0.0,,,,,0,,1,,
Raw,5990642,5994448000000,,,-1291005709998547200,0.0,90.05339961731806,-16.831712650397964,18.37004265493853,3,23,0.0,15,368504374184818,73,17.4,541.7470703125,1.9524999856948853,0,0.0,0.0,,,,,0,,1,,
Raw,5990643,5994448000000,,,-1291005709998547200,0.0,90.05339961731806,-16.831712650397964,18.37004265493853,3,25,0.0,15,368504378328909,70,17.9,90.89376831054688,1.1034998893737793,0,0.0,0.0,,,,,0,,1,,
Raw,5990644,5994448000000,,,-1291005709998547200,0.0,90.05339961731806,-16.831712650397964,18.37004265493853,3,26,0.0,15,368504366582601,17,28.5,-705.922607421875,0.20000000298023224,0,0.0,0.0,,,,,0,,1,,
Raw,5990645,5994448000000,,,-1291005709998547200,0.0,90.05339961731806,-16.831712650397964,18.37004265493853,3,31,0.0,15,368504374125826,14,30.6,-216.1239013671875,0.20000000298023224,0,0.0,0.0,,,,,0,,1,,
Raw,5990645,5994448000000,,,-1291005709998547200,0.0,90.05339961731806,-16.831712650397964,18.37004265493853,3,32,0.0,15,368504374821796,1207,15.0,-302.319580078125,6.117500305175781,0,0.0,0.0,,,,,0,,1,,
Raw,5990646,5994448000000,,,-1291005709998547200,0.0,90.05339961731806,-16.831712650397964,18.37004265493853,3,2,0.0,783,368490321642003,71,20.4,-1.5075099468231201,3.7850000858306885,0,0.0,0.0,,,,,0,,5,,
Raw,5990646,5994448000000,,,-1291005709998547200,0.0,90.05339961731806,-16.831712650397964,18.37004265493853,3,5,0.0,783,368490313510025,35,26.2,-0.412884920835495,2.745000123977661,0,0.0,0.0,,,,,0,,5,,
Raw,5990647,5994448000000,,,-1291005709998547200,0.0,90.05339961731806,-16.831712650397964,18.37004265493853,3,6,0.0,15,368490323162337,1318,10.2,-85.51519012451172,23.481000900268555,0,0.0,0.0,,,,,0,,5,,
Raw,5990648,5994448000000,,,-1291005709998547200,0.0,90.05339961731806,-16.831712650397964,18.37004265493853,3,8,0.0,15,368490313862813,46,20.1,344.6148681640625,0.8059999942779541,0,0.0,0.0,,,,,0,,5,,
Raw,5990649,5994448000000,,,-1291005709998547200,0.0,90.05339961731806,-16.831712650397964,18.37004265493853,3,13,0.0,15,368490317447865,17,28.0,351.58026123046875,0.20000000298023224,0,0.0,0.0,,,,,0,,5,,
Raw,5990649,5994448000000,,,-1291005709998547200,0.0,90.05339961731806,-16.831712650397964,18.37004265493853,3,19,0.0,15,368490366770400,656,11.1,479.6954650878906,15.765501022338867,0,0.0,0.0,,,,,0,,5,,
Raw,5990650,5994448000000,,,-1291005709998547200,0.0,90.05339961731806,-16.831712650397964,18.37004265493853,3,21,0.0,15,368490367134529,83,16.8,-484.8805236816406,1.7570000886917114,0,0.0,0.0,,,,,0,,5,,
Raw,5990651,5994448000000,,,-1291005709998547200,0.0,90.05339961731806,-16.831712650397964,18.37004265493853,3,22,0.0,15,368490373798780,86,17.1,2.967010021209717,3.2660000324249268,0,0.0,0.0,,,,,0,,5,,
Raw,5990651,5994448000000,,,-1291005709998547200,0.0,90.05339961731806,-16.831712650397964,18.37004265493853,3,26,0.0,15,368490363985406,40,21.3,-440.85546875,0.7310000061988831,0,0.0,0.0,,,,,0,,5,,
Raw,5990652,5994448000000,,,-1291005709998547200,0.0,90.05339961731806,-16.831712650397964,18.37004265493853,3,5,0.0,7183,368504353953358,46,20.8,-419.9400939941406,0.7519999742507935,0,0.0,0.0,,,,,0,,6,,
NMEA,$GPGSV,3,3,12,18,00,000,,21,00,000,,24,02,056,,29,09,132,*75,1606976486404
NMEA,$GLGSV,2,1,08,73,46,233,16,79,15,026,17,69,50,108,20,71,05,327,18*68,1606976486404
NMEA,$GLGSV,2,2,08,74,00,000,,70,50,351,,80,66,347,,68,05,135,*6F,1606976486405
NMEA,$GAGSV,1,1,01,05,11,313,21*5E,1606976486405
NMEA,$PQGSV,1,1,03,193,67,115,,194,71,071,,195,16,153,,0,5*67,1606976486407
NMEA,$PQGSV,4,1,16,02,41,241,20,05,17,258,26,06,55,008,10,08,17,198,20,0,4*60,1606976486408
NMEA,$PQGSV,4,2,16,13,26,222,28,19,30,135,11,21,36,323,17,22,83,082,17,0,4*6D,1606976486408
NMEA,$PQGSV,4,3,16,26,19,237,21,01,51,129,,03,59,202,,04,37,115,,0,4*67,1606976486408
NMEA,$PQGSV,4,4,16,07,54,175,,09,43,326,,10,31,196,,29,00,000,,0,4*66,1606976486408
NMEA,$GNGSA,A,3,10,23,26,31,,,,,,,,,1.4,1.2,0.8,1*39,1606976486409
NMEA,$GNGSA,A,2,73,79,,,,,,,,,,,1.4,1.2,0.8,2*37,1606976486409
NMEA,$GNGSA,A,2,05,,,,,,,,,,,,1.4,1.2,0.8,3*39,1606976486409
NMEA,$PQGSA,A,2,26,,,,,,,,,,,,1.4,1.2,0.8,4*37,1606976486410
NMEA,$GNVTG,,T,,M,0.0,N,0.0,K,A*3D,1606976486410
NMEA,$GNRMC,062127.00,A,2255.530197,N,12017.685575,E,0.0,,031220,2.8,W,A*1F,1606976486410
NMEA,$GNGGA,062127.00,2255.530197,N,12017.685575,E,1,08,1.2,17.9,M,17.5,M,,*45,1606976486411
NMEA,$GPGSV,3,1,12,10,73,206,14,12,27,045,13,20,37,168,18,23,44,164,18*72,1606976487414
Raw,5991771,5995448000000,,,-1291005709998547200,0.0,88.54983752826229,-13.795966553235388,17.420893341161822,3,9,0.0,207,33687378205646,137,15.5,-382.9440612792969,5.233500003814697,0,0.0,0.0,,,,,0,,3,,
Raw,5991774,5995448000000,,,-1291005709998547200,0.0,88.54983752826229,-13.795966553235388,17.420893341161822,3,15,0.0,207,33687369665317,88,17.2,727.1651611328125,3.5400002002716064,0,0.0,0.0,,,,,0,,3,,
Raw,5991776,5995448000000,,,-1291005709998547200,0.0,88.54983752826229,-13.795966553235388,17.420893341161822,3,5,0.0,207,33687379063360,46,20.2,250.77761840820312,1.090000033378601,0,0.0,0.0,,,,,0,,3,,
Raw,5991779,5995448000000,,,-1291005709998547200,0.0,88.54983752826229,-13.795966553235388,17.420893341161822,3,7,0.0,207,33687366317721,70,18.4,-715.1119384765625,2.7055001258850098,0,0.0,0.0,,,,,0,,3,,
Raw,5991781,5995448000000,,,-1291005709998547200,0.0,88.54983752826229,-13.795966553235388,17.420893341161822,3,10,0.0,15,368505378875752,167,14.0,178.9236297607422,6.003500461578369,0,0.0,0.0,,,,,0,,1,,
Raw,5991783,5995448000000,,,-1291005709998547200,0.0,88.54983752826229,-13.795966553235388,17.420893341161822,3,12,0.0,15,368505370633089,1426,12.9,497.989013671875,24.861501693725586,0,0.0,0.0,,,,,0,,1,,
Raw,5991786,5995448000000,,,-1291005709998547200,0.0,88.54983752826229,-13.795966553235388,17.420893341161822,3,20,0.0,15,368505373605539,70,17.7,600.6429443359375,1.0959999561309814,0,0.0,0.0,,,,,0,,1,,
Raw,5991788,5995448000000,,,-1291005709998547200,0.0,88.54983752826229,-13.795966553235388,17.420893341161822,3,23,0.0,15,368505374182885,61,18.3,543.3264770507812,1.097499966621399,0,0.0,0.0,,,,,0,,1,,
Raw,5991790,5995448000000,,,-1291005709998547200,0.0,88.54983752826229,-13.795966553235388,17.420893341161822,3,25,0.0,15,368505378328630,81,16.0,95.07071685791016,1.2985000610351562,0,0.0,0.0,,,,,0,,1,,
Raw,5991793,5995448000000,,,-1291005709998547200,0.0,88.54983752826229,-13.795966553235388,17.420893341161822,3,26,0.0,15,368505366584960,17,28.3,-704.8135375976562,0.20000000298023224,0,0.0,0.0,,,,,0,,1,,
Raw,5991795,5995448000000,,,-1291005709998547200,0.0,88.54983752826229,-13.795966553235388,17.420893341161822,3,31,0.0,15,368505374126552,13,31.0,-214.9344940185547,0.20000000298023224,0,0.0,0.0,,,,,0,,1,,
Raw,5991797,5995448000000,,,-1291005709998547200,0.0,88.54983752826229,-13.795966553235388,17.420893341161822,3,32,0.0,15,368505374822786,1226,14.9,-301.919921875,6.867500305175781,0,0.0,0.0,,,,,0,,1,,
Raw,5991800,5995448000000,,,-1291005709998547200,0.0,88.54983752826229,-13.795966553235388,17.420893341161822,3,2,0.0,783,368491321642008,99,20.4,-1.5075099468231201,5.285000324249268,0,0.0,0.0,,,,,0,,5,,
Raw,5991800,5995448000000,,,-1291005709998547200,0.0,88.54983752826229,-13.795966553235388,17.420893341161822,3,5,0.0,783,368491313510017,23,26.7,-0.7585560083389282,1.2450000047683716,0,0.0,0.0,,,,,0,,5,,
Raw,5991801,5995448000000,,,-1291005709998547200,0.0,88.54983752826229,-13.795966553235388,17.420893341161822,3,6,0.0,15,368491323162623,1474,10.2,-85.51519012451172,24.981000900268555,0,0.0,0.0,,,,,0,,5,,
Raw,5991802,5995448000000,,,-1291005709998547200,0.0,88.54983752826229,-13.795966553235388,17.420893341161822,3,8,0.0,15,368491313861645,53,19.2,345.4694519042969,0.8659999966621399,0,0.0,0.0,,,,,0,,5,,
Raw,5991802,5995448000000,,,-1291005709998547200,0.0,88.54983752826229,-13.795966553235388,17.420893341161822,3,13,0.0,15,368491317446683,17,28.3,352.6816711425781,0.20000000298023224,0,0.0,0.0,,,,,0,,5,,
Raw,5991803,5995448000000,,,-1291005709998547200,0.0,88.54983752826229,-13.795966553235388,17.420893341161822,3,19,0.0,15,368491366768800,761,11.1,479.6954650878906,17.265501022338867,0,0.0,0.0,,,,,0,,5,,
Raw,5991803,5995448000000,,,-1291005709998547200,0.0,88.54983752826229,-13.795966553235388,17.420893341161822,3,21,0.0,15,368491367136154,61,18.0,-484.2084045410156,0.9269999861717224,0,0.0,0.0,,,,,0,,5,,
Raw,5991804,5995448000000,,,-1291005709998547200,0.0,88.54983752826229,-13.795966553235388,17.420893341161822,3,22,0.0,15,368491373798770,110,17.1,2.967010021209717,4.766000270843506,0,0.0,0.0,,,,,0,,5,,
Raw,5991805,5995448000000,,,-1291005709998547200,0.0,88.54983752826229,-13.795966553235388,17.420893341161822,3,26,0.0,15,368491363986852,35,22.2,-439.664794921875,0.6710000038146973,0,0.0,0.0,,,,,0,,5,,
Raw,5991805,5995448000000,,,-1291005709998547200,0.0,88.54983752826229,-13.795966553235388,17.420893341161822,3,5,0.0,7183,368505353954777,61,18.8,-418.4653015136719,0.8869999647140503,0,0.0,0.0,,,,,0,,6,,
Fix,gps,22.925503,120.294760,35.325378,0.000000,12.864000,1606976488000
NMEA,$GPGSV,3,2,12,25,63,075,16,26,14,205,28,31,40,272,31,32,47,344,15*76,1606976487414
NMEA,$GPGSV,3,3,12,18,00,000,,21,00,000,,24,02,056,,29,09,132,*75,1606976487415
NMEA,$GLGSV,2,1,08,73,46,233,16,79,15,026,17,69,50,108,20,71,05,327,18*68,1606976487415
NMEA,$GLGSV,2,2,08,74,00,000,,70,50,351,,80,66,347,,68,05,135,*6F,1606976487417
NMEA,$GAGSV,1,1,01,05,11,313,19*55,1606976487419
NMEA,$PQGSV,1,1,03,193,67,115,,194,71,071,,195,16,153,,0,5*67,1606976487420
NMEA,$PQGSV,4,1,16,02,41,241,20,05,17,258,27,06,55,008,10,08,17,198,19,0,4*6B,1606976487430
NMEA,$PQGSV,4,2,16,13,26,222,28,19,30,135,11,21,36,323,18,22,83,082,17,0,4*62,1606976487431
NMEA,$PQGSV,4,3,16,26,19,237,22,01,51,129,,03,59,202,,04,37,115,,0,4*64,1606976487432
NMEA,$PQGSV,4,4,16,07,54,175,,09,43,326,,10,31,196,,29,00,000,,0,4*66,1606976487432
NMEA,$GNGSA,A,3,10,23,26,31,,,,,,,,,1.4,1.2,0.8,1*39,1606976487434
NMEA,$GNGSA,A,2,73,79,,,,,,,,,,,1.4,1.2,0.8,2*37,1606976487435
NMEA,$GNGSA,A,2,05,,,,,,,,,,,,1.4,1.2,0.8,3*39,1606976487436
NMEA,$PQGSA,A,2,26,,,,,,,,,,,,1.4,1.2,0.8,4*37,1606976487439
NMEA,$GNVTG,,T,,M,0.0,N,0.0,K,A*3D,1606976487440
NMEA,$GNRMC,062128.00,A,2255.530198,N,12017.685574,E,0.0,,031220,2.8,W,A*1E,1606976487440
NMEA,$GNGGA,062128.00,2255.530198,N,12017.685574,E,1,08,1.2,17.9,M,17.5,M,,*44,1606976487440
Fix,gps,22.925503,120.294760,35.326233,0.000000,12.864000,1606976489000
Raw,5992650,5996448000000,,,-1291005709998547200,0.0,90.45157639775425,-9.714097234166942,17.190122527009535,3,9,0.0,207,33688378206923,172,15.5,-382.9440612792969,6.7335004806518555,0,0.0,0.0,,,,,0,,3,,
Raw,5992650,5996448000000,,,-1291005709998547200,0.0,90.45157639775425,-9.714097234166942,17.190122527009535,3,15,0.0,207,33688369662734,84,16.4,728.9710083007812,2.130000114440918,0,0.0,0.0,,,,,0,,3,,
Raw,5992651,5996448000000,,,-1291005709998547200,0.0,90.45157639775425,-9.714097234166942,17.190122527009535,3,5,0.0,207,33688379062474,53,19.1,251.34815979003906,1.1600000858306885,0,0.0,0.0,,,,,0,,3,,
