# 
# Header Description:
# 
# Version: v2.0.0.1 Platform: 8.0.0 Manufacturer: Sony Model: G8142
# 
# Raw,ElapsedRealtimeMillis,TimeNanos,LeapSecond,TimeUncertaintyNanos,FullBiasNanos,BiasNanos,BiasUncertaintyNanos,DriftNanosPerSecond,DriftUncertaintyNanosPerSecond,HardwareClockDiscontinuityCount,Svid,TimeOffsetNanos,State,ReceivedSvTimeNanos,ReceivedSvTimeUncertaintyNanos,Cn0DbHz,PseudorangeRateMetersPerSecond,PseudorangeRateUncertaintyMetersPerSecond,AccumulatedDeltaRangeState,AccumulatedDeltaRangeMeters,AccumulatedDeltaRangeUncertaintyMeters,CarrierFrequencyHz,CarrierCycles,CarrierPhase,CarrierPhaseUncertainty,MultipathIndicator,SnrInDb,ConstellationType,AgcDb,CarrierFrequencyHz
# 
# Fix,Provider,Latitude,Longitude,Altitude,Speed,Accuracy,(UTC)TimeInMs
# 
# Nav,Svid,Type,Status,MessageId,Sub-messageId,Data(Bytes)
# 
Raw,6627629,6631448000000,,,-1291005709998545664,0.0,223.6306172562763,-2.8167971020179743,21.395079528101277,3,10,0.0,207,34323366080777,17,28.6,-672.6911010742188,0.24230000376701355,0,0.0,0.0,,,,,0,,3,,
Raw,6627630,6631448000000,,,-1291005709998545664,0.0,223.6306172562763,-2.8167971020179743,21.395079528101277,3,9,0.0,207,34323378923462,111,15.9,-301.8102722167969,3.7335002422332764,0,0.0,0.0,,,,,0,,3,,
Raw,6627630,6631448000000,,,-1291005709998545664,0.0,223.6306172562763,-2.8167971020179743,21.395079528101277,3,5,0.0,207,34323378441145,31,23.7,329.90850830078125,0.9084999561309814,0,0.0,0.0,,,,,0,,3,,
Raw,6627630,6631448000000,,,-1291005709998545664,0.0,223.6306172562763,-2.8167971020179743,21.395079528101277,3,7,0.0,207,34323367842062,73,17.1,-726.7034301757812,2.0369999408721924,0,0.0,0.0,,,,,0,,3,,
Raw,6627630,6631448000000,,,-1291005709998545664,0.0,223.6306172562763,-2.8167971020179743,21.395079528101277,3,10,0.0,15,369141378397752,61,18.3,260.54058837890625,1.118499994277954,0,0.0,0.0,,,,,0,,1,,
Raw,6627631,6631448000000,,,-1291005709998545664,0.0,223.6306172562763,-2.8167971020179743,21.395079528101277,3,20,0.0,15,369141372289086,70,18.0,635.2097778320312,2.5945000648498535,0,0.0,0.0,,,,,0,,1,,
Raw,6627631,6631448000000,,,-1291005709998545664,0.0,223.6306172562763,-2.8167971020179743,21.395079528101277,3,23,0.0,15,369141372975272,150,14.2,588.5498046875,5.244500160217285,0,0.0,0.0,,,,,0,,1,,
Raw,6627631,6631448000000,,,-1291005709998545664,0.0,223.6306172562763,-2.8167971020179743,21.395079528101277,3,25,0.0,15,369141378034260,81,16.1,177.35369873046875,1.2834999561309814,0,0.0,0.0,,,,,0,,1,,
Raw,6627631,6631448000000,,,-1291005709998545664,0.0,223.6306172562763,-2.8167971020179743,21.395079528101277,3,26,0.0,15,369141368056554,17,28.3,-687.0795288085938,0.20000000298023224,0,0.0,0.0,,,,,0,,1,,
Raw,6627631,6631448000000,,,-1291005709998545664,0.0,223.6306172562763,-2.8167971020179743,21.395079528101277,3,31,0.0,15,369141374532601,70,17.9,-173.2909393310547,1.097499966621399,0,0.0,0.0,,,,,0,,1,,
Raw,6627632,6631448000000,,,-1291005709998545664,0.0,223.6306172562763,-2.8167971020179743,21.395079528101277,3,32,0.0,15,369141375439350,61,18.1,-285.6022644042969,1.0989999771118164,0,0.0,0.0,,,,,0,,1,,
Raw,6627632,6631448000000,,,-1291005709998545664,0.0,223.6306172562763,-2.8167971020179743,21.395079528101277,3,2,0.0,783,369127321635564,808,19.3,-6.6349639892578125,18.845001220703125,0,0.0,0.0,,,,,0,,5,,
Raw,6627632,6631448000000,,,-1291005709998545664,0.0,223.6306172562763,-2.8167971020179743,21.395079528101277,3,5,0.0,783,369127313499219,74,25.1,9.429139137268066,5.025000095367432,0,0.0,0.0,,,,,0,,5,,
Raw,6627632,6631448000000,,,-1291005709998545664,0.0,223.6306172562763,-2.8167971020179743,21.395079528101277,3,8,0.0,15,369127313131537,674,21.5,341.4078063964844,17.246000289916992,0,0.0,0.0,,,,,0,,5,,
Raw,6627632,6631448000000,,,-1291005709998545664,0.0,223.6306172562763,-2.8167971020179743,21.395079528101277,3,10,0.0,15,369127318406940,659,17.5,-214.28726196289062,16.773500442504883,0,0.0,0.0,,,,,0,,5,,
Raw,6627633,6631448000000,,,-1291005709998545664,0.0,223.6306172562763,-2.8167971020179743,21.395079528101277,3,13,0.0,15,369127316690985,16,29.6,353.6423034667969,0.20000000298023224,0,0.0,0.0,,,,,0,,5,,
Raw,6627633,6631448000000,,,-1291005709998545664,0.0,223.6306172562763,-2.8167971020179743,21.395079528101277,3,19,0.0,15,369127365707231,199,13.1,516.11572265625,6.61400032043457,0,0.0,0.0,,,,,0,,5,,
Raw,6627633,6631448000000,,,-1291005709998545664,0.0,223.6306172562763,-2.8167971020179743,21.395079528101277,3,21,0.0,15,369127368126140,86,17.8,-453.60687255859375,3.178500175476074,0,0.0,0.0,,,,,0,,5,,
Raw,6627633,6631448000000,,,-1291005709998545664,0.0,223.6306172562763,-2.8167971020179743,21.395079528101277,3,26,0.0,15,369127364879379,12,32.8,-406.9572448730469,0.20000000298023224,0,0.0,0.0,,,,,0,,5,,
Raw,6627633,6631448000000,,,-1291005709998545664,0.0,223.6306172562763,-2.8167971020179743,21.395079528101277,3,36,0.0,7183,369141351902804,27,24.2,315.25,0.5489999651908875,0,0.0,0.0,,,,,0,,6,,
Fix,gps,22.925508,120.294761,35.259094,0.000000,18.224001,1606977124000
NMEA,$GPGSV,3,1,10,10,67,196,18,20,33,168,18,23,38,164,14,25,61,066,16*72,1606977123402
NMEA,$GPGSV,3,2,10,26,19,206,28,31,42,279,18,32,51,350,18,12,23,042,*74,1606977123402
NMEA,$GPGSV,3,3,10,21,00,000,,29,11,129,*7A,1606977123402
NMEA,$GLGSV,2,1,08,74,04,220,29,73,49,240,16,69,47,116,24,71,09,329,17*67,1606977123403
NMEA,$GLGSV,2,2,08,70,56,354,,80,61,354,,79,11,028,,68,02,137,*6B,1606977123403
NMEA,$GAGSV,1,1,02,36,03,251,24,05,13,314,*6D,1606977123403
NMEA,$PQGSV,1,1,03,194,71,067,18,193,66,120,,195,18,151,,0,5*62,1606977123404
NMEA,$PQGSV,4,1,16,02,41,241,19,05,17,258,25,08,15,196,22,10,33,198,18,0,4*60,1606977123404
NMEA,$PQGSV,4,2,16,13,24,220,30,19,26,137,13,21,40,322,18,26,22,240,33,0,4*69,1606977123404
NMEA,$PQGSV,4,3,16,01,51,129,,03,59,202,,04,37,115,,06,56,011,,0,4*6B,1606977123404
NMEA,$PQGSV,4,4,16,07,56,177,,09,44,327,,22,81,119,,29,01,133,,0,4*6D,1606977123404
NMEA,$GNGSA,A,3,10,23,26,31,,,,,,,,,2.5,2.3,1.0,1*30,1606977123406
NMEA,$GNGSA,A,2,73,,,,,,,,,,,,2.5,2.3,1.0,2*30,1606977123406
NMEA,$PQGSA,A,2,26,,,,,,,,,,,,2.5,2.3,1.0,4*3E,1606977123406
NMEA,$GNVTG,,T,,M,0.0,N,0.0,K,A*3D,1606977123406
NMEA,$GNRMC,063204.00,A,2255.530469,N,12017.685645,E,0.0,,031220,2.8,W,A*18,1606977123406
NMEA,$GNGGA,063204.00,2255.530469,N,12017.685645,E,1,06,2.3,17.8,M,17.5,M,,*4F,1606977123407
Fix,gps,22.925508,120.294761,35.252869,0.000000,18.224001,1606977125000
Raw,6628619,6632448000000,,,-1291005709998545664,0.0,214.86033801920712,-5.003357644091992,19.47480257628978,3,10,0.0,207,34324366082990,17,28.7,-671.7202758789062,0.24230000376701355,0,0.0,0.0,,,,,0,,3,,
Raw,6628620,6632448000000,,,-1291005709998545664,0.0,214.86033801920712,-5.003357644091992,19.47480257628978,3,9,0.0,207,34324378924389,96,15.7,-302.76531982421875,2.248500108718872,0,0.0,0.0,,,,,0,,3,,
Raw,6628620,6632448000000,,,-1291005709998545664,0.0,214.86033801920712,-5.003357644091992,19.47480257628978,3,5,0.0,207,34324378439998,31,23.5,330.712890625,0.9084999561309814,0,0.0,0.0,,,,,0,,3,,
Raw,6628620,6632448000000,,,-1291005709998545664,0.0,214.86033801920712,-5.003357644091992,19.47480257628978,3,7,0.0,207,34324367844486,88,17.1,-726.7034301757812,3.5370001792907715,0,0.0,0.0,,,,,0,,3,,
Raw,6628620,6632448000000,,,-1291005709998545664,0.0,214.86033801920712,-5.003357644091992,19.47480257628978,3,10,0.0,15,369142378396806,70,17.5,262.1676025390625,1.118499994277954,0,0.0,0.0,,,,,0,,1,,
Raw,6628621,6632448000000,,,-1291005709998545664,0.0,214.86033801920712,-5.003357644091992,19.47480257628978,3,20,0.0,15,369142372286920,73,17.7,634.324951171875,1.844499945640564,0,0.0,0.0,,,,,0,,1,,
Raw,6628621,6632448000000,,,-1291005709998545664,0.0,214.86033801920712,-5.003357644091992,19.47480257628978,3,23,0.0,15,369142372973309,185,14.2,588.5498046875,6.744500160217285,0,0.0,0.0,,,,,0,,1,,
Raw,6628621,6632448000000,,,-1291005709998545664,0.0,214.86033801920712,-5.003357644091992,19.47480257628978,3,25,0.0,15,369142378033669,90,16.1,177.35369873046875,2.7835001945495605,0,0.0,0.0,,,,,0,,1,,
Raw,6628621,6632448000000,,,-1291005709998545664,0.0,214.86033801920712,-5.003357644091992,19.47480257628978,3,26,0.0,15,369142368058862,17,28.3,-686.11181640625,0.20000000298023224,0,0.0,0.0,,,,,0,,1,,
Raw,6628621,6632448000000,,,-1291005709998545664,0.0,214.86033801920712,-5.003357644091992,19.47480257628978,3,31,0.0,15,369142374533242,53,19.2,-172.6724853515625,1.0175000429153442,0,0.0,0.0,,,,,0,,1,,
Raw,6628622,6632448000000,,,-1291005709998545664,0.0,214.86033801920712,-5.003357644091992,19.47480257628978,3,32,0.0,15,369142375440394,61,18.8,-284.41290283203125,1.0190000534057617,0,0.0,0.0,,,,,0,,1,,
Raw,6628622,6632448000000,,,-1291005709998545664,0.0,214.86033801920712,-5.003357644091992,19.47480257628978,3,2,0.0,783,369128321635586,936,19.3,-6.6349639892578125,20.345001220703125,0,0.0,0.0,,,,,0,,5,,
Raw,6628622,6632448000000,,,-1291005709998545664,0.0,214.86033801920712,-5.003357644091992,19.47480257628978,3,5,0.0,783,369128313499280,34,24.2,1.2482566833496094,2.075000047683716,0,0.0,0.0,,,,,0,,5,,
Raw,6628622,6632448000000,,,-1291005709998545664,0.0,214.86033801920712,-5.003357644091992,19.47480257628978,3,8,0.0,15,369128313130399,792,21.5,341.4078063964844,18.746000289916992,0,0.0,0.0,,,,,0,,5,,
Raw,6628623,6632448000000,,,-1291005709998545664,0.0,214.86033801920712,-5.003357644091992,19.47480257628978,3,10,0.0,15,369128318407654,773,17.5,-214.28726196289062,18.273500442504883,0,0.0,0.0,,,,,0,,5,,
Raw,6628623,6632448000000,,,-1291005709998545664,0.0,214.86033801920712,-5.003357644091992,19.47480257628978,3,13,0.0,15,369128316689815,16,29.9,354.5687561035156,0.20000000298023224,0,0.0,0.0,,,,,0,,5,,
Raw,6628623,6632448000000,,,-1291005709998545664,0.0,214.86033801920712,-5.003357644091992,19.47480257628978,3,19,0.0,15,369128365705510,244,13.1,516.11572265625,8.11400032043457,0,0.0,0.0,,,,,0,,5,,
Raw,6628623,6632448000000,,,-1291005709998545664,0.0,214.86033801920712,-5.003357644091992,19.47480257628978,3,21,0.0,15,369128368127648,96,15.2,-454.0389709472656,1.9285000562667847,0,0.0,0.0,,,,,0,,5,,
Raw,6628623,6632448000000,,,-1291005709998545664,0.0,214.86033801920712,-5.003357644091992,19.47480257628978,3,26,0.0,15,369128364880739,11,33.0,-406.0000915527344,0.20000000298023224,0,0.0,0.0,,,,,0,,5,,
Raw,6628623,6632448000000,,,-1291005709998545664,0.0,214.86033801920712,-5.003357644091992,19.47480257628978,3,36,0.0,7183,369142351901741,27,24.0,316.1063232421875,0.5489999651908875,0,0.0,0.0,,,,,0,,6,,
NMEA,$GPGSV,3,1,10,10,67,196,18,20,33,168,18,23,38,164,14,25,61,066,16*72,1606977124401
NMEA,$GPGSV,3,2,10,26,19,206,28,31,42,279,19,32,51,350,19,12,23,042,*74,1606977124401
NMEA,$GPGSV,3,3,10,21,00,000,,29,11,129,*7A,1606977124402
NMEA,$GLGSV,2,1,08,74,04,220,29,73,49,240,16,69,47,116,24,71,09,329,17*67,1606977124402
NMEA,$GLGSV,2,2,08,70,56,354,,80,61,354,,79,11,028,,68,02,137,*6B,1606977124402
NMEA,$GAGSV,1,1,02,36,03,251,24,05,13,314,*6D,1606977124402
NMEA,$PQGSV,1,1,03,194,71,067,18,193,66,120,,195,18,151,,0,5*62,1606977124403
NMEA,$PQGSV,4,1,16,02,41,241,19,05,17,258,24,08,15,196,22,10,33,198,18,0,4*61,1606977124403
NMEA,$PQGSV,4,2,16,13,24,220,30,19,26,137,13,21,40,322,15,26,22,240,33,0,4*64,1606977124403
NMEA,$PQGSV,4,3,16,01,51,129,,03,59,202,,04,37,115,,06,56,011,,0,4*6B,1606977124403
NMEA,$PQGSV,4,4,16,07,56,177,,09,44,327,,22,81,119,,29,01,133,,0,4*6D,1606977124404
NMEA,$GNGSA,A,3,10,23,26,31,,,,,,,,,2.5,2.3,1.0,1*30,1606977124406
NMEA,$GNGSA,A,2,73,,,,,,,,,,,,2.5,2.3,1.0,2*30,1606977124407
NMEA,$PQGSA,A,2,26,,,,,,,,,,,,2.5,2.3,1.0,4*3E,1606977124407
NMEA,$GNVTG,,T,,M,0.0,N,0.0,K,A*3D,1606977124408
NMEA,$GNRMC,063205.00,A,2255.530469,N,12017.685644,E,0.0,,031220,2.8,W,A*18,1606977124408
NMEA,$GNGGA,063205.00,2255.530469,N,12017.685644,E,1,06,2.3,17.8,M,17.5,M,,*4F,1606977124408
NMEA,$GPGSV,3,1,10,10,67,196,18,20,33,168,19,23,38,164,14,25,61,066,17*72,1606977125401
NMEA,$GPGSV,3,2,10,26,19,206,29,31,42,279,20,32,51,350,19,12,23,042,*7F,1606977125401
Raw,6629614,6633448000000,,,-1291005709998545664,0.0,214.2199082300067,-2.1228189481644395,20.416042047358758,3,10,0.0,207,34325366085232,16,29.6,-672.0914916992188,0.23569999635219574,0,0.0,0.0,,,,,0,,3,,
Raw,6629614,6633448000000,,,-1291005709998545664,0.0,214.2199082300067,-2.1228189481644395,20.416042047358758,3,9,0.0,207,34325378925399,112,15.7,-302.76531982421875,3.748500108718872,0,0.0,0.0,,,,,0,,3,,
Raw,6629615,6633448000000,,,-1291005709998545664,0.0,214.2199082300067,-2.1228189481644395,20.416042047358758,3,5,0.0,207,34325378438884,27,24.1,330.2639465332031,0.843500018119812,0,0.0,0.0,,,,,0,,3,,
Raw,6629615,6633448000000,,,-1291005709998545664,0.0,214.2199082300067,-2.1228189481644395,20.416042047358758,3,7,0.0,207,34325367847046,73,17.9,-726.7594604492188,2.0369999408721924,0,0.0,0.0,,,,,0,,3,,
Raw,6629616,6633448000000,,,-1291005709998545664,0.0,214.2199082300067,-2.1228189481644395,20.416042047358758,3,10,0.0,15,369143378396078,61,18.1,261.5205993652344,1.1034998893737793,0,0.0,0.0,,,,,0,,1,,
Raw,6629616,6633448000000,,,-1291005709998545664,0.0,214.2199082300067,-2.1228189481644395,20.416042047358758,3,20,0.0,15,369143372284787,53,19.2,634.7150268554688,1.0145000219345093,0,0.0,0.0,,,,,0,,1,,
Raw,6629616,6633448000000,,,-1291005709998545664,0.0,214.2199082300067,-2.1228189481644395,20.416042047358758,3,23,0.0,15,369143372971345,231,14.2,588.5498046875,8.244500160217285,0,0.0,0.0,,,,,0,,1,,
Raw,6629617,6633448000000,,,-1291005709998545664,0.0,214.2199082300067,-2.1228189481644395,20.416042047358758,3,25,0.0,15,369143378033034,84,16.9,178.18148803710938,1.94350004196167,0,0.0,0.0,,,,,0,,1,,
Raw,6629617,6633448000000,,,-1291005709998545664,0.0,214.2199082300067,-2.1228189481644395,20.416042047358758,3,26,0.0,15,369143368061147,17,28.6,-686.5313110351562,0.20000000298023224,0,0.0,0.0,,,,,0,,1,,
Raw,6629618,6633448000000,,,-1291005709998545664,0.0,214.2199082300067,-2.1228189481644395,20.416042047358758,3,31,0.0,15,369143374533769,46,20.3,-173.65248107910156,0.9375,0,0.0,0.0,,,,,0,,1,,
Raw,6629618,6633448000000,,,-1291005709998545664,0.0,214.2199082300067,-2.1228189481644395,20.416042047358758,3,32,0.0,15,369143375441297,61,18.9,-284.7934875488281,1.0190000534057617,0,0.0,0.0,,,,,0,,1,,
Raw,6629618,6633448000000,,,-1291005709998545664,0.0,214.2199082300067,-2.1228189481644395,20.416042047358758,3,2,0.0,783,369129321635608,1074,19.3,-6.6349639892578125,21.845001220703125,0,0.0,0.0,,,,,0,,5,,
Raw,6629619,6633448000000,,,-1291005709998545664,0.0,214.2199082300067,-2.1228189481644395,20.416042047358758,3,5,0.0,783,369129313499276,51,24.2,1.2482566833496094,3.575000047683716,0,0.0,0.0,,,,,0,,5,,
Raw,6629619,6633448000000,,,-1291005709998545664,0.0,214.2199082300067,-2.1228189481644395,20.416042047358758,3,8,0.0,15,369129313129260,920,21.5,341.4078063964844,20.246000289916992,0,0.0,0.0,,,,,0,,5,,
Raw,6629619,6633448000000,,,-1291005709998545664,0.0,214.2199082300067,-2.1228189481644395,20.416042047358758,3,10,0.0,15,369129318408369,896,17.5,-214.28726196289062,19.773500442504883,0,0.0,0.0,,,,,0,,5,,
Raw,6629620,6633448000000,,,-1291005709998545664,0.0,214.2199082300067,-2.1228189481644395,20.416042047358758,3,13,0.0,15,369129316688618,14,30.2,354.1484375,0.20000000298023224,0,0.0,0.0,,,,,0,,5,,
Raw,6629621,6633448000000,,,-1291005709998545664,0.0,214.2199082300067,-2.1228189481644395,20.416042047358758,3,19,0.0,15,369129365703788,299,13.1,516.11572265625,9.61400032043457,0,0.0,0.0,,,,,0,,5,,
Raw,6629621,6633448000000,,,-1291005709998545664,0.0,214.2199082300067,-2.1228189481644395,20.416042047358758,3,21,0.0,15,369129368129149,61,18.4,-453.4244689941406,0.9284999966621399,0,0.0,0.0,,,,,0,,5,,
Raw,6629621,6633448000000,,,-1291005709998545664,0.0,214.2199082300067,-2.1228189481644395,20.416042047358758,3,26,0.0,15,369129364882097,11,33.9,-406.3588562011719,0.20000000298023224,0,0.0,0.0,,,,,0,,5,,
Raw,6629622,6633448000000,,,-1291005709998545664,0.0,214.2199082300067,-2.1228189481644395,20.416042047358758,3,36,0.0,7183,369143351900711,27,24.2,316.0777893066406,0.5489999651908875,0,0.0,0.0,,,,,0,,6,,
Fix,gps,22.925508,120.294761,35.075684,0.000000,17.152000,1606977126000
NMEA,$GPGSV,3,3,10,21,00,000,,29,11,129,*7A,1606977125401
NMEA,$GLGSV,2,1,08,74,04,220,30,73,49,240,16,69,47,116,24,71,09,329,18*60,1606977125402
NMEA,$GLGSV,2,2,08,70,56,354,,80,61,354,,79,11,028,,68,02,137,*6B,1606977125402
NMEA,$GAGSV,1,1,02,36,03,251,24,05,13,314,*6D,1606977125402
NMEA,$PQGSV,1,1,03,194,71,067,15,193,66,120,,195,18,151,,0,5*6F,1606977125402
NMEA,$PQGSV,4,1,16,02,41,241,19,05,17,258,24,08,15,196,22,10,33,198,18,0,4*61,1606977125402
NMEA,$PQGSV,4,2,16,13,24,220,30,19,26,137,13,21,40,322,18,26,22,240,34,0,4*6E,1606977125402
NMEA,$PQGSV,4,3,16,01,51,129,,03,59,202,,04,37,115,,06,56,011,,0,4*6B,1606977125404
NMEA,$PQGSV,4,4,16,07,56,177,,09,44,327,,22,81,119,,29,01,133,,0,4*6D,1606977125404
NMEA,$GNGSA,A,3,10,23,26,31,,,,,,,,,2.4,2.1,1.0,1*33,1606977125407
NMEA,$GNGSA,A,2,73,,,,,,,,,,,,2.4,2.1,1.0,2*33,1606977125407
NMEA,$PQGSA,A,2,26,,,,,,,,,,,,2.4,2.1,1.0,4*3D,1606977125407
NMEA,$GNVTG,,T,,M,0.0,N,0.0,K,A*3D,1606977125408
NMEA,$GNRMC,063206.00,A,2255.530475,N,12017.685652,E,0.0,,031220,2.8,W,A*11,1606977125408
NMEA,$GNGGA,063206.00,2255.530475,N,12017.685652,E,1,06,2.1,17.6,M,17.5,M,,*4A,1606977125408
Raw,6630628,6634448000000,,,-1291005709998545664,0.0,201.59360428806394,-4.1958474803501655,20.127330402690234,3,10,0.0,207,34326366087512,16,29.0,-671.5955810546875,0.23569999635219574,0,0.0,0.0,,,,,0,,3,,
Raw,6630629,6634448000000,,,-1291005709998545664,0.0,201.59360428806394,-4.1958474803501655,20.127330402690234,3,9,0.0,207,34326378926409,137,15.7,-302.76531982421875,5.248500347137451,0,0.0,0.0,,,,,0,,3,,
Raw,6630629,6634448000000,,,-1291005709998545664,0.0,201.59360428806394,-4.1958474803501655,20.127330402690234,3,5,0.0,207,34326378437839,35,22.8,330.4136047363281,0.9684999585151672,0,0.0,0.0,,,,,0,,3,,
Raw,6630629,6634448000000,,,-1291005709998545664,0.0,201.59360428806394,-4.1958474803501655,20.127330402690234,3,7,0.0,207,34326367849470,88,17.9,-726.7594604492188,3.5370001792907715,0,0.0,0.0,,,,,0,,3,,
Raw,6630629,6634448000000,,,-1291005709998545664,0.0,201.59360428806394,-4.1958474803501655,20.127330402690234,3,10,0.0,15,369144378395205,70,18.1,261.5205993652344,2.6035001277923584,0,0.0,0.0,,,,,0,,1,,
Raw,6630630,6634448000000,,,-1291005709998545664,0.0,201.59360428806394,-4.1958474803501655,20.127330402690234,3,20,0.0,15,369144372282673,61,18.4,635.5808715820312,1.094499945640564,0,0.0,0.0,,,,,0,,1,,
Raw,6630630,6634448000000,,,-1291005709998545664,0.0,201.59360428806394,-4.1958474803501655,20.127330402690234,3,23,0.0,15,369144372969525,102,15.0,589.0159912109375,2.874500036239624,0,0.0,0.0,,,,,0,,1,,
Raw,6630630,6634448000000,,,-1291005709998545664,0.0,201.59360428806394,-4.1958474803501655,20.127330402690234,3,25,0.0,15,369144378032501,81,16.8,176.62107849121094,1.1934999227523804,0,0.0,0.0,,,,,0,,1,,
Raw,6630630,6634448000000,,,-1291005709998545664,0.0,201.59360428806394,-4.1958474803501655,20.127330402690234,3,26,0.0,15,369144368063453,17,28.7,-686.0349731445312,0.20000000298023224,0,0.0,0.0,,,,,0,,1,,
Raw,6630631,6634448000000,,,-1291005709998545664,0.0,201.59360428806394,-4.1958474803501655,20.127330402690234,3,31,0.0,15,369144374534370,80,16.7,-172.95791625976562,1.1875,0,0.0,0.0,,,,,0,,1,,
Raw,6630631,6634448000000,,,-1291005709998545664,0.0,201.59360428806394,-4.1958474803501655,20.127330402690234,3,32,0.0,15,369144375442187,70,17.2,-284.7649841308594,1.1890000104904175,0,0.0,0.0,,,,,0,,1,,
Raw,6630631,6634448000000,,,-1291005709998545664,0.0,201.59360428806394,-4.1958474803501655,20.127330402690234,3,2,0.0,783,369130321635630,1222,19.3,-6.6349639892578125,23.345001220703125,0,0.0,0.0,,,,,0,,5,,
Raw,6630631,6634448000000,,,-1291005709998545664,0.0,201.59360428806394,-4.1958474803501655,20.127330402690234,3,5,0.0,783,369130313499272,78,24.2,1.2482566833496094,5.075000286102295,0,0.0,0.0,,,,,0,,5,,
Raw,6630631,6634448000000,,,-1291005709998545664,0.0,201.59360428806394,-4.1958474803501655,20.127330402690234,3,8,0.0,15,369130313128121,1057,21.5,341.4078063964844,21.746000289916992,0,0.0,0.0,,,,,0,,5,,
Raw,6630632,6634448000000,,,-1291005709998545664,0.0,201.59360428806394,-4.1958474803501655,20.127330402690234,3,10,0.0,15,369130318409084,1030,17.5,-214.28726196289062,21.273500442504883,0,0.0,0.0,,,,,0,,5,,
Raw,6630632,6634448000000,,,-1291005709998545664,0.0,201.59360428806394,-4.1958474803501655,20.127330402690234,3,13,0.0,15,369130316687436,14,30.2,354.5862121582031,0.20000000298023224,0,0.0,0.0,,,,,0,,5,,
Raw,6630632,6634448000000,,,-1291005709998545664,0.0,201.59360428806394,-4.1958474803501655,20.127330402690234,3,19,0.0,15,369130365702067,363,13.1,516.11572265625,11.11400032043457,0,0.0,0.0,,,,,0,,5,,
Raw,6630632,6634448000000,,,-1291005709998545664,0.0,201.59360428806394,-4.1958474803501655,20.127330402690234,3,21,0.0,15,369130368130657,61,18.9,-454.0197448730469,0.8585000038146973,0,0.0,0.0,,,,,0,,5,,
Raw,6630632,6634448000000,,,-1291005709998545664,0.0,201.59360428806394,-4.1958474803501655,20.127330402690234,3,26,0.0,15,369130364883447,11,33.2,-405.8626708984375,0.20000000298023224,0,0.0,0.0,,,,,0,,5,,
Raw,6630633,6634448000000,,,-1291005709998545664,0.0,201.59360428806394,-4.1958474803501655,20.127330402690234,3,36,0.0,7183,369144351899640,27,24.5,316.0873107910156,0.5489999651908875,0,0.0,0.0,,,,,0,,6,,
Fix,gps,22.925508,120.294761,34.919373,0.000000,17.152000,1606977127000
NMEA,$GPGSV,3,1,10,10,67,196,18,20,33,168,18,23,38,164,15,25,61,066,17*72,1606977126412
NMEA,$GPGSV,3,2,10,26,19,206,29,31,42,279,17,32,51,350,17,12,23,042,*75,1606977126413
NMEA,$GPGSV,3,3,10,21,00,000,,29,11,129,*7A,1606977126415
NMEA,$GLGSV,2,1,08,74,04,220,29,73,49,240,16,69,47,116,23,71,09,329,18*6F,1606977126417
NMEA,$GLGSV,2,2,08,70,56,354,,80,61,354,,79,11,028,,68,02,137,*6B,1606977126417
NMEA,$GAGSV,1,1,02,36,03,251,25,05,13,314,*6C,1606977126417
NMEA,$PQGSV,1,1,03,194,71,067,15,193,66,120,,195,18,151,,0,5*6F,1606977126418
NMEA,$PQGSV,4,1,16,02,41,241,19,05,17,258,24,08,15,196,22,10,33,198,18,0,4*61,1606977126418
NMEA,$PQGSV,4,2,16,13,24,220,30,19,26,137,13,21,40,322,19,26,22,240,33,0,4*68,1606977126419
NMEA,$PQGSV,4,3,16,01,51,129,,03,59,202,,04,37,115,,06,56,011,,0,4*6B,1606977126419
NMEA,$PQGSV,4,4,16,07,56,177,,09,44,327,,22,81,119,,29,01,133,,0,4*6D,1606977126419
NMEA,$GNGSA,A,3,10,23,26,31,,,,,,,,,2.4,2.1,1.0,1*33,1606977126420
NMEA,$GNGSA,A,2,73,74,,,,,,,,,,,2.4,2.1,1.0,2*30,1606977126420
NMEA,$PQGSA,A,2,26,,,,,,,,,,,,2.4,2.1,1.0,4*3D,1606977126420
NMEA,$GNVTG,,T,,M,0.0,N,0.0,K,A*3D,1606977126420
NMEA,$GNRMC,063207.00,A,2255.530480,N,12017.685661,E,0.0,,031220,2.8,W,A*1A,1606977126421
NMEA,$GNGGA,063207.00,2255.530480,N,12017.685661,E,1,07,2.1,17.5,M,17.5,M,,*43,1606977126421
Fix,gps,22.925508,120.294761,34.865295,0.000000,17.152000,1606977128000
Raw,6631619,6635448000000,,,-1291005709998545664,0.0,201.55344100203365,-2.9035482979386233,21.60692270738085,3,10,0.0,207,34327366089732,17,28.9,-671.6892700195312,0.24230000376701355,0,0.0,0.0,,,,,0,,3,,
Raw,6631619,6635448000000,,,-1291005709998545664,0.0,201.55344100203365,-2.9035482979386233,21.60692270738085,3,9,0.0,207,34327378927419,172,15.7,-302.76531982421875,6.748500347137451,0,0.0,0.0,,,,,0,,3,,
Raw,6631620,6635448000000,,,-1291005709998545664,0.0,201.55344100203365,-2.9035482979386233,21.60692270738085,3,5,0.0,207,34327378436860,35,22.2,330.77838134765625,0.9684999585151672,0,0.0,0.0,,,,,0,,3,,
Raw,6631620,6635448000000,,,-1291005709998545664,0.0,201.55344100203365,-2.9035482979386233,21.60692270738085,3,7,0.0,207,34327367852156,84,16.0,-726.339111328125,2.127000093460083,0,0.0,0.0,,,,,0,,3,,
Raw,6631620,6635448000000,,,-1291005709998545664,0.0,201.55344100203365,-2.9035482979386233,21.60692270738085,3,10,0.0,15,369145378394178,96,15.9,263.699462890625,2.0485000610351562,0,0.0,0.0,,,,,0,,1,,
Raw,6631620,6635448000000,,,-1291005709998545664,0.0,201.55344100203365,-2.9035482979386233,21.60692270738085,3,20,0.0,15,369145372280544,53,19.3,634.3724975585938,1.0145000219345093,0,0.0,0.0,,,,,0,,1,,
Raw,6631620,6635448000000,,,-1291005709998545664,0.0,201.55344100203365,-2.9035482979386233,21.60692270738085,3,23,0.0,15,369145372967560,122,15.0,589.0159912109375,4.374500274658203,0,0.0,0.0,,,,,0,,1,,
Raw,6631621,6635448000000,,,-1291005709998545664,0.0,201.55344100203365,-2.9035482979386233,21.60692270738085,3,25,0.0,15,369145378031771,61,18.8,177.8009033203125,1.0385000705718994,0,0.0,0.0,,,,,0,,1,,
Raw,6631621,6635448000000,,,-1291005709998545664,0.0,201.55344100203365,-2.9035482979386233,21.60692270738085,3,26,0.0,15,369145368065725,17,28.0,-686.1397094726562,0.20000000298023224,0,0.0,0.0,,,,,0,,1,,
Raw,6631621,6635448000000,,,-1291005709998545664,0.0,201.55344100203365,-2.9035482979386233,21.60692270738085,3,31,0.0,15,369145374535027,61,18.9,-173.14820861816406,1.0175000429153442,0,0.0,0.0,,,,,0,,1,,
Raw,6631621,6635448000000,,,-1291005709998545664,0.0,201.55344100203365,-2.9035482979386233,21.60692270738085,3,32,0.0,15,369145375443121,53,19.9,-285.57373046875,0.9389999508857727,0,0.0,0.0,,,,,0,,1,,
Raw,6631622,6635448000000,,,-1291005709998545664,0.0,201.55344100203365,-2.9035482979386233,21.60692270738085,3,2,0.0,783,369131321635653,1380,19.3,-6.6349639892578125,24.845001220703125,0,0.0,0.0,,,,,0,,5,,
Raw,6631622,6635448000000,,,-1291005709998545664,0.0,201.55344100203365,-2.9035482979386233,21.60692270738085,3,5,0.0,783,369131313499230,31,25.3,2.832582473754883,2.0250000953674316,0,0.0,0.0,,,,,0,,5,,
Raw,6631622,6635448000000,,,-1291005709998545664,0.0,201.55344100203365,-2.9035482979386233,21.60692270738085,3,8,0.0,15,369131313126982,1205,21.5,341.4078063964844,23.246000289916992,0,0.0,0.0,,,,,0,,5,,
Raw,6631622,6635448000000,,,-1291005709998545664,0.0,201.55344100203365,-2.9035482979386233,21.60692270738085,3,10,0.0,15,369131318409799,1174,17.5,-214.28726196289062,22.773500442504883,0,0.0,0.0,,,,,0,,5,,
Raw,6631622,6635448000000,,,-1291005709998545664,0.0,201.55344100203365,-2.9035482979386233,21.60692270738085,3,13,0.0,15,369131316686246,14,30.2,354.4786376953125,0.20000000298023224,0,0.0,0.0,,,,,0,,5,,
Raw,6631623,6635448000000,,,-1291005709998545664,0.0,201.55344100203365,-2.9035482979386233,21.60692270738085,3,19,0.0,15,369131365700345,438,13.1,516.11572265625,12.61400032043457,0,0.0,0.0,,,,,0,,5,,
Raw,6631623,6635448000000,,,-1291005709998545664,0.0,201.55344100203365,-2.9035482979386233,21.60692270738085,3,21,0.0,15,369131368132122,53,19.6,-453.731689453125,0.8585000038146973,0,0.0,0.0,,,,,0,,5,,
Raw,6631623,6635448000000,,,-1291005709998545664,0.0,201.55344100203365,-2.9035482979386233,21.60692270738085,3,26,0.0,15,369131364884798,11,33.7,-405.9547424316406,0.20000000298023224,0,0.0,0.0,,,,,0,,5,,
Raw,6631623,6635448000000,,,-1291005709998545664,0.0,201.55344100203365,-2.9035482979386233,21.60692270738085,3,36,0.0,7183,369145351898586,27,24.3,316.53448486328125,0.5489999651908875,0,0.0,0.0,,,,,0,,6,,
NMEA,$GPGSV,3,1,10,10,67,196,16,20,33,168,19,23,38,164,15,25,61,066,19*73,1606977127399
NMEA,$GPGSV,3,2,10,26,19,206,28,31,42,279,19,32,51,350,20,12,23,042,*7E,1606977127399
NMEA,$GPGSV,3,3,10,21,00,000,,29,11,129,*7A,1606977127400
NMEA,$GLGSV,2,1,08,74,04,220,29,73,49,240,16,69,47,116,22,71,09,329,16*60,1606977127400
NMEA,$GLGSV,2,2,08,70,56,354,,80,61,354,,79,11,028,,68,02,137,*6B,1606977127400
NMEA,$GAGSV,1,1,02,36,03,251,24,05,13,314,*6D,1606977127403
NMEA,$PQGSV,1,1,03,194,71,067,15,193,66,120,,195,18,151,,0,5*6F,1606977127405
NMEA,$PQGSV,4,1,16,02,41,241,19,05,17,258,25,08,15,196,22,10,33,198,18,0,4*60,1606977127406
NMEA,$PQGSV,4,2,16,13,24,220,30,19,26,137,13,21,40,322,20,26,22,240,34,0,4*65,1606977127407
NMEA,$PQGSV,4,3,16,01,51,129,,03,59,202,,04,37,115,,06,56,011,,0,4*6B,1606977127407
NMEA,$PQGSV,4,4,16,07,56,177,,09,44,327,,22,81,119,,29,01,133,,0,4*6D,1606977127408
NMEA,$GNGSA,A,3,10,23,26,31,,,,,,,,,2.4,2.1,1.0,1*33,1606977127409
NMEA,$GNGSA,A,2,73,74,,,,,,,,,,,2.4,2.1,1.0,2*30,1606977127409
NMEA,$PQGSA,A,2,26,,,,,,,,,,,,2.4,2.1,1.0,4*3D,1606977127410
NMEA,$GNVTG,,T,,M,0.0,N,0.0,K,A*3D,1606977127410
NMEA,$GNRMC,063208.00,A,2255.530482,N,12017.685664,E,0.0,,031220,2.8,W,A*12,1606977127410
NMEA,$GNGGA,063208.00,2255.530482,N,12017.685664,E,1,07,2.1,17.4,M,17.5,M,,*4A,1606977127410
NMEA,$GPGSV,3,1,10,10,67,196,16,20,33,168,17,23,38,164,15,25,61,066,19*7D,1606977128399
NMEA,$GPGSV,3,2,10,26,19,206,28,31,42,279,18,32,51,350,20,12,23,042,*7F,1606977128399
Raw,6632635,6636448000000,,,-1291005709998545664,0.0,196.60773978102952,-3.0650857205925277,20.669985694490922,3,10,0.0,207,34328366091934,17,28.0,-671.4935913085938,0.24230000376701355,0,0.0,0.0,,,,,0,,3,,
Raw,6632636,6636448000000,,,-1291005709998545664,0.0,196.60773978102952,-3.0650857205925277,20.669985694490922,3,9,0.0,207,34328378928622,126,14.4,-301.1642150878906,3.8335001468658447,0,0.0,0.0,,,,,0,,3,,
Raw,6632636,6636448000000,,,-1291005709998545664,0.0,196.60773978102952,-3.0650857205925277,20.669985694490922,3,5,0.0,207,34328378435843,31,23.2,329.5904846191406,0.8934999704360962,0,0.0,0.0,,,,,0,,3,,
Raw,6632637,6636448000000,,,-1291005709998545664,0.0,196.60773978102952,-3.0650857205925277,20.669985694490922,3,7,0.0,207,34328367854579,99,16.0,-726.339111328125,3.627000093460083,0,0.0,0.0,,,,,0,,3,,
Raw,6632638,6636448000000,,,-1291005709998545664,0.0,196.60773978102952,-3.0650857205925277,20.669985694490922,3,10,0.0,15,369146378393298,111,15.9,263.699462890625,3.5485000610351562,0,0.0,0.0,,,,,0,,1,,
Raw,6632639,6636448000000,,,-1291005709998545664,0.0,196.60773978102952,-3.0650857205925277,20.669985694490922,3,20,0.0,15,369146372278356,70,17.4,633.3544311523438,1.184499979019165,0,0.0,0.0,,,,,0,,1,,
Raw,6632639,6636448000000,,,-1291005709998545664,0.0,196.60773978102952,-3.0650857205925277,20.669985694490922,3,23,0.0,15,369146372965596,152,15.0,589.0159912109375,5.874500274658203,0,0.0,0.0,,,,,0,,1,,
Raw,6632640,6636448000000,,,-1291005709998545664,0.0,196.60773978102952,-3.0650857205925277,20.669985694490922,3,25,0.0,15,369146378031135,53,19.1,178.8189697265625,1.0234999656677246,0,0.0,0.0,,,,,0,,1,,
Raw,6632640,6636448000000,,,-1291005709998545664,0.0,196.60773978102952,-3.0650857205925277,20.669985694490922,3,26,0.0,15,369146368068031,19,27.7,-686.06689453125,0.20000000298023224,0,0.0,0.0,,,,,0,,1,,
Raw,6632640,6636448000000,,,-1291005709998545664,0.0,196.60773978102952,-3.0650857205925277,20.669985694490922,3,31,0.0,15,369146374535687,61,18.2,-174.42318725585938,1.097499966621399,0,0.0,0.0,,,,,0,,1,,
Raw,6632641,6636448000000,,,-1291005709998545664,0.0,196.60773978102952,-3.0650857205925277,20.669985694490922,3,32,0.0,15,369146375444164,53,19.6,-286.5537109375,0.9389999508857727,0,0.0,0.0,,,,,0,,1,,
Raw,6632641,6636448000000,,,-1291005709998545664,0.0,196.60773978102952,-3.0650857205925277,20.669985694490922,3,2,0.0,783,369132321635675,1548,19.3,-6.6349639892578125,26.345001220703125,0,0.0,0.0,,,,,0,,5,,
Raw,6632642,6636448000000,,,-1291005709998545664,0.0,196.60773978102952,-3.0650857205925277,20.669985694490922,3,5,0.0,783,369132313499220,48,25.3,2.832582473754883,3.5250000953674316,0,0.0,0.0,,,,,0,,5,,
Raw,6632642,6636448000000,,,-1291005709998545664,0.0,196.60773978102952,-3.0650857205925277,20.669985694490922,3,8,0.0,15,369132313125843,1363,21.5,341.4078063964844,24.746000289916992,0,0.0,0.0,,,,,0,,5,,
Raw,6632642,6636448000000,,,-1291005709998545664,0.0,196.60773978102952,-3.0650857205925277,20.669985694490922,3,10,0.0,15,369132318410514,1327,17.5,-214.28726196289062,24.273500442504883,0,0.0,0.0,,,,,0,,5,,
Raw,6632643,6636448000000,,,-1291005709998545664,0.0,196.60773978102952,-3.0650857205925277,20.669985694490922,3,13,0.0,15,369132316685074,14,30.2,353.5488586425781,0.20000000298023224,0,0.0,0.0,,,,,0,,5,,
Raw,6632643,6636448000000,,,-1291005709998545664,0.0,196.60773978102952,-3.0650857205925277,20.669985694490922,3,19,0.0,15,369132365698623,523,13.1,516.11572265625,14.11400032043457,0,0.0,0.0,,,,,0,,5,,
Raw,6632644,6636448000000,,,-1291005709998545664,0.0,196.60773978102952,-3.0650857205925277,20.669985694490922,3,21,0.0,15,369132368133682,61,18.5,-454.9607849121094,0.9284999966621399,0,0.0,0.0,,,,,0,,5,,
Raw,6632644,6636448000000,,,-1291005709998545664,0.0,196.60773978102952,-3.0650857205925277,20.669985694490922,3,26,0.0,15,369132364886151,11,33.3,-406.8637390136719,0.20000000298023224,0,0.0,0.0,,,,,0,,5,,
Raw,6632644,6636448000000,,,-1291005709998545664,0.0,196.60773978102952,-3.0650857205925277,20.669985694490922,3,36,0.0,7183,369146351897525,31,23.9,315.2975769042969,0.5989999771118164,0,0.0,0.0,,,,,0,,6,,
Fix,gps,22.925508,120.294761,34.881531,0.000000,16.080000,1606977129000
NMEA,$GPGSV,3,3,10,21,00,000,,29,11,129,*7A,1606977128399
NMEA,$GLGSV,2,1,08,74,04,220,28,73,49,240,14,69,47,116,23,71,09,329,16*62,1606977128402
NMEA,$GLGSV,2,2,08,70,56,354,,80,61,354,,79,11,028,,68,02,137,*6B,1606977128402
NMEA,$GAGSV,1,1,02,36,03,251,24,05,13,314,*6D,1606977128402
NMEA,$PQGSV,1,1,03,194,71,067,16,193,66,120,,195,18,151,,0,5*6C,1606977128403
NMEA,$PQGSV,4,1,16,02,41,241,19,05,17,258,25,08,15,196,22,10,33,198,18,0,4*60,1606977128403
NMEA,$PQGSV,4,2,16,13,24,220,30,19,26,137,13,21,40,322,19,26,22,240,33,0,4*68,1606977128403
NMEA,$PQGSV,4,3,16,01,51,129,,03,59,202,,04,37,115,,06,56,011,,0,4*6B,1606977128403
NMEA,$PQGSV,4,4,16,07,56,177,,09,44,327,,22,81,119,,29,01,133,,0,4*6D,1606977128403
NMEA,$GNGSA,A,3,10,23,26,31,,,,,,,,,2.4,2.1,1.0,1*33,1606977128404
NMEA,$GNGSA,A,2,73,74,,,,,,,,,,,2.4,2.1,1.0,2*30,1606977128405
NMEA,$PQGSA,A,2,26,,,,,,,,,,,,2.4,2.1,1.0,4*3D,1606977128405
NMEA,$GNVTG,,T,,M,0.0,N,0.0,K,A*3D,1606977128406
NMEA,$GNRMC,063209.00,A,2255.530481,N,12017.685664,E,0.0,,031220,2.8,W,A*10,1606977128407
NMEA,$GNGGA,063209.00,2255.530481,N,12017.685664,E,1,07,2.1,17.4,M,17.5,M,,*48,1606977128407
NMEA,$GPGSV,3,1,10,10,67,196,15,20,33,168,18,23,38,164,15,25,61,066,19*71,1606977129398
Raw,6633615,6637448000000,,,-1291005709998545664,0.0,196.05875422712415,-4.3511324212658655,22.945424604392134,3,10,0.0,207,34329366094262,17,28.6,-674.6848754882812,0.6654999852180481,0,0.0,0.0,,,,,0,,3,,
Raw,6633616,6637448000000,,,-1291005709998545664,0.0,196.05875422712415,-4.3511324212658655,22.945424604392134,3,9,0.0,207,34329378929627,151,14.4,-301.1642150878906,5.333500385284424,0,0.0,0.0,,,,,0,,3,,
Raw,6633616,6637448000000,,,-1291005709998545664,0.0,196.05875422712415,-4.3511324212658655,22.945424604392134,3,5,0.0,207,34329378434548,35,22.7,327.64495849609375,0.953499972820282,0,0.0,0.0,,,,,0,,3,,
Raw,6633617,6637448000000,,,-1291005709998545664,0.0,196.05875422712415,-4.3511324212658655,22.945424604392134,3,7,0.0,207,34329367856925,96,15.6,-730.3928833007812,2.2170000076293945,0,0.0,0.0,,,,,0,,3,,
Raw,6633617,6637448000000,,,-1291005709998545664,0.0,196.05875422712415,-4.3511324212658655,22.945424604392134,3,10,0.0,15,369147378392613,96,15.2,261.0829162597656,2.133500099182129,0,0.0,0.0,,,,,0,,1,,
Raw,6633618,6637448000000,,,-1291005709998545664,0.0,196.05875422712415,-4.3511324212658655,22.945424604392134,3,20,0.0,15,369147372276259,61,18.0,631.1660766601562,1.094499945640564,0,0.0,0.0,,,,,0,,1,,
Raw,6633618,6637448000000,,,-1291005709998545664,0.0,196.05875422712415,-4.3511324212658655,22.945424604392134,3,23,0.0,15,369147372963631,191,15.0,589.0159912109375,7.374500274658203,0,0.0,0.0,,,,,0,,1,,
Raw,6633619,6637448000000,,,-1291005709998545664,0.0,196.05875422712415,-4.3511324212658655,22.945424604392134,3,25,0.0,15,369147378030635,61,18.8,175.71717834472656,1.0234999656677246,0,0.0,0.0,,,,,0,,1,,
Raw,6633619,6637448000000,,,-1291005709998545664,0.0,196.05875422712415,-4.3511324212658655,22.945424604392134,3,26,0.0,15,369147368070310,19,27.1,-689.1009521484375,0.5385000109672546,0,0.0,0.0,,,,,0,,1,,
Raw,6633620,6637448000000,,,-1291005709998545664,0.0,196.05875422712415,-4.3511324212658655,22.945424604392134,3,31,0.0,15,369147374536131,53,19.0,-175.8123321533203,1.0175000429153442,0,0.0,0.0,,,,,0,,1,,
Raw,6633621,6637448000000,,,-1291005709998545664,0.0,196.05875422712415,-4.3511324212658655,22.945424604392134,3,32,0.0,15,369147375445076,61,18.6,-287.7811279296875,1.0190000534057617,0,0.0,0.0,,,,,0,,1,,
Raw,6633622,6637448000000,,,-1291005709998545664,0.0,196.05875422712415,-4.3511324212658655,22.945424604392134,3,2,0.0,783,369133321635697,1725,19.3,-6.6349639892578125,27.845001220703125,0,0.0,0.0,,,,,0,,5,,
Raw,6633622,6637448000000,,,-1291005709998545664,0.0,196.05875422712415,-4.3511324212658655,22.945424604392134,3,5,0.0,783,369133313499222,26,25.7,2.803776741027832,1.274999976158142,0,0.0,0.0,,,,,0,,5,,
Raw,6633623,6637448000000,,,-1291005709998545664,0.0,196.05875422712415,-4.3511324212658655,22.945424604392134,3,8,0.0,15,369133313124704,1530,21.5,341.4078063964844,26.246000289916992,0,0.0,0.0,,,,,0,,5,,
Raw,6633623,6637448000000,,,-1291005709998545664,0.0,196.05875422712415,-4.3511324212658655,22.945424604392134,3,10,0.0,15,369133318411228,1491,17.5,-214.28726196289062,25.773500442504883,0,0.0,0.0,,,,,0,,5,,
Raw,6633624,6637448000000,,,-1291005709998545664,0.0,196.05875422712415,-4.3511324212658655,22.945424604392134,3,13,0.0,15,369133316683899,13,31.1,351.3480224609375,0.20000000298023224,0,0.0,0.0,,,,,0,,5,,
Raw,6633625,6637448000000,,,-1291005709998545664,0.0,196.05875422712415,-4.3511324212658655,22.945424604392134,3,19,0.0,15,369133365696902,617,13.1,516.11572265625,15.61400032043457,0,0.0,0.0,,,,,0,,5,,
Raw,6633625,6637448000000,,,-1291005709998545664,0.0,196.05875422712415,-4.3511324212658655,22.945424604392134,3,21,0.0,15,369133368135199,69,18.5,-454.9607849121094,2.428499937057495,0,0.0,0.0,,,,,0,,5,,
Raw,6633626,6637448000000,,,-1291005709998545664,0.0,196.05875422712415,-4.3511324212658655,22.945424604392134,3,26,0.0,15,369133364887521,10,34.2,-408.9349670410156,0.20000000298023224,0,0.0,0.0,,,,,0,,5,,
Raw,6633627,6637448000000,,,-1291005709998545664,0.0,196.05875422712415,-4.3511324212658655,22.945424604392134,3,36,0.0,7183,369147351896488,35,22.9,313.62298583984375,0.6389999985694885,0,0.0,0.0,,,,,0,,6,,
Fix,gps,22.925508,120.294761,34.800964,0.000000,17.152000,1606977130000
NMEA,$GPGSV,3,2,10,26,19,206,27,31,42,279,19,32,51,350,19,12,23,042,*7B,1606977129398
NMEA,$GPGSV,3,3,10,21,00,000,,29,11,129,*7A,1606977129398
NMEA,$GLGSV,2,1,08,74,04,220,29,73,49,240,14,69,47,116,23,71,09,329,16*63,1606977129399
NMEA,$GLGSV,2,2,08,70,56,354,,80,61,354,,79,11,028,,68,02,137,*6B,1606977129399
NMEA,$GAGSV,1,1,02,36,03,251,23,05,13,314,*6A,1606977129399
NMEA,$PQGSV,1,1,03,194,71,067,16,193,66,120,,195,18,151,,0,5*6C,1606977129399
NMEA,$PQGSV,4,1,16,02,41,241,19,05,17,258,26,08,15,196,22,10,33,198,18,0,4*63,1606977129400
NMEA,$PQGSV,4,2,16,13,24,220,31,19,26,137,13,21,40,322,19,26,22,240,34,0,4*6E,1606977129401
NMEA,$PQGSV,4,3,16,01,51,129,,03,59,202,,04,37,115,,06,56,011,,0,4*6B,1606977129402
NMEA,$PQGSV,4,4,16,07,56,177,,09,44,327,,22,81,119,,29,01,133,,0,4*6D,1606977129402
NMEA,$GNGSA,A,3,10,23,26,31,,,,,,,,,2.4,2.1,1.0,1*33,1606977129403
NMEA,$GNGSA,A,2,73,74,,,,,,,,,,,2.4,2.1,1.0,2*30,1606977129403
NMEA,$PQGSA,A,2,26,,,,,,,,,,,,2.4,2.1,1.0,4*3D,1606977129404
NMEA,$GNVTG,,T,,M,0.0,N,0.0,K,A*3D,1606977129404
NMEA,$GNRMC,063210.00,A,2255.530484,N,12017.685671,E,0.0,,031220,2.8,W,A*19,1606977129404
NMEA,$GNGGA,063210.00,2255.530484,N,12017.685671,E,1,07,2.1,17.3,M,17.5,M,,*46,1606977129404
Fix,gps,22.925508,120.294761,34.791687,0.000000,16.080000,1606977131000
Raw,6634631,6638448000000,,,-1291005709998545920,0.0,201.02750568185002,-10.748100407524067,23.964491647054114,3,10,0.0,207,34330366096448,17,28.4,-676.4486694335938,0.24230000376701355,0,0.0,0.0,,,,,0,,3,,
Raw,6634632,6638448000000,,,-1291005709998545920,0.0,201.02750568185002,-10.748100407524067,23.964491647054114,3,9,0.0,207,34330378930505,96,15.6,-305.46197509765625,2.2335000038146973,0,0.0,0.0,,,,,0,,3,,
Raw,6634633,6638448000000,,,-1291005709998545920,0.0,201.02750568185002,-10.748100407524067,23.964491647054114,3,5,0.0,207,34330378433463,27,24.5,326.47576904296875,0.8585000038146973,0,0.0,0.0,,,,,0,,3,,
Raw,6634633,6638448000000,,,-1291005709998545920,0.0,201.02750568185002,-10.748100407524067,23.964491647054114,3,7,0.0,207,34330367859245,61,18.3,-731.3829345703125,1.2070000171661377,0,0.0,0.0,,,,,0,,3,,
Raw,6634634,6638448000000,,,-1291005709998545920,0.0,201.02750568185002,-10.748100407524067,23.964491647054114,3,10,0.0,15,369148378391715,53,19.0,258.1238708496094,1.0385000705718994,0,0.0,0.0,,,,,0,,1,,
Raw,6634634,6638448000000,,,-1291005709998545920,0.0,201.02750568185002,-10.748100407524067,23.964491647054114,3,20,0.0,15,369148372274135,53,19.4,629.16796875,1.0145000219345093,0,0.0,0.0,,,,,0,,1,,
Raw,6634634,6638448000000,,,-1291005709998545920,0.0,201.02750568185002,-10.748100407524067,23.964491647054114,3,23,0.0,15,369148372961666,241,15.0,589.0159912109375,8.874500274658203,0,0.0,0.0,,,,,0,,1,,
Raw,6634635,6638448000000,,,-1291005709998545920,0.0,201.02750568185002,-10.748100407524067,23.964491647054114,3,25,0.0,15,369148378030164,81,16.6,174.8227996826172,1.2085000276565552,0,0.0,0.0,,,,,0,,1,,
Raw,6634635,6638448000000,,,-1291005709998545920,0.0,201.02750568185002,-10.748100407524067,23.964491647054114,3,26,0.0,15,369148368072591,19,27.8,-690.9059448242188,0.20000000298023224,0,0.0,0.0,,,,,0,,1,,
Raw,6634636,6638448000000,,,-1291005709998545920,0.0,201.02750568185002,-10.748100407524067,23.964491647054114,3,31,0.0,15,369148374536638,53,19.4,-179.0282745361328,1.0175000429153442,0,0.0,0.0,,,,,0,,1,,
Raw,6634637,6638448000000,,,-1291005709998545920,0.0,201.02750568185002,-10.748100407524067,23.964491647054114,3,32,0.0,15,369148375446081,81,16.5,-290.57843017578125,1.1890000104904175,0,0.0,0.0,,,,,0,,1,,
Raw,6634637,6638448000000,,,-1291005709998545920,0.0,201.02750568185002,-10.748100407524067,23.964491647054114,3,2,0.0,783,369134321635719,1913,19.3,-6.6349639892578125,29.345001220703125,0,0.0,0.0,,,,,0,,5,,
Raw,6634637,6638448000000,,,-1291005709998545920,0.0,201.02750568185002,-10.748100407524067,23.964491647054114,3,5,0.0,783,369134313499212,38,25.7,2.803776741027832,2.7750000953674316,0,0.0,0.0,,,,,0,,5,,
Raw,6634638,6638448000000,,,-1291005709998545920,0.0,201.02750568185002,-10.748100407524067,23.964491647054114,3,7,0.0,15,369134323267227,1445,12.2,-183.1576690673828,8.366000175476074,0,0.0,0.0,,,,,0,,5,,
Raw,6634638,6638448000000,,,-1291005709998545920,0.0,201.02750568185002,-10.748100407524067,23.964491647054114,3,8,0.0,15,369134313123566,1708,21.5,341.4078063964844,27.746002197265625,0,0.0,0.0,,,,,0,,5,,
Raw,6634639,6638448000000,,,-1291005709998545920,0.0,201.02750568185002,-10.748100407524067,23.964491647054114,3,10,0.0,15,369134318411943,1665,17.5,-214.28726196289062,27.273500442504883,0,0.0,0.0,,,,,0,,5,,
Raw,6634639,6638448000000,,,-1291005709998545920,0.0,201.02750568185002,-10.748100407524067,23.964491647054114,3,13,0.0,15,369134316682731,14,30.2,349.5658264160156,0.20000000298023224,0,0.0,0.0,,,,,0,,5,,
Raw,6634640,6638448000000,,,-1291005709998545920,0.0,201.02750568185002,-10.748100407524067,23.964491647054114,3,19,0.0,15,369134365695180,722,13.1,516.11572265625,17.11400032043457,0,0.0,0.0,,,,,0,,5,,
Raw,6634641,6638448000000,,,-1291005709998545920,0.0,201.02750568185002,-10.748100407524067,23.964491647054114,3,21,0.0,15,369134368136768,84,16.4,-457.78375244140625,1.8385000228881836,0,0.0,0.0,,,,,0,,5,,
Raw,6634642,6638448000000,,,-1291005709998545920,0.0,201.02750568185002,-10.748100407524067,23.964491647054114,3,26,0.0,15,369134364888883,11,33.2,-410.7299499511719,0.20000000298023224,0,0.0,0.0,,,,,0,,5,,
Raw,6634642,6638448000000,,,-1291005709998545920,0.0,201.02750568185002,-10.748100407524067,23.964491647054114,3,36,0.0,7183,369148351895427,40,21.5,310.816162109375,0.6889999508857727,0,0.0,0.0,,,,,0,,6,,
NMEA,$GPGSV,3,1,10,10,67,196,19,20,33,168,19,23,38,164,15,25,61,066,17*72,1606977130399
NMEA,$GPGSV,3,2,10,26,19,206,28,31,42,279,19,32,51,350,17,12,23,042,*7A,1606977130399
NMEA,$GPGSV,3,3,10,21,00,000,,29,11,129,*7A,1606977130399
NMEA,$GLGSV,2,1,08,74,04,220,28,73,49,240,16,69,47,116,25,71,09,329,18*68,1606977130399
NMEA,$GLGSV,2,2,08,70,56,354,,80,61,354,,79,11,028,,68,02,137,*6B,1606977130400
NMEA,$GAGSV,1,1,02,36,03,251,22,05,13,314,*6B,1606977130400
NMEA,$PQGSV,1,1,03,194,71,067,18,193,66,120,,195,18,151,,0,5*62,1606977130400
NMEA,$PQGSV,4,1,16,02,41,241,19,05,17,258,26,07,56,177,12,08,15,196,22,0,4*6D,1606977130400
NMEA,$PQGSV,4,2,16,10,33,198,18,13,24,220,30,19,26,137,13,21,40,322,16,0,4*6D,1606977130400
NMEA,$PQGSV,4,3,16,26,22,240,33,01,51,129,,03,59,202,,04,37,115,,0,4*6C,1606977130401
NMEA,$PQGSV,4,4,16,06,56,011,,09,44,327,,22,81,119,,29,01,133,,0,4*6D,1606977130401
NMEA,$GNGSA,A,3,10,23,26,31,,,,,,,,,2.4,2.1,1.0,1*33,1606977130403
NMEA,$GNGSA,A,2,73,74,,,,,,,,,,,2.4,2.1,1.0,2*30,1606977130404
NMEA,$PQGSA,A,2,26,,,,,,,,,,,,2.4,2.1,1.0,4*3D,1606977130404
NMEA,$GNVTG,,T,,M,0.0,N,0.0,K,A*3D,1606977130405
NMEA,$GNRMC,063211.00,A,2255.530483,N,12017.685671,E,0.0,,031220,2.8,W,A*1F,1606977130406
NMEA,$GNGGA,063211.00,2255.530483,N,12017.685671,E,1,07,2.1,17.3,M,17.5,M,,*40,1606977130406
Fix,gps,22.925508,120.294761,34.804688,0.000000,16.080000,1606977132000
Raw,6635616,6639448000000,,,-1291005709998545920,0.0,193.4971078298986,-18.666802520821836,23.32398525463416,3,10,0.0,207,34331366098671,19,27.1,-676.8868408203125,0.25030001997947693,0,0.0,0.0,,,,,0,,3,,
Raw,6635617,6639448000000,,,-1291005709998545920,0.0,193.4971078298986,-18.666802520821836,23.32398525463416,3,9,0.0,207,34331378931515,61,18.0,-306.40771484375,1.2235000133514404,0,0.0,0.0,,,,,0,,3,,
Raw,6635618,6639448000000,,,-1291005709998545920,0.0,193.4971078298986,-18.666802520821836,23.32398525463416,3,5,0.0,207,34331378432344,27,24.6,325.4842834472656,0.843500018119812,0,0.0,0.0,,,,,0,,3,,
Raw,6635618,6639448000000,,,-1291005709998545920,0.0,193.4971078298986,-18.666802520821836,23.32398525463416,3,7,0.0,207,34331367861544,53,19.0,-731.4109497070312,1.1269999742507935,0,0.0,0.0,,,,,0,,3,,
Raw,6635618,6639448000000,,,-1291005709998545920,0.0,193.4971078298986,-18.666802520821836,23.32398525463416,3,10,0.0,15,369149378390839,70,17.1,258.923095703125,1.1934999227523804,0,0.0,0.0,,,,,0,,1,,
Raw,6635619,6639448000000,,,-1291005709998545920,0.0,193.4971078298986,-18.666802520821836,23.32398525463416,3,20,0.0,15,369149372272129,70,17.8,630.6998291015625,1.094499945640564,0,0.0,0.0,,,,,0,,1,,
Raw,6635619,6639448000000,,,-1291005709998545920,0.0,193.4971078298986,-18.666802520821836,23.32398525463416,3,23,0.0,15,369149372959701,301,15.0,589.0159912109375,10.374500274658203,0,0.0,0.0,,,,,0,,1,,
Raw,6635620,6639448000000,,,-1291005709998545920,0.0,193.4971078298986,-18.666802520821836,23.32398525463416,3,25,0.0,15,369149378029450,46,20.3,173.93792724609375,0.9434999823570251,0,0.0,0.0,,,,,0,,1,,
Raw,6635621,6639448000000,,,-1291005709998545920,0.0,193.4971078298986,-18.666802520821836,23.32398525463416,3,26,0.0,15,369149368074961,19,27.5,-691.4017944335938,0.20000000298023224,0,0.0,0.0,,,,,0,,1,,
Raw,6635621,6639448000000,,,-1291005709998545920,0.0,193.4971078298986,-18.666802520821836,23.32398525463416,3,31,0.0,15,369149374537219,53,19.4,-177.11582946777344,1.0175000429153442,0,0.0,0.0,,,,,0,,1,,
Raw,6635621,6639448000000,,,-1291005709998545920,0.0,193.4971078298986,-18.666802520821836,23.32398525463416,3,32,0.0,15,369149375446920,93,15.9,-290.94952392578125,1.2790000438690186,0,0.0,0.0,,,,,0,,1,,
Raw,6635622,6639448000000,,,-1291005709998545920,0.0,193.4971078298986,-18.666802520821836,23.32398525463416,3,1,0.0,783,369135322569089,199,19.2,-4.2248687744140625,8.538500785827637,0,0.0,0.0,,,,,0,,5,,
Raw,6635622,6639448000000,,,-1291005709998545920,0.0,193.4971078298986,-18.666802520821836,23.32398525463416,3,2,0.0,783,369135321635741,2112,19.3,-6.6349639892578125,30.845001220703125,0,0.0,0.0,,,,,0,,5,,
Raw,6635623,6639448000000,,,-1291005709998545920,0.0,193.4971078298986,-18.666802520821836,23.32398525463416,3,5,0.0,783,369135313499236,23,26.8,-4.272878646850586,1.2050000429153442,0,0.0,0.0,,,,,0,,5,,
Raw,6635623,6639448000000,,,-1291005709998545920,0.0,193.4971078298986,-18.666802520821836,23.32398525463416,3,7,0.0,15,369135323267832,1674,11.7,-183.22488403320312,9.236000061035156,0,0.0,0.0,,,,,0,,5,,
Raw,6635624,6639448000000,,,-1291005709998545920,0.0,193.4971078298986,-18.666802520821836,23.32398525463416,3,8,0.0,15,369135313122427,1896,21.5,341.4078063964844,29.246002197265625,0,0.0,0.0,,,,,0,,5,,
Raw,6635624,6639448000000,,,-1291005709998545920,0.0,193.4971078298986,-18.666802520821836,23.32398525463416,3,10,0.0,15,369135318412658,1848,17.5,-214.28726196289062,28.773500442504883,0,0.0,0.0,,,,,0,,5,,
Raw,6635624,6639448000000,,,-1291005709998545920,0.0,193.4971078298986,-18.666802520821836,23.32398525463416,3,13,0.0,15,369135316681572,14,30.6,349.023193359375,0.20000000298023224,0,0.0,0.0,,,,,0,,5,,
Raw,6635625,6639448000000,,,-1291005709998545920,0.0,193.4971078298986,-18.666802520821836,23.32398525463416,3,19,0.0,15,369135365693459,837,13.1,516.11572265625,18.61400032043457,0,0.0,0.0,,,,,0,,5,,
Raw,6635625,6639448000000,,,-1291005709998545920,0.0,193.4971078298986,-18.666802520821836,23.32398525463416,3,21,0.0,15,369135368138312,61,18.4,-459.3872985839844,0.9284999966621399,0,0.0,0.0,,,,,0,,5,,
Raw,6635626,6639448000000,,,-1291005709998545920,0.0,193.4971078298986,-18.666802520821836,23.32398525463416,3,26,0.0,15,369135364890252,11,33.6,-411.1719665527344,0.20000000298023224,0,0.0,0.0,,,,,0,,5,,
Raw,6635626,6639448000000,,,-1291005709998545920,0.0,193.4971078298986,-18.666802520821836,23.32398525463416,3,36,0.0,7183,369149351894391,35,22.5,310.6544189453125,0.6389999985694885,0,0.0,0.0,,,,,0,,6,,
NMEA,$GPGSV,3,1,10,10,67,196,17,20,33,168,18,23,38,164,15,25,61,066,20*79,1606977131398
NMEA,$GPGSV,3,2,10,26,19,206,28,31,42,279,19,32,51,350,16,12,23,042,*7B,1606977131398
NMEA,$GPGSV,3,3,10,21,00,000,,29,11,129,*7A,1606977131399
NMEA,$GLGSV,2,1,08,74,04,220,27,73,49,240,18,69,47,116,25,71,09,329,19*68,1606977131399
NMEA,$GLGSV,2,2,08,70,56,354,,80,61,354,,79,11,028,,68,02,137,*6B,1606977131399
NMEA,$GAGSV,1,1,02,36,03,251,23,05,13,314,*6A,1606977131399
NMEA,$PQGSV,1,1,03,194,71,067,20,193,66,120,,195,18,151,,0,5*69,1606977131400
NMEA,$PQGSV,4,1,16,01,51,129,19,02,41,241,19,05,17,258,27,07,56,177,12,0,4*69,1606977131400
NMEA,$PQGSV,4,2,16,08,15,196,22,10,33,198,18,13,24,220,31,19,26,137,13,0,4*6D,1606977131401
NMEA,$PQGSV,4,3,16,21,40,322,18,26,22,240,34,03,59,202,,04,37,115,,0,4*69,1606977131401
NMEA,$PQGSV,4,4,16,06,56,011,,09,44,327,,22,81,119,,29,01,133,,0,4*6D,1606977131401
NMEA,$GNGSA,A,3,10,23,26,31,,,,,,,,,2.4,2.1,1.0,1*33,1606977131402
NMEA,$GNGSA,A,2,73,74,,,,,,,,,,,2.4,2.1,1.0,2*30,1606977131403
NMEA,$PQGSA,A,2,26,,,,,,,,,,,,2.4,2.1,1.0,4*3D,1606977131403
NMEA,$GNVTG,,T,,M,0.0,N,0.0,K,A*3D,1606977131403
NMEA,$GNRMC,063212.00,A,2255.530481,N,12017.685672,E,0.0,,031220,2.8,W,A*1D,1606977131403
NMEA,$GNGGA,063212.00,2255.530481,N,12017.685672,E,1,07,2.1,17.3,M,17.5,M,,*42,1606977131404
NMEA,$GPGSV,3,1,10,10,67,196,18,20,33,168,20,23,38,164,14,25,61,066,21*7D,1606977132411
Raw,6636642,6640448000000,,,-1291005709998545920,0.0,189.67023061122745,-17.961827649690886,23.212022727410627,3,10,0.0,207,34332366100964,19,27.8,-674.8998413085938,0.25030001997947693,0,0.0,0.0,,,,,0,,3,,
Raw,6636645,6640448000000,,,-1291005709998545920,0.0,189.67023061122745,-17.961827649690886,23.212022727410627,3,9,0.0,207,34332378932537,70,18.0,-306.40771484375,2.7235002517700195,0,0.0,0.0,,,,,0,,3,,
Raw,6636647,6640448000000,,,-1291005709998545920,0.0,189.67023061122745,-17.961827649690886,23.212022727410627,3,5,0.0,207,34332378431326,31,23.3,327.8787841796875,0.8934999704360962,0,0.0,0.0,,,,,0,,3,,
Raw,6636649,6640448000000,,,-1291005709998545920,0.0,189.67023061122745,-17.961827649690886,23.212022727410627,3,7,0.0,207,34332367863906,53,19.5,-729.9071655273438,1.1269999742507935,0,0.0,0.0,,,,,0,,3,,
Raw,6636651,6640448000000,,,-1291005709998545920,0.0,189.67023061122745,-17.961827649690886,23.212022727410627,3,10,0.0,15,369150378389952,70,17.7,259.1990051269531,1.1034998893737793,0,0.0,0.0,,,,,0,,1,,
Raw,6636653,6640448000000,,,-1291005709998545920,0.0,189.67023061122745,-17.961827649690886,23.212022727410627,3,20,0.0,15,369150372270056,53,19.5,631.1470336914062,0.934499979019165,0,0.0,0.0,,,,,0,,1,,
Raw,6636655,6640448000000,,,-1291005709998545920,0.0,189.67023061122745,-17.961827649690886,23.212022727410627,3,23,0.0,15,369150372957624,150,14.2,585.3052978515625,5.244500160217285,0,0.0,0.0,,,,,0,,1,,
Raw,6636657,6640448000000,,,-1291005709998545920,0.0,189.67023061122745,-17.961827649690886,23.212022727410627,3,25,0.0,15,369150378028916,40,21.3,175.85989379882812,0.8734999895095825,0,0.0,0.0,,,,,0,,1,,
Raw,6636659,6640448000000,,,-1291005709998545920,0.0,189.67023061122745,-17.961827649690886,23.212022727410627,3,26,0.0,15,369150368077209,17,28.3,-689.4644165039062,0.20000000298023224,0,0.0,0.0,,,,,0,,1,,
Raw,6636661,6640448000000,,,-1291005709998545920,0.0,189.67023061122745,-17.961827649690886,23.212022727410627,3,31,0.0,15,369150374537895,46,20.3,-175.04164123535156,0.9375,0,0.0,0.0,,,,,0,,1,,
Raw,6636662,6640448000000,,,-1291005709998545920,0.0,189.67023061122745,-17.961827649690886,23.212022727410627,3,32,0.0,15,369150375448102,70,17.9,-288.37103271484375,1.0989999771118164,0,0.0,0.0,,,,,0,,1,,
Raw,6636664,6640448000000,,,-1291005709998545920,0.0,189.67023061122745,-17.961827649690886,23.212022727410627,3,1,0.0,783,369136322569103,258,19.2,-4.2248687744140625,10.038500785827637,0,0.0,0.0,,,,,0,,5,,
Raw,6636666,6640448000000,,,-1291005709998545920,0.0,189.67023061122745,-17.961827649690886,23.212022727410627,3,2,0.0,783,369136321635763,2320,19.3,-6.6349639892578125,32.345001220703125,0,0.0,0.0,,,,,0,,5,,
Raw,6636667,6640448000000,,,-1291005709998545920,0.0,189.67023061122745,-17.961827649690886,23.212022727410627,3,5,0.0,783,369136313499250,35,26.8,-4.272878646850586,2.705000162124634,0,0.0,0.0,,,,,0,,5,,
Raw,6636669,6640448000000,,,-1291005709998545920,0.0,189.67023061122745,-17.961827649690886,23.212022727410627,3,7,0.0,15,369136323268443,1736,11.7,-183.22488403320312,10.736000061035156,0,0.0,0.0,,,,,0,,5,,
Raw,6636671,6640448000000,,,-1291005709998545920,0.0,189.67023061122745,-17.961827649690886,23.212022727410627,3,8,0.0,15,369136313121288,2094,21.5,341.4078063964844,30.746002197265625,0,0.0,0.0,,,,,0,,5,,
Raw,6636673,6640448000000,,,-1291005709998545920,0.0,189.67023061122745,-17.961827649690886,23.212022727410627,3,10,0.0,15,369136318413373,2042,17.5,-214.28726196289062,30.273502349853516,0,0.0,0.0,,,,,0,,5,,
Raw,6636674,6640448000000,,,-1291005709998545920,0.0,189.67023061122745,-17.961827649690886,23.212022727410627,3,13,0.0,15,369136316680405,14,30.7,350.9415588378906,0.20000000298023224,0,0.0,0.0,,,,,0,,5,,
Raw,6636676,6640448000000,,,-1291005709998545920,0.0,189.67023061122745,-17.961827649690886,23.212022727410627,3,19,0.0,15,369136365691813,285,11.1,515.4243774414062,8.354000091552734,0,0.0,0.0,,,,,0,,5,,
Raw,6636677,6640448000000,,,-1291005709998545920,0.0,189.67023061122745,-17.961827649690886,23.212022727410627,3,21,0.0,15,369136368139845,69,18.4,-459.3872985839844,2.428499937057495,0,0.0,0.0,,,,,0,,5,,
Raw,6636679,6640448000000,,,-1291005709998545920,0.0,189.67023061122745,-17.961827649690886,23.212022727410627,3,26,0.0,15,369136364891621,11,33.8,-409.173095703125,0.20000000298023224,0,0.0,0.0,,,,,0,,5,,
Raw,6636680,6640448000000,,,-1291005709998545920,0.0,189.67023061122745,-17.961827649690886,23.212022727410627,3,36,0.0,7183,369150351893383,70,17.4,311.7961730957031,0.9389999508857727,0,0.0,0.0,,,,,0,,6,,
Fix,gps,22.925508,120.294761,34.782898,0.000000,15.008000,1606977133000
NMEA,$GPGSV,3,2,10,26,19,206,28,31,42,279,20,32,51,350,18,12,23,042,*7F,1606977132411
NMEA,$GPGSV,3,3,10,21,00,000,,29,11,129,*7A,1606977132412
NMEA,$GLGSV,2,1,08,74,04,220,28,73,49,240,18,69,47,116,23,71,09,329,20*6B,1606977132413
NMEA,$GLGSV,2,2,08,70,56,354,,80,61,354,,79,11,028,,68,02,137,*6B,1606977132418
NMEA,$GAGSV,1,1,02,36,03,251,17,05,13,314,*6D,1606977132418
NMEA,$PQGSV,1,1,03,194,71,067,20,193,66,120,,195,18,151,,0,5*69,1606977132418
NMEA,$PQGSV,4,1,16,01,51,129,19,02,41,241,19,05,17,258,27,07,56,177,12,0,4*69,1606977132419
NMEA,$PQGSV,4,2,16,08,15,196,22,10,33,198,18,13,24,220,31,19,26,137,11,0,4*6F,1606977132419
NMEA,$PQGSV,4,3,16,21,40,322,18,26,22,240,34,03,59,202,,04,37,115,,0,4*69,1606977132419
NMEA,$PQGSV,4,4,16,06,56,011,,09,44,327,,22,81,119,,29,01,133,,0,4*6D,1606977132419
NMEA,$GNGSA,A,3,10,23,26,31,,,,,,,,,2.3,2.1,1.0,1*34,1606977132420
NMEA,$GNGSA,A,2,73,74,,,,,,,,,,,2.3,2.1,1.0,2*37,1606977132421
NMEA,$PQGSA,A,2,26,,,,,,,,,,,,2.3,2.1,1.0,4*3A,1606977132421
NMEA,$GNVTG,,T,,M,0.0,N,0.0,K,A*3D,1606977132421
NMEA,$GNRMC,063213.00,A,2255.530482,N,12017.685673,E,0.0,,031220,2.8,W,A*1E,1606977132421
NMEA,$GNGGA,063213.00,2255.530482,N,12017.685673,E,1,07,2.1,17.3,M,17.5,M,,*41,1606977132422
NMEA,$GPGSV,3,1,10,10,67,196,18,20,33,168,18,23,38,164,14,25,61,066,21*76,1606977133412
Raw,6637642,6641448000000,,,-1291005709998545920,0.0,177.13192210067064,-12.101072401867663,21.050739723597605,3,10,0.0,207,34333366103181,19,27.4,-673.4375,0.25030001997947693,0,0.0,0.0,,,,,0,,3,,
Raw,6637642,6641448000000,,,-1291005709998545920,0.0,177.13192210067064,-12.101072401867663,21.050739723597605,3,9,0.0,207,34333378933503,84,16.1,-302.184814453125,2.1435000896453857,0,0.0,0.0,,,,,0,,3,,
Raw,6637643,6641448000000,,,-1291005709998545920,0.0,177.13192210067064,-12.101072401867663,21.050739723597605,3,5,0.0,207,34333378430129,27,24.3,328.8421936035156,0.843500018119812,0,0.0,0.0,,,,,0,,3,,
Raw,6637643,6641448000000,,,-1291005709998545920,0.0,177.13192210067064,-12.101072401867663,21.050739723597605,3,7,0.0,207,34333367866334,53,19.0,-729.0945434570312,1.1269999742507935,0,0.0,0.0,,,,,0,,3,,
Raw,6637644,6641448000000,,,-1291005709998545920,0.0,177.13192210067064,-12.101072401867663,21.050739723597605,3,10,0.0,15,369151378389140,70,17.5,262.0153503417969,1.1034998893737793,0,0.0,0.0,,,,,0,,1,,
Raw,6637644,6641448000000,,,-1291005709998545920,0.0,177.13192210067064,-12.101072401867663,21.050739723597605,3,20,0.0,15,369151372268016,61,18.3,633.1641235351562,1.094499945640564,0,0.0,0.0,,,,,0,,1,,
Raw,6637645,6641448000000,,,-1291005709998545920,0.0,177.13192210067064,-12.101072401867663,21.050739723597605,3,23,0.0,15,369151372955672,185,14.2,585.3052978515625,6.744500160217285,0,0.0,0.0,,,,,0,,1,,
Raw,6637645,6641448000000,,,-1291005709998545920,0.0,177.13192210067064,-12.101072401867663,21.050739723597605,3,25,0.0,15,369151378028275,46,20.6,177.58206176757812,0.8734999895095825,0,0.0,0.0,,,,,0,,1,,
Raw,6637645,6641448000000,,,-1291005709998545920,0.0,177.13192210067064,-12.101072401867663,21.050739723597605,3,26,0.0,15,369151368079529,19,27.9,-688.0328979492188,0.20000000298023224,0,0.0,0.0,,,,,0,,1,,
Raw,6637646,6641448000000,,,-1291005709998545920,0.0,177.13192210067064,-12.101072401867663,21.050739723597605,3,31,0.0,15,369151374538557,46,20.6,-174.75619506835938,0.8675000071525574,0,0.0,0.0,,,,,0,,1,,
Raw,6637646,6641448000000,,,-1291005709998545920,0.0,177.13192210067064,-12.101072401867663,21.050739723597605,3,32,0.0,15,369151375448923,61,18.5,-287.87628173828125,1.0190000534057617,0,0.0,0.0,,,,,0,,1,,
Raw,6637646,6641448000000,,,-1291005709998545920,0.0,177.13192210067064,-12.101072401867663,21.050739723597605,3,1,0.0,783,369137322569050,49,20.1,-4.2248687744140625,1.6234999895095825,0,0.0,0.0,,,,,0,,5,,
Raw,6637647,6641448000000,,,-1291005709998545920,0.0,177.13192210067064,-12.101072401867663,21.050739723597605,3,2,0.0,783,369137321635785,2538,19.3,-6.6349639892578125,33.845001220703125,0,0.0,0.0,,,,,0,,5,,
Raw,6637647,6641448000000,,,-1291005709998545920,0.0,177.13192210067064,-12.101072401867663,21.050739723597605,3,5,0.0,783,369137313499229,23,26.6,7.230287075042725,1.2450000047683716,0,0.0,0.0,,,,,0,,5,,
Raw,6637648,6641448000000,,,-1291005709998545920,0.0,177.13192210067064,-12.101072401867663,21.050739723597605,3,7,0.0,15,369137323269112,355,12.0,-183.455322265625,10.616000175476074,0,0.0,0.0,,,,,0,,5,,
