# 
# Header Description:
# 
# Version: v2.0.0.1 Platform: 8.0.0 Manufacturer: Sony Model: G8142
# 
# Raw,ElapsedRealtimeMillis,TimeNanos,LeapSecond,TimeUncertaintyNanos,FullBiasNanos,BiasNanos,BiasUncertaintyNanos,DriftNanosPerSecond,DriftUncertaintyNanosPerSecond,HardwareClockDiscontinuityCount,Svid,TimeOffsetNanos,State,ReceivedSvTimeNanos,ReceivedSvTimeUncertaintyNanos,Cn0DbHz,PseudorangeRateMetersPerSecond,PseudorangeRateUncertaintyMetersPerSecond,AccumulatedDeltaRangeState,AccumulatedDeltaRangeMeters,AccumulatedDeltaRangeUncertaintyMeters,CarrierFrequencyHz,CarrierCycles,CarrierPhase,CarrierPhaseUncertainty,MultipathIndicator,SnrInDb,ConstellationType,AgcDb,CarrierFrequencyHz
# 
# Fix,Provider,Latitude,Longitude,Altitude,Speed,Accuracy,(UTC)TimeInMs
# 
# Nav,Svid,Type,Status,MessageId,Sub-messageId,Data(Bytes)
# 
Raw,7098595,7102448000000,,,-1291005709998544640,0.0,85.43561853002757,-13.587810286362114,16.455367646826335,3,10,0.0,207,34794367113220,61,18.4,-650.0814819335938,1.2070000171661377,0,0.0,0.0,,,,,0,,3,,
Raw,7098596,7102448000000,,,-1291005709998544640,0.0,85.43561853002757,-13.587810286362114,16.455367646826335,3,9,0.0,207,34794379349794,64,18.4,-248.31719970703125,1.9750001430511475,0,0.0,0.0,,,,,0,,3,,
Raw,7098596,7102448000000,,,-1291005709998544640,0.0,85.43561853002757,-13.587810286362114,16.455367646826335,3,16,0.0,207,34794380264494,918,16.3,412.07861328125,5.866500377655029,0,0.0,0.0,,,,,0,,3,,
Raw,7098596,7102448000000,,,-1291005709998544640,0.0,85.43561853002757,-13.587810286362114,16.455367646826335,3,5,0.0,207,34794377874614,27,24.4,382.52215576171875,0.8420000076293945,0,0.0,0.0,,,,,0,,3,,
Raw,7098597,7102448000000,,,-1291005709998544640,0.0,85.43561853002757,-13.587810286362114,16.455367646826335,3,7,0.0,207,34794368985065,103,15.6,-735.5767822265625,2.9685001373291016,0,0.0,0.0,,,,,0,,3,,
Raw,7098597,7102448000000,,,-1291005709998544640,0.0,85.43561853002757,-13.587810286362114,16.455367646826335,3,10,0.0,15,369612377940175,90,16.3,312.6810607910156,2.7820000648498535,0,0.0,0.0,,,,,0,,1,,
Raw,7098597,7102448000000,,,-1291005709998544640,0.0,85.43561853002757,-13.587810286362114,16.455367646826335,3,12,0.0,15,369612368621459,1657,10.3,586.7420043945312,26.788501739501953,0,0.0,0.0,,,,,0,,1,,
Raw,7098597,7102448000000,,,-1291005709998544640,0.0,85.43561853002757,-13.587810286362114,16.455367646826335,3,21,0.0,15,369612359064488,31,23.4,37.44028091430664,0.7699999809265137,0,0.0,0.0,,,,,0,,1,,
Raw,7098597,7102448000000,,,-1291005709998544640,0.0,85.43561853002757,-13.587810286362114,16.455367646826335,3,23,0.0,15,369612372026588,1075,15.7,616.4563598632812,6.82450008392334,0,0.0,0.0,,,,,0,,1,,
Raw,7098598,7102448000000,,,-1291005709998544640,0.0,85.43561853002757,-13.587810286362114,16.455367646826335,3,25,0.0,15,369612377704785,27,24.5,233.28102111816406,0.6420000195503235,0,0.0,0.0,,,,,0,,1,,
Raw,7098598,7102448000000,,,-1291005709998544640,0.0,85.43561853002757,-13.587810286362114,16.455367646826335,3,26,0.0,15,369612369119254,11,33.6,-673.3255004882812,0.20000000298023224,0,0.0,0.0,,,,,0,,1,,
Raw,7098598,7102448000000,,,-1291005709998544640,0.0,85.43561853002757,-13.587810286362114,16.455367646826335,3,31,0.0,15,369612374780415,17,28.3,-149.82733154296875,0.20000000298023224,0,0.0,0.0,,,,,0,,1,,
Raw,7098598,7102448000000,,,-1291005709998544640,0.0,85.43561853002757,-13.587810286362114,16.455367646826335,3,32,0.0,15,369612375875550,19,27.9,-276.91644287109375,0.20000000298023224,0,0.0,0.0,,,,,0,,1,,
Raw,7098598,7102448000000,,,-1291005709998544640,0.0,85.43561853002757,-13.587810286362114,16.455367646826335,3,1,0.0,783,369598322567271,93,21.4,-2.2564640045166016,5.253499984741211,0,0.0,0.0,,,,,0,,5,,
Raw,7098599,7102448000000,,,-1291005709998544640,0.0,85.43561853002757,-13.587810286362114,16.455367646826335,3,2,0.0,783,369598321629989,23,26.4,-2.563727378845215,1.2450000047683716,0,0.0,0.0,,,,,0,,5,,
Raw,7098599,7102448000000,,,-1291005709998544640,0.0,85.43561853002757,-13.587810286362114,16.455367646826335,3,5,0.0,783,369598313491176,19,27.7,-2.5829310417175293,0.45500001311302185,0,0.0,0.0,,,,,0,,5,,
Raw,7098599,7102448000000,,,-1291005709998544640,0.0,85.43561853002757,-13.587810286362114,16.455367646826335,3,7,0.0,15,369598323538403,371,15.1,-170.0221710205078,11.776000022888184,0,0.0,0.0,,,,,0,,5,,
Raw,7098599,7102448000000,,,-1291005709998544640,0.0,85.43561853002757,-13.587810286362114,16.455367646826335,3,8,0.0,15,369598312604522,35,22.8,325.6797790527344,0.6345000267028809,0,0.0,0.0,,,,,0,,5,,
Raw,7098600,7102448000000,,,-1291005709998544640,0.0,85.43561853002757,-13.587810286362114,16.455367646826335,3,10,0.0,15,369598318739495,53,19.8,-214.23924255371094,0.828499972820282,0,0.0,0.0,,,,,0,,5,,
Raw,7098600,7102448000000,,,-1291005709998544640,0.0,85.43561853002757,-13.587810286362114,16.455367646826335,3,13,0.0,15,369598316132442,17,28.9,348.9417419433594,0.20000000298023224,0,0.0,0.0,,,,,0,,5,,
Raw,7098600,7102448000000,,,-1291005709998544640,0.0,85.43561853002757,-13.587810286362114,16.455367646826335,3,21,0.0,15,369598368817497,658,17.5,-426.02044677734375,16.758501052856445,0,0.0,0.0,,,,,0,,5,,
Raw,7098600,7102448000000,,,-1291005709998544640,0.0,85.43561853002757,-13.587810286362114,16.455367646826335,3,22,0.0,15,369598373574077,670,13.6,113.33210754394531,16.391000747680664,0,0.0,0.0,,,,,0,,5,,
Raw,7098601,7102448000000,,,-1291005709998544640,0.0,85.43561853002757,-13.587810286362114,16.455367646826335,3,26,0.0,15,369598365495781,10,34.8,-385.9069519042969,0.20000000298023224,0,0.0,0.0,,,,,0,,5,,
Raw,7098601,7102448000000,,,-1291005709998544640,0.0,85.43561853002757,-13.587810286362114,16.455367646826335,3,5,0.0,7183,369612355527291,101,16.3,-437.856201171875,3.5990002155303955,0,0.0,0.0,,,,,0,,6,,
Fix,gps,22.925507,120.294765,34.196289,0.000000,11.792000,1606977595000
NMEA,$GPGSV,3,1,10,10,63,194,16,12,21,040,10,21,00,000,23,23,35,164,16*71,1606977594398
NMEA,$GPGSV,3,2,10,25,59,059,25,26,22,206,34,31,43,284,28,32,53,354,28*70,1606977594398
NMEA,$GPGSV,3,3,10,20,29,168,,29,13,125,*71,1606977594399
NMEA,$GLGSV,2,1,07,74,07,222,18,73,52,247,18,80,57,358,16,69,45,122,24*6F,1606977594399
NMEA,$GLGSV,2,2,07,71,13,330,16,70,60,357,,79,07,029,*53,1606977594399
NMEA,$GAGSV,1,1,02,05,15,316,16,36,02,248,*61,1606977594400
NMEA,$PQGSV,1,1,03,193,66,125,18,194,71,063,18,195,18,150,,0,5*6B,1606977594400
NMEA,$PQGSV,4,1,16,01,51,129,21,02,41,241,26,05,17,257,28,07,58,178,15,0,4*68,1606977594400
NMEA,$PQGSV,4,2,16,08,14,196,23,10,34,199,20,13,22,219,29,21,43,322,18,0,4*60,1606977594400
NMEA,$PQGSV,4,3,16,22,78,136,14,26,24,243,35,03,59,202,,04,37,115,,0,4*6E,1606977594400
NMEA,$PQGSV,4,4,16,06,56,012,,09,44,329,,19,23,140,,29,02,130,,0,4*6C,1606977594401
NMEA,$GNGSA,A,3,10,23,26,31,,,,,,,,,2.3,2.1,1.0,1*34,1606977594402
NMEA,$GNGSA,A,2,73,74,,,,,,,,,,,2.3,2.1,1.0,2*37,1606977594402
NMEA,$GNGSA,A,2,05,,,,,,,,,,,,2.3,2.1,1.0,3*34,1606977594402
NMEA,$PQGSA,A,2,13,26,,,,,,,,,,,2.3,2.1,1.0,4*38,1606977594402
NMEA,$GNVTG,,T,,M,0.0,N,0.0,K,A*3D,1606977594402
NMEA,$GNRMC,063955.00,A,2255.530409,N,12017.685920,E,0.0,,031220,2.8,W,A*1D,1606977594403
NMEA,$GNGGA,063955.00,2255.530409,N,12017.685920,E,1,09,2.1,16.7,M,17.5,M,,*49,1606977594403
NMEA,$GPGSV,3,1,10,10,63,194,17,12,21,040,11,21,00,000,23,23,35,164,15*72,1606977595398
Raw,7099631,7103448000000,,,-1291005709998544896,0.0,94.3129780353047,-16.8159931701083,18.38019836491015,3,10,0.0,207,34795367115757,70,17.1,-652.0043334960938,1.2869999408721924,0,0.0,0.0,,,,,0,,3,,
Raw,7099632,7103448000000,,,-1291005709998544896,0.0,94.3129780353047,-16.8159931701083,18.38019836491015,3,6,0.0,207,34795381007112,1695,12.8,-384.13165283203125,9.883000373840332,0,0.0,0.0,,,,,0,,3,,
Raw,7099632,7103448000000,,,-1291005709998544896,0.0,94.3129780353047,-16.8159931701083,18.38019836491015,3,9,0.0,207,34795379350603,70,17.1,-247.82093811035156,1.3049999475479126,0,0.0,0.0,,,,,0,,3,,
Raw,7099632,7103448000000,,,-1291005709998544896,0.0,94.3129780353047,-16.8159931701083,18.38019836491015,3,16,0.0,207,34795380263148,1069,15.7,411.48895263671875,6.70650053024292,0,0.0,0.0,,,,,0,,3,,
Raw,7099633,7103448000000,,,-1291005709998544896,0.0,94.3129780353047,-16.8159931701083,18.38019836491015,3,5,0.0,207,34795377873355,31,23.5,381.3061828613281,0.8919999599456787,0,0.0,0.0,,,,,0,,3,,
Raw,7099633,7103448000000,,,-1291005709998544896,0.0,94.3129780353047,-16.8159931701083,18.38019836491015,3,7,0.0,207,34795368987519,123,15.6,-735.5767822265625,4.468500137329102,0,0.0,0.0,,,,,0,,3,,
Raw,7099633,7103448000000,,,-1291005709998544896,0.0,94.3129780353047,-16.8159931701083,18.38019836491015,3,10,0.0,15,369613377939308,84,16.5,311.1015930175781,1.9420000314712524,0,0.0,0.0,,,,,0,,1,,
Raw,7099633,7103448000000,,,-1291005709998544896,0.0,94.3129780353047,-16.8159931701083,18.38019836491015,3,12,0.0,15,369613368619497,367,10.8,584.9913330078125,10.128499984741211,0,0.0,0.0,,,,,0,,1,,
Raw,7099634,7103448000000,,,-1291005709998544896,0.0,94.3129780353047,-16.8159931701083,18.38019836491015,3,21,0.0,15,369613359064322,31,23.2,35.394622802734375,0.7549999952316284,0,0.0,0.0,,,,,0,,1,,
Raw,7099634,7103448000000,,,-1291005709998544896,0.0,94.3129780353047,-16.8159931701083,18.38019836491015,3,23,0.0,15,369613372024537,1250,15.2,616.2946166992188,7.674500465393066,0,0.0,0.0,,,,,0,,1,,
Raw,7099634,7103448000000,,,-1291005709998544896,0.0,94.3129780353047,-16.8159931701083,18.38019836491015,3,25,0.0,15,369613377704042,31,23.4,231.58740234375,0.7519999742507935,0,0.0,0.0,,,,,0,,1,,
Raw,7099634,7103448000000,,,-1291005709998544896,0.0,94.3129780353047,-16.8159931701083,18.38019836491015,3,26,0.0,15,369613369121489,11,33.8,-674.9681396484375,0.20000000298023224,0,0.0,0.0,,,,,0,,1,,
Raw,7099635,7103448000000,,,-1291005709998544896,0.0,94.3129780353047,-16.8159931701083,18.38019836491015,3,31,0.0,15,369613374780941,16,29.5,-151.50205993652344,0.20000000298023224,0,0.0,0.0,,,,,0,,1,,
Raw,7099635,7103448000000,,,-1291005709998544896,0.0,94.3129780353047,-16.8159931701083,18.38019836491015,3,32,0.0,15,369613375876434,21,26.5,-278.5938415527344,0.20000000298023224,0,0.0,0.0,,,,,0,,1,,
Raw,7099635,7103448000000,,,-1291005709998544896,0.0,94.3129780353047,-16.8159931701083,18.38019836491015,3,1,0.0,783,369599322567262,48,21.4,-8.3441162109375,2.253499984741211,0,0.0,0.0,,,,,0,,5,,
Raw,7099635,7103448000000,,,-1291005709998544896,0.0,94.3129780353047,-16.8159931701083,18.38019836491015,3,2,0.0,783,369599321629998,35,26.4,-2.563727378845215,2.745000123977661,0,0.0,0.0,,,,,0,,5,,
Raw,7099635,7103448000000,,,-1291005709998544896,0.0,94.3129780353047,-16.8159931701083,18.38019836491015,3,5,0.0,783,369599313491178,17,28.7,-0.9601974487304688,0.4150000214576721,0,0.0,0.0,,,,,0,,5,,
Raw,7099636,7103448000000,,,-1291005709998544896,0.0,94.3129780353047,-16.8159931701083,18.38019836491015,3,7,0.0,15,369599323538970,450,15.1,-170.0221710205078,13.2760009765625,0,0.0,0.0,,,,,0,,5,,
Raw,7099636,7103448000000,,,-1291005709998544896,0.0,94.3129780353047,-16.8159931701083,18.38019836491015,3,8,0.0,15,369599312603405,35,22.8,323.980224609375,0.6345000267028809,0,0.0,0.0,,,,,0,,5,,
Raw,7099636,7103448000000,,,-1291005709998544896,0.0,94.3129780353047,-16.8159931701083,18.38019836491015,3,10,0.0,15,369599318740189,53,19.6,-216.0060272216797,0.8734999895095825,0,0.0,0.0,,,,,0,,5,,
Raw,7099636,7103448000000,,,-1291005709998544896,0.0,94.3129780353047,-16.8159931701083,18.38019836491015,3,13,0.0,15,369599316131286,17,28.6,347.20904541015625,0.20000000298023224,0,0.0,0.0,,,,,0,,5,,
Raw,7099637,7103448000000,,,-1291005709998544896,0.0,94.3129780353047,-16.8159931701083,18.38019836491015,3,21,0.0,15,369599368818918,771,17.5,-426.02044677734375,18.258501052856445,0,0.0,0.0,,,,,0,,5,,
Raw,7099637,7103448000000,,,-1291005709998544896,0.0,94.3129780353047,-16.8159931701083,18.38019836491015,3,22,0.0,15,369599373573699,780,13.6,113.33210754394531,17.891000747680664,0,0.0,0.0,,,,,0,,5,,
Raw,7099637,7103448000000,,,-1291005709998544896,0.0,94.3129780353047,-16.8159931701083,18.38019836491015,3,26,0.0,15,369599365497080,9,35.1,-387.5382080078125,0.20000000298023224,0,0.0,0.0,,,,,0,,5,,
Raw,7099637,7103448000000,,,-1291005709998544896,0.0,94.3129780353047,-16.8159931701083,18.38019836491015,3,5,0.0,7183,369613355528752,127,16.3,-437.856201171875,5.098999977111816,0,0.0,0.0,,,,,0,,6,,
Fix,gps,22.925507,120.294765,34.220093,0.000000,11.792000,1606977596000
NMEA,$GPGSV,3,2,10,25,59,059,23,26,22,206,34,31,43,284,30,32,53,354,27*70,1606977595398
NMEA,$GPGSV,3,3,10,20,29,168,,29,13,125,*71,1606977595398
NMEA,$GLGSV,2,1,07,74,07,222,17,70,60,357,13,73,52,247,17,80,57,358,16*64,1606977595398
NMEA,$GLGSV,2,2,07,69,45,122,24,71,13,330,16,79,07,029,*5A,1606977595399
NMEA,$GAGSV,1,1,02,05,15,316,16,36,02,248,*61,1606977595399
NMEA,$PQGSV,1,1,03,193,66,125,18,194,71,063,18,195,18,150,,0,5*6B,1606977595404
NMEA,$PQGSV,4,1,16,01,51,129,21,02,41,241,26,05,17,257,29,07,58,178,15,0,4*69,1606977595404
NMEA,$PQGSV,4,2,16,08,14,196,23,10,34,199,20,13,22,219,29,21,43,322,18,0,4*60,1606977595405
NMEA,$PQGSV,4,3,16,22,78,136,14,26,24,243,35,03,59,202,,04,37,115,,0,4*6E,1606977595405
NMEA,$PQGSV,4,4,16,06,56,012,,09,44,329,,19,23,140,,29,02,130,,0,4*6C,1606977595405
NMEA,$GNGSA,A,3,10,23,26,31,,,,,,,,,2.3,2.1,1.0,1*34,1606977595406
NMEA,$GNGSA,A,2,73,74,,,,,,,,,,,2.3,2.1,1.0,2*37,1606977595406
NMEA,$PQGSA,A,2,13,26,,,,,,,,,,,2.3,2.1,1.0,4*38,1606977595406
NMEA,$GNVTG,,T,,M,0.0,N,0.0,K,A*3D,1606977595406
NMEA,$GNRMC,063956.00,A,2255.530409,N,12017.685920,E,0.0,,031220,2.8,W,A*1E,1606977595407
NMEA,$GNGGA,063956.00,2255.530409,N,12017.685920,E,1,08,2.1,16.8,M,17.5,M,,*44,1606977595407
Raw,7100647,7104448000000,,,-1291005709998544896,0.0,119.77725807810202,-23.066738019465806,20.327411408870336,3,10,0.0,207,34796367117346,46,20.4,-649.77197265625,1.056999921798706,0,0.0,0.0,,,,,0,,3,,
Raw,7100647,7104448000000,,,-1291005709998544896,0.0,119.77725807810202,-23.066738019465806,20.327411408870336,3,6,0.0,207,34796381008351,1710,12.8,-384.6095275878906,10.258000373840332,0,0.0,0.0,,,,,0,,3,,
Raw,7100648,7104448000000,,,-1291005709998544896,0.0,119.77725807810202,-23.066738019465806,20.327411408870336,3,9,0.0,207,34796379351429,79,17.1,-247.82093811035156,2.805000066757202,0,0.0,0.0,,,,,0,,3,,
Raw,7100648,7104448000000,,,-1291005709998544896,0.0,119.77725807810202,-23.066738019465806,20.327411408870336,3,16,0.0,207,34796380261805,958,16.1,410.7775573730469,7.366500377655029,0,0.0,0.0,,,,,0,,3,,
Raw,7100649,7104448000000,,,-1291005709998544896,0.0,119.77725807810202,-23.066738019465806,20.327411408870336,3,5,0.0,207,34796377872113,27,24.7,381.1284484863281,0.8420000076293945,0,0.0,0.0,,,,,0,,3,,
Raw,7100649,7104448000000,,,-1291005709998544896,0.0,119.77725807810202,-23.066738019465806,20.327411408870336,3,7,0.0,207,34796368989972,153,15.6,-735.5767822265625,5.968500137329102,0,0.0,0.0,,,,,0,,3,,
Raw,7100649,7104448000000,,,-1291005709998544896,0.0,119.77725807810202,-23.066738019465806,20.327411408870336,3,10,0.0,15,369614377938136,53,19.4,310.07403564453125,1.0220000743865967,0,0.0,0.0,,,,,0,,1,,
Raw,7100650,7104448000000,,,-1291005709998544896,0.0,119.77725807810202,-23.066738019465806,20.327411408870336,3,12,0.0,15,369614368617545,434,10.8,584.9913330078125,11.628500938415527,0,0.0,0.0,,,,,0,,1,,
Raw,7100650,7104448000000,,,-1291005709998544896,0.0,119.77725807810202,-23.066738019465806,20.327411408870336,3,21,0.0,15,369614359064293,31,23.5,35.661033630371094,0.6949999928474426,0,0.0,0.0,,,,,0,,1,,
Raw,7100651,7104448000000,,,-1291005709998544896,0.0,119.77725807810202,-23.066738019465806,20.327411408870336,3,23,0.0,15,369614372022460,1274,14.8,616.3326416015625,8.424500465393066,0,0.0,0.0,,,,,0,,1,,
Raw,7100651,7104448000000,,,-1291005709998544896,0.0,119.77725807810202,-23.066738019465806,20.327411408870336,3,25,0.0,15,369614377703220,27,24.9,231.225830078125,0.6420000195503235,0,0.0,0.0,,,,,0,,1,,
Raw,7100651,7104448000000,,,-1291005709998544896,0.0,119.77725807810202,-23.066738019465806,20.327411408870336,3,26,0.0,15,369614369123742,10,34.3,-675.0866088867188,0.20000000298023224,0,0.0,0.0,,,,,0,,1,,
Raw,7100652,7104448000000,,,-1291005709998544896,0.0,119.77725807810202,-23.066738019465806,20.327411408870336,3,31,0.0,15,369614374781464,16,29.7,-151.58226013183594,0.20000000298023224,0,0.0,0.0,,,,,0,,1,,
Raw,7100652,7104448000000,,,-1291005709998544896,0.0,119.77725807810202,-23.066738019465806,20.327411408870336,3,32,0.0,15,369614375877365,19,27.0,-278.7022399902344,0.20000000298023224,0,0.0,0.0,,,,,0,,1,,
Raw,7100653,7104448000000,,,-1291005709998544896,0.0,119.77725807810202,-23.066738019465806,20.327411408870336,3,1,0.0,783,369600322567289,65,21.4,-8.3441162109375,3.75350022315979,0,0.0,0.0,,,,,0,,5,,
Raw,7100653,7104448000000,,,-1291005709998544896,0.0,119.77725807810202,-23.066738019465806,20.327411408870336,3,2,0.0,783,369600321630012,23,26.6,-2.006812572479248,1.2450000047683716,0,0.0,0.0,,,,,0,,5,,
Raw,7100654,7104448000000,,,-1291005709998544896,0.0,119.77725807810202,-23.066738019465806,20.327411408870336,3,5,0.0,783,369600313491164,17,28.7,-2.5541253089904785,0.4150000214576721,0,0.0,0.0,,,,,0,,5,,
Raw,7100654,7104448000000,,,-1291005709998544896,0.0,119.77725807810202,-23.066738019465806,20.327411408870336,3,7,0.0,15,369600323539537,540,15.1,-170.0221710205078,14.7760009765625,0,0.0,0.0,,,,,0,,5,,
Raw,7100655,7104448000000,,,-1291005709998544896,0.0,119.77725807810202,-23.066738019465806,20.327411408870336,3,8,0.0,15,369600312602354,31,23.1,323.19287109375,0.6345000267028809,0,0.0,0.0,,,,,0,,5,,
Raw,7100655,7104448000000,,,-1291005709998544896,0.0,119.77725807810202,-23.066738019465806,20.327411408870336,3,10,0.0,15,369600318740914,53,19.3,-216.0060272216797,0.8734999895095825,0,0.0,0.0,,,,,0,,5,,
Raw,7100655,7104448000000,,,-1291005709998544896,0.0,119.77725807810202,-23.066738019465806,20.327411408870336,3,13,0.0,15,369600316130115,16,29.0,347.0668029785156,0.20000000298023224,0,0.0,0.0,,,,,0,,5,,
Raw,7100656,7104448000000,,,-1291005709998544896,0.0,119.77725807810202,-23.066738019465806,20.327411408870336,3,21,0.0,15,369600368820339,895,17.5,-426.02044677734375,19.758501052856445,0,0.0,0.0,,,,,0,,5,,
Raw,7100656,7104448000000,,,-1291005709998544896,0.0,119.77725807810202,-23.066738019465806,20.327411408870336,3,22,0.0,15,369600373573321,900,13.6,113.33210754394531,19.391000747680664,0,0.0,0.0,,,,,0,,5,,
Raw,7100656,7104448000000,,,-1291005709998544896,0.0,119.77725807810202,-23.066738019465806,20.327411408870336,3,26,0.0,15,369600365498359,9,35.5,-387.6585693359375,0.20000000298023224,0,0.0,0.0,,,,,0,,5,,
Raw,7100657,7104448000000,,,-1291005709998544896,0.0,119.77725807810202,-23.066738019465806,20.327411408870336,3,5,0.0,7183,369614355530212,163,16.3,-437.856201171875,6.599000453948975,0,0.0,0.0,,,,,0,,6,,
Fix,gps,22.925507,120.294765,34.221985,0.000000,11.792000,1606977597000
NMEA,$GPGSV,3,1,10,10,63,194,19,12,21,040,11,21,00,000,24,23,35,164,15*7B,1606977596395
NMEA,$GPGSV,3,2,10,25,59,059,25,26,22,206,34,31,43,284,30,32,53,354,27*76,1606977596395
NMEA,$GPGSV,3,3,10,20,29,168,,29,13,125,*71,1606977596396
NMEA,$GLGSV,2,1,07,74,07,222,20,70,60,357,13,73,52,247,17,80,57,358,16*60,1606977596396
NMEA,$GLGSV,2,2,07,69,45,122,25,71,13,330,16,79,07,029,*5B,1606977596396
NMEA,$GAGSV,1,1,02,05,15,316,16,36,02,248,*61,1606977596396
NMEA,$PQGSV,1,1,03,193,66,125,16,194,71,063,19,195,18,150,,0,5*64,1606977596397
NMEA,$PQGSV,4,1,16,01,51,129,21,02,41,241,27,05,17,257,29,07,58,178,15,0,4*68,1606977596397
NMEA,$PQGSV,4,2,16,08,14,196,23,10,34,199,19,13,22,219,29,21,43,322,18,0,4*6A,1606977596398
NMEA,$PQGSV,4,3,16,22,78,136,14,26,24,243,36,03,59,202,,04,37,115,,0,4*6D,1606977596398
NMEA,$PQGSV,4,4,16,06,56,012,,09,44,329,,19,23,140,,29,02,130,,0,4*6C,1606977596398
NMEA,$GNGSA,A,3,10,23,26,31,,,,,,,,,2.3,2.1,1.0,1*34,1606977596400
NMEA,$GNGSA,A,2,73,74,,,,,,,,,,,2.3,2.1,1.0,2*37,1606977596400
NMEA,$PQGSA,A,2,13,26,,,,,,,,,,,2.3,2.1,1.0,4*38,1606977596400
NMEA,$GNVTG,,T,,M,0.0,N,0.0,K,A*3D,1606977596400
NMEA,$GNRMC,063957.00,A,2255.530410,N,12017.685919,E,0.0,,031220,2.8,W,A*1D,1606977596401
NMEA,$GNGGA,063957.00,2255.530410,N,12017.685919,E,1,08,2.1,16.8,M,17.5,M,,*47,1606977596401
NMEA,$GPGSV,3,1,10,10,63,194,19,12,21,040,11,21,00,000,25,23,35,164,15*7A,1606977597397
Raw,7101623,7105448000000,,,-1291005709998544896,0.0,119.63531869696453,-23.255152285999575,20.334040852748444,3,10,0.0,207,34797367119472,53,19.8,-650.98193359375,1.1269999742507935,0,0.0,0.0,,,,,0,,3,,
Raw,7101624,7105448000000,,,-1291005709998544896,0.0,119.63531869696453,-23.255152285999575,20.334040852748444,3,6,0.0,207,34797381009632,382,12.9,-384.7687683105469,11.383000373840332,0,0.0,0.0,,,,,0,,3,,
Raw,7101625,7105448000000,,,-1291005709998544896,0.0,119.63531869696453,-23.255152285999575,20.334040852748444,3,9,0.0,207,34797379352256,99,17.1,-247.82093811035156,4.305000305175781,0,0.0,0.0,,,,,0,,3,,
Raw,7101625,7105448000000,,,-1291005709998544896,0.0,119.63531869696453,-23.255152285999575,20.334040852748444,3,16,0.0,207,34797380260453,1114,15.6,409.71990966796875,8.206500053405762,0,0.0,0.0,,,,,0,,3,,
Raw,7101626,7105448000000,,,-1291005709998544896,0.0,119.63531869696453,-23.255152285999575,20.334040852748444,3,5,0.0,207,34797377870842,24,25.4,380.95770263671875,0.6222999691963196,0,0.0,0.0,,,,,0,,3,,
Raw,7101627,7105448000000,,,-1291005709998544896,0.0,119.63531869696453,-23.255152285999575,20.334040852748444,3,7,0.0,207,34797368992426,193,15.6,-735.5767822265625,7.468500137329102,0,0.0,0.0,,,,,0,,3,,
Raw,7101627,7105448000000,,,-1291005709998544896,0.0,119.63531869696453,-23.255152285999575,20.334040852748444,3,10,0.0,15,369615377937157,53,19.0,310.05499267578125,1.037000060081482,0,0.0,0.0,,,,,0,,1,,
Raw,7101628,7105448000000,,,-1291005709998544896,0.0,119.63531869696453,-23.255152285999575,20.334040852748444,3,12,0.0,15,369615368615594,510,10.8,584.9913330078125,13.128500938415527,0,0.0,0.0,,,,,0,,1,,
Raw,7101628,7105448000000,,,-1291005709998544896,0.0,119.63531869696453,-23.255152285999575,20.334040852748444,3,21,0.0,15,369615359064164,24,25.4,34.930999755859375,0.4253000020980835,0,0.0,0.0,,,,,0,,1,,
Raw,7101629,7105448000000,,,-1291005709998544896,0.0,119.63531869696453,-23.255152285999575,20.334040852748444,3,23,0.0,15,369615372020387,1302,14.6,616.2755737304688,9.174500465393066,0,0.0,0.0,,,,,0,,1,,
Raw,7101630,7105448000000,,,-1291005709998544896,0.0,119.63531869696453,-23.255152285999575,20.334040852748444,3,25,0.0,15,369615377702501,24,25.5,231.09393310546875,0.4072999954223633,0,0.0,0.0,,,,,0,,1,,
Raw,7101630,7105448000000,,,-1291005709998544896,0.0,119.63531869696453,-23.255152285999575,20.334040852748444,3,26,0.0,15,369615369125990,10,34.2,-675.6092529296875,0.20000000298023224,0,0.0,0.0,,,,,0,,1,,
Raw,7101631,7105448000000,,,-1291005709998544896,0.0,119.63531869696453,-23.255152285999575,20.334040852748444,3,31,0.0,15,369615374781971,21,26.6,-152.11526489257812,0.20000000298023224,0,0.0,0.0,,,,,0,,1,,
Raw,7101631,7105448000000,,,-1291005709998544896,0.0,119.63531869696453,-23.255152285999575,20.334040852748444,3,32,0.0,15,369615375878309,19,27.9,-279.27325439453125,0.20000000298023224,0,0.0,0.0,,,,,0,,1,,
Raw,7101632,7105448000000,,,-1291005709998544896,0.0,119.63531869696453,-23.255152285999575,20.334040852748444,3,1,0.0,783,369601322567317,93,21.4,-8.3441162109375,5.253499984741211,0,0.0,0.0,,,,,0,,5,,
Raw,7101633,7105448000000,,,-1291005709998544896,0.0,119.63531869696453,-23.255152285999575,20.334040852748444,3,2,0.0,783,369601321630018,35,26.6,-2.006812572479248,2.745000123977661,0,0.0,0.0,,,,,0,,5,,
Raw,7101633,7105448000000,,,-1291005709998544896,0.0,119.63531869696453,-23.255152285999575,20.334040852748444,3,5,0.0,783,369601313491176,16,29.0,-3.1782538890838623,0.3850000202655792,0,0.0,0.0,,,,,0,,5,,
Raw,7101634,7105448000000,,,-1291005709998544896,0.0,119.63531869696453,-23.255152285999575,20.334040852748444,3,7,0.0,15,369601323540179,145,13.9,-176.70513916015625,3.9160001277923584,0,0.0,0.0,,,,,0,,5,,
Raw,7101635,7105448000000,,,-1291005709998544896,0.0,119.63531869696453,-23.255152285999575,20.334040852748444,3,8,0.0,15,369601312601320,35,22.1,323.0488586425781,0.684499979019165,0,0.0,0.0,,,,,0,,5,,
Raw,7101635,7105448000000,,,-1291005709998544896,0.0,119.63531869696453,-23.255152285999575,20.334040852748444,3,10,0.0,15,369601318741638,46,20.8,-216.4573211669922,0.7684999704360962,0,0.0,0.0,,,,,0,,5,,
Raw,7101636,7105448000000,,,-1291005709998544896,0.0,119.63531869696453,-23.255152285999575,20.334040852748444,3,13,0.0,15,369601316128962,16,29.1,346.47216796875,0.20000000298023224,0,0.0,0.0,,,,,0,,5,,
Raw,7101636,7105448000000,,,-1291005709998544896,0.0,119.63531869696453,-23.255152285999575,20.334040852748444,3,21,0.0,15,369601368821760,1028,17.5,-426.02044677734375,21.258501052856445,0,0.0,0.0,,,,,0,,5,,
Raw,7101637,7105448000000,,,-1291005709998544896,0.0,119.63531869696453,-23.255152285999575,20.334040852748444,3,22,0.0,15,369601373572943,1030,13.6,113.33210754394531,20.891000747680664,0,0.0,0.0,,,,,0,,5,,
Raw,7101638,7105448000000,,,-1291005709998544896,0.0,119.63531869696453,-23.255152285999575,20.334040852748444,3,26,0.0,15,369601365499656,9,35.2,-388.16998291015625,0.20000000298023224,0,0.0,0.0,,,,,0,,5,,
Raw,7101639,7105448000000,,,-1291005709998544896,0.0,119.63531869696453,-23.255152285999575,20.334040852748444,3,5,0.0,7183,369615355531673,209,16.3,-437.856201171875,8.098999977111816,0,0.0,0.0,,,,,0,,6,,
Fix,gps,22.925507,120.294765,34.224854,0.000000,11.792000,1606977598000
NMEA,$GPGSV,3,2,10,25,59,059,26,26,22,206,34,31,43,284,27,32,53,354,28*7C,1606977597397
NMEA,$GPGSV,3,3,10,20,29,168,,29,13,125,*71,1606977597397
NMEA,$GLGSV,2,1,07,74,07,222,20,70,60,357,13,73,52,247,17,80,57,358,16*60,1606977597397
NMEA,$GLGSV,2,2,07,69,45,122,25,71,13,330,16,79,07,029,*5B,1606977597397
NMEA,$GAGSV,1,1,02,05,15,316,16,36,02,248,*61,1606977597398
NMEA,$PQGSV,1,1,03,193,66,125,16,194,71,063,18,195,18,150,,0,5*65,1606977597400
NMEA,$PQGSV,4,1,16,01,51,129,21,02,41,241,27,05,17,257,29,07,58,178,14,0,4*69,1606977597400
NMEA,$PQGSV,4,2,16,08,14,196,22,10,34,199,21,13,22,219,29,21,43,322,18,0,4*60,1606977597401
NMEA,$PQGSV,4,3,16,22,78,136,14,26,24,243,35,03,59,202,,04,37,115,,0,4*6E,1606977597401
NMEA,$PQGSV,4,4,16,06,56,012,,09,44,329,,19,23,140,,29,02,130,,0,4*6C,1606977597402
NMEA,$GNGSA,A,3,10,23,26,31,,,,,,,,,2.3,2.1,1.0,1*34,1606977597403
NMEA,$GNGSA,A,2,73,74,,,,,,,,,,,2.3,2.1,1.0,2*37,1606977597403
NMEA,$PQGSA,A,2,13,26,,,,,,,,,,,2.3,2.1,1.0,4*38,1606977597403
NMEA,$GNVTG,,T,,M,0.0,N,0.0,K,A*3D,1606977597403
NMEA,$GNRMC,063958.00,A,2255.530412,N,12017.685919,E,0.0,,031220,2.8,W,A*10,1606977597403
NMEA,$GNGGA,063958.00,2255.530412,N,12017.685919,E,1,08,2.1,16.8,M,17.5,M,,*4A,1606977597403
NMEA,$GPGSV,3,1,10,10,63,194,17,12,21,040,11,21,00,000,25,23,35,164,14*75,1606977598397
Raw,7102907,7106448000000,,,-1291005709998544896,0.0,120.95239799236879,-25.013343470441004,20.34942790650967,3,10,0.0,207,34798367121723,46,20.5,-650.9913330078125,1.056999921798706,0,0.0,0.0,,,,,0,,3,,
Raw,7102907,7106448000000,,,-1291005709998544896,0.0,120.95239799236879,-25.013343470441004,20.34942790650967,3,6,0.0,207,34798381010649,83,16.6,-385.8276062011719,2.013000011444092,0,0.0,0.0,,,,,0,,3,,
Raw,7102908,7106448000000,,,-1291005709998544896,0.0,120.95239799236879,-25.013343470441004,20.34942790650967,3,9,0.0,207,34798379353083,129,17.1,-247.82093811035156,5.805000305175781,0,0.0,0.0,,,,,0,,3,,
Raw,7102909,7106448000000,,,-1291005709998544896,0.0,120.95239799236879,-25.013343470441004,20.34942790650967,3,16,0.0,207,34798380259044,1140,15.7,409.3267517089844,8.956500053405762,0,0.0,0.0,,,,,0,,3,,
Raw,7102909,7106448000000,,,-1291005709998544896,0.0,120.95239799236879,-25.013343470441004,20.34942790650967,3,5,0.0,207,34798377869615,27,24.3,381.2874755859375,0.8569999933242798,0,0.0,0.0,,,,,0,,3,,
Raw,7102910,7106448000000,,,-1291005709998544896,0.0,120.95239799236879,-25.013343470441004,20.34942790650967,3,7,0.0,207,34798368994879,243,15.6,-735.5767822265625,8.968500137329102,0,0.0,0.0,,,,,0,,3,,
Raw,7102911,7106448000000,,,-1291005709998544896,0.0,120.95239799236879,-25.013343470441004,20.34942790650967,3,10,0.0,15,369616377936039,70,17.3,311.24432373046875,1.2070000171661377,0,0.0,0.0,,,,,0,,1,,
Raw,7102911,7106448000000,,,-1291005709998544896,0.0,120.95239799236879,-25.013343470441004,20.34942790650967,3,12,0.0,15,369616368613643,597,10.8,584.9913330078125,14.628500938415527,0,0.0,0.0,,,,,0,,1,,
Raw,7102912,7106448000000,,,-1291005709998544896,0.0,120.95239799236879,-25.013343470441004,20.34942790650967,3,21,0.0,15,369616359063996,27,24.9,35.480255126953125,0.6600000262260437,0,0.0,0.0,,,,,0,,1,,
Raw,7102912,7106448000000,,,-1291005709998544896,0.0,120.95239799236879,-25.013343470441004,20.34942790650967,3,23,0.0,15,369616372018346,1508,13.9,616.3516845703125,10.044500350952148,0,0.0,0.0,,,,,0,,1,,
Raw,7102913,7106448000000,,,-1291005709998544896,0.0,120.95239799236879,-25.013343470441004,20.34942790650967,3,25,0.0,15,369616377701672,21,26.1,231.71617126464844,0.20000000298023224,0,0.0,0.0,,,,,0,,1,,
Raw,7102914,7106448000000,,,-1291005709998544896,0.0,120.95239799236879,-25.013343470441004,20.34942790650967,3,26,0.0,15,369616369128240,11,33.8,-675.0682983398438,0.20000000298023224,0,0.0,0.0,,,,,0,,1,,
Raw,7102914,7106448000000,,,-1291005709998544896,0.0,120.95239799236879,-25.013343470441004,20.34942790650967,3,31,0.0,15,369616374782461,21,26.3,-151.54432678222656,0.20000000298023224,0,0.0,0.0,,,,,0,,1,,
Raw,7102915,7106448000000,,,-1291005709998544896,0.0,120.95239799236879,-25.013343470441004,20.34942790650967,3,32,0.0,15,369616375879231,19,27.5,-278.7076110839844,0.20000000298023224,0,0.0,0.0,,,,,0,,1,,
Raw,7102916,7106448000000,,,-1291005709998544896,0.0,120.95239799236879,-25.013343470441004,20.34942790650967,3,1,0.0,783,369602322567372,48,21.3,-6.6349639892578125,2.253499984741211,0,0.0,0.0,,,,,0,,5,,
Raw,7102916,7106448000000,,,-1291005709998544896,0.0,120.95239799236879,-25.013343470441004,20.34942790650967,3,2,0.0,783,369602321630045,23,26.4,-6.4237213134765625,1.2450000047683716,0,0.0,0.0,,,,,0,,5,,
Raw,7102917,7106448000000,,,-1291005709998544896,0.0,120.95239799236879,-25.013343470441004,20.34942790650967,3,5,0.0,783,369602313491187,17,28.6,0.46089479327201843,0.4150000214576721,0,0.0,0.0,,,,,0,,5,,
Raw,7102917,7106448000000,,,-1291005709998544896,0.0,120.95239799236879,-25.013343470441004,20.34942790650967,3,7,0.0,15,369602323540768,172,13.9,-176.70513916015625,5.4160003662109375,0,0.0,0.0,,,,,0,,5,,
Raw,7102918,7106448000000,,,-1291005709998544896,0.0,120.95239799236879,-25.013343470441004,20.34942790650967,3,8,0.0,15,369602312600207,35,22.0,324.13385009765625,0.684499979019165,0,0.0,0.0,,,,,0,,5,,
Raw,7102919,7106448000000,,,-1291005709998544896,0.0,120.95239799236879,-25.013343470441004,20.34942790650967,3,10,0.0,15,369602318742377,46,20.9,-215.95802307128906,0.7684999704360962,0,0.0,0.0,,,,,0,,5,,
Raw,7102919,7106448000000,,,-1291005709998544896,0.0,120.95239799236879,-25.013343470441004,20.34942790650967,3,13,0.0,15,369602316127820,16,29.8,346.9838562011719,0.20000000298023224,0,0.0,0.0,,,,,0,,5,,
Raw,7102920,7106448000000,,,-1291005709998544896,0.0,120.95239799236879,-25.013343470441004,20.34942790650967,3,21,0.0,15,369602368823181,1172,17.5,-426.02044677734375,22.758501052856445,0,0.0,0.0,,,,,0,,5,,
Raw,7102921,7106448000000,,,-1291005709998544896,0.0,120.95239799236879,-25.013343470441004,20.34942790650967,3,22,0.0,15,369602373572565,1170,13.6,113.33210754394531,22.391000747680664,0,0.0,0.0,,,,,0,,5,,
Raw,7102921,7106448000000,,,-1291005709998544896,0.0,120.95239799236879,-25.013343470441004,20.34942790650967,3,26,0.0,15,369602365500950,10,34.9,-387.6084289550781,0.20000000298023224,0,0.0,0.0,,,,,0,,5,,
Raw,7102922,7106448000000,,,-1291005709998544896,0.0,120.95239799236879,-25.013343470441004,20.34942790650967,3,5,0.0,7183,369616355533193,151,13.7,-443.0417175292969,4.279000282287598,0,0.0,0.0,,,,,0,,6,,
Fix,gps,22.925507,120.294765,34.219604,0.000000,11.792000,1606977599000
NMEA,$GPGSV,3,2,10,25,59,059,26,26,22,206,34,31,43,284,26,32,53,354,28*7D,1606977598397
NMEA,$GPGSV,3,3,10,20,29,168,,29,13,125,*71,1606977598398
NMEA,$GLGSV,2,1,07,74,07,222,21,70,60,357,17,73,52,247,17,80,57,358,16*65,1606977598398
NMEA,$GLGSV,2,2,07,69,45,122,24,71,13,330,16,79,07,029,*5A,1606977598399
NMEA,$GAGSV,1,1,02,05,15,316,14,36,02,248,*63,1606977598400
NMEA,$PQGSV,1,1,03,193,66,125,16,194,71,063,19,195,18,150,,0,5*64,1606977598401
NMEA,$PQGSV,4,1,16,01,51,129,21,02,41,241,26,05,17,257,29,07,58,178,14,0,4*68,1606977598403
NMEA,$PQGSV,4,2,16,08,14,196,22,10,34,199,21,13,22,219,30,21,43,322,18,0,4*68,1606977598403
NMEA,$PQGSV,4,3,16,22,78,136,14,26,24,243,35,03,59,202,,04,37,115,,0,4*6E,1606977598403
NMEA,$PQGSV,4,4,16,06,56,012,,09,44,329,,19,23,140,,29,02,130,,0,4*6C,1606977598403
NMEA,$GNGSA,A,3,10,23,26,31,,,,,,,,,2.0,1.8,0.9,1*35,1606977598404
NMEA,$GNGSA,A,2,73,74,,,,,,,,,,,2.0,1.8,0.9,2*36,1606977598405
NMEA,$PQGSA,A,2,13,26,,,,,,,,,,,2.0,1.8,0.9,4*39,1606977598405
NMEA,$GNVTG,,T,,M,0.0,N,0.0,K,A*3D,1606977598405
NMEA,$GNRMC,063959.00,A,2255.530412,N,12017.685918,E,0.0,,031220,2.8,W,A*10,1606977598405
NMEA,$GNGGA,063959.00,2255.530412,N,12017.685918,E,1,08,1.8,16.8,M,17.5,M,,*40,1606977598405
Fix,gps,22.925507,120.294765,34.215027,0.000000,11.792000,1606977600000
Raw,7103639,7107448000000,,,-1291005709998544896,0.0,117.12836567312479,-23.695719231861588,20.282600630948576,3,10,0.0,207,34799367123917,35,22.9,-649.8750610351562,0.9369999766349792,0,0.0,0.0,,,,,0,,3,,
Raw,7103639,7107448000000,,,-1291005709998544896,0.0,117.12836567312479,-23.695719231861588,20.282600630948576,3,6,0.0,207,34799381011936,97,16.6,-385.8276062011719,3.513000011444092,0,0.0,0.0,,,,,0,,3,,
Raw,7103639,7107448000000,,,-1291005709998544896,0.0,117.12836567312479,-23.695719231861588,20.282600630948576,3,9,0.0,207,34799379353909,168,17.1,-247.82093811035156,7.305000305175781,0,0.0,0.0,,,,,0,,3,,
Raw,7103639,7107448000000,,,-1291005709998544896,0.0,117.12836567312479,-23.695719231861588,20.282600630948576,3,16,0.0,207,34799380257690,1169,15.7,409.0927429199219,9.706500053405762,0,0.0,0.0,,,,,0,,3,,
Raw,7103640,7107448000000,,,-1291005709998544896,0.0,117.12836567312479,-23.695719231861588,20.282600630948576,3,5,0.0,207,34799377868337,27,24.7,381.7644958496094,0.8569999933242798,0,0.0,0.0,,,,,0,,3,,
Raw,7103640,7107448000000,,,-1291005709998544896,0.0,117.12836567312479,-23.695719231861588,20.282600630948576,3,7,0.0,207,34799368997333,303,15.6,-735.5767822265625,10.468500137329102,0,0.0,0.0,,,,,0,,3,,
Raw,7103640,7107448000000,,,-1291005709998544896,0.0,117.12836567312479,-23.695719231861588,20.282600630948576,3,10,0.0,15,369617377935021,46,20.1,311.7200622558594,0.9569999575614929,0,0.0,0.0,,,,,0,,1,,
Raw,7103640,7107448000000,,,-1291005709998544896,0.0,117.12836567312479,-23.695719231861588,20.282600630948576,3,12,0.0,15,369617368611691,693,10.8,584.9913330078125,16.12849998474121,0,0.0,0.0,,,,,0,,1,,
Raw,7103641,7107448000000,,,-1291005709998544896,0.0,117.12836567312479,-23.695719231861588,20.282600630948576,3,21,0.0,15,369617359063893,31,23.6,35.689579010009766,0.7099999785423279,0,0.0,0.0,,,,,0,,1,,
Raw,7103641,7107448000000,,,-1291005709998544896,0.0,117.12836567312479,-23.695719231861588,20.282600630948576,3,23,0.0,15,369617372016296,363,13.7,616.2660522460938,11.169500350952148,0,0.0,0.0,,,,,0,,1,,
Raw,7103641,7107448000000,,,-1291005709998544896,0.0,117.12836567312479,-23.695719231861588,20.282600630948576,3,25,0.0,15,369617377700918,24,25.4,232.29747009277344,0.4072999954223633,0,0.0,0.0,,,,,0,,1,,
Raw,7103641,7107448000000,,,-1291005709998544896,0.0,117.12836567312479,-23.695719231861588,20.282600630948576,3,26,0.0,15,369617369130509,11,33.3,-674.5900268554688,0.20000000298023224,0,0.0,0.0,,,,,0,,1,,
Raw,7103641,7107448000000,,,-1291005709998544896,0.0,117.12836567312479,-23.695719231861588,20.282600630948576,3,31,0.0,15,369617374782975,24,25.8,-151.02267456054688,0.4027999937534332,0,0.0,0.0,,,,,0,,1,,
Raw,7103642,7107448000000,,,-1291005709998544896,0.0,117.12836567312479,-23.695719231861588,20.282600630948576,3,32,0.0,15,369617375880206,21,26.3,-278.25848388671875,0.20000000298023224,0,0.0,0.0,,,,,0,,1,,
Raw,7103642,7107448000000,,,-1291005709998544896,0.0,117.12836567312479,-23.695719231861588,20.282600630948576,3,1,0.0,783,369603322567394,65,21.3,-6.6349639892578125,3.75350022315979,0,0.0,0.0,,,,,0,,5,,
Raw,7103642,7107448000000,,,-1291005709998544896,0.0,117.12836567312479,-23.695719231861588,20.282600630948576,3,2,0.0,783,369603321630066,35,26.4,-6.4237213134765625,2.745000123977661,0,0.0,0.0,,,,,0,,5,,
Raw,7103642,7107448000000,,,-1291005709998544896,0.0,117.12836567312479,-23.695719231861588,20.282600630948576,3,5,0.0,783,369603313491192,19,27.4,2.4196977615356445,0.45500001311302185,0,0.0,0.0,,,,,0,,5,,
Raw,7103643,7107448000000,,,-1291005709998544896,0.0,117.12836567312479,-23.695719231861588,20.282600630948576,3,7,0.0,15,369603323541358,209,13.9,-176.70513916015625,6.9160003662109375,0,0.0,0.0,,,,,0,,5,,
Raw,7103643,7107448000000,,,-1291005709998544896,0.0,117.12836567312479,-23.695719231861588,20.282600630948576,3,8,0.0,15,369603312599108,40,21.5,323.91302490234375,0.7444999814033508,0,0.0,0.0,,,,,0,,5,,
Raw,7103643,7107448000000,,,-1291005709998544896,0.0,117.12836567312479,-23.695719231861588,20.282600630948576,3,10,0.0,15,369603318743070,53,19.0,-214.64254760742188,0.8884999752044678,0,0.0,0.0,,,,,0,,5,,
Raw,7103643,7107448000000,,,-1291005709998544896,0.0,117.12836567312479,-23.695719231861588,20.282600630948576,3,13,0.0,15,369603316126645,16,29.7,347.4104919433594,0.20000000298023224,0,0.0,0.0,,,,,0,,5,,
Raw,7103643,7107448000000,,,-1291005709998544896,0.0,117.12836567312479,-23.695719231861588,20.282600630948576,3,21,0.0,15,369603368824602,1326,17.5,-426.02044677734375,24.258501052856445,0,0.0,0.0,,,,,0,,5,,
Raw,7103644,7107448000000,,,-1291005709998544896,0.0,117.12836567312479,-23.695719231861588,20.282600630948576,3,22,0.0,15,369603373572187,1320,13.6,113.33210754394531,23.891000747680664,0,0.0,0.0,,,,,0,,5,,
Raw,7103644,7107448000000,,,-1291005709998544896,0.0,117.12836567312479,-23.695719231861588,20.282600630948576,3,26,0.0,15,369603365502238,9,35.1,-387.114013671875,0.20000000298023224,0,0.0,0.0,,,,,0,,5,,
Raw,7103644,7107448000000,,,-1291005709998544896,0.0,117.12836567312479,-23.695719231861588,20.282600630948576,3,5,0.0,7183,369617355534670,180,13.7,-443.0417175292969,5.779000282287598,0,0.0,0.0,,,,,0,,6,,
NMEA,$GPGSV,3,1,10,10,63,194,20,12,21,040,11,21,00,000,24,23,35,164,14*70,1606977599396
NMEA,$GPGSV,3,2,10,25,59,059,25,26,22,206,33,31,43,284,26,32,53,354,26*77,1606977599396
NMEA,$GPGSV,3,3,10,20,29,168,,29,13,125,*71,1606977599396
NMEA,$GLGSV,2,1,07,74,07,222,23,70,60,357,17,73,52,247,17,80,57,358,16*67,1606977599396
NMEA,$GLGSV,2,2,07,69,45,122,25,71,13,330,16,79,07,029,*5B,1606977599396
NMEA,$GAGSV,1,1,02,05,15,316,14,36,02,248,*63,1606977599396
NMEA,$PQGSV,1,1,03,193,66,125,16,194,71,063,19,195,18,150,,0,5*64,1606977599396
NMEA,$PQGSV,4,1,16,01,51,129,21,02,41,241,26,05,17,257,27,07,58,178,14,0,4*66,1606977599396
NMEA,$PQGSV,4,2,16,08,14,196,22,10,34,199,19,13,22,219,30,21,43,322,18,0,4*63,1606977599397
NMEA,$PQGSV,4,3,16,22,78,136,14,26,24,243,35,03,59,202,,04,37,115,,0,4*6E,1606977599397
NMEA,$PQGSV,4,4,16,06,56,012,,09,44,329,,19,23,140,,29,02,130,,0,4*6C,1606977599397
NMEA,$GNGSA,A,3,10,23,26,31,,,,,,,,,2.0,1.8,0.9,1*35,1606977599397
NMEA,$GNGSA,A,2,73,74,,,,,,,,,,,2.0,1.8,0.9,2*36,1606977599397
NMEA,$GNGSA,A,2,05,,,,,,,,,,,,2.0,1.8,0.9,3*35,1606977599397
NMEA,$PQGSA,A,2,13,26,,,,,,,,,,,2.0,1.8,0.9,4*39,1606977599398
NMEA,$GNVTG,,T,,M,0.0,N,0.0,K,A*3D,1606977599398
NMEA,$GNRMC,064000.00,A,2255.530412,N,12017.685919,E,0.0,,031220,2.8,W,A*13,1606977599398
NMEA,$GNGGA,064000.00,2255.530412,N,12017.685919,E,1,09,1.8,16.7,M,17.5,M,,*4D,1606977599398
Fix,gps,22.925507,120.294765,34.224854,0.000000,11.792000,1606977601000
Raw,7104659,7108448000000,,,-1291005709998544896,0.0,113.95505862310529,-22.2877879071336,20.651754723826127,3,10,0.0,207,34800367125933,35,22.9,-649.3123168945312,0.9369999766349792,0,0.0,0.0,,,,,0,,3,,
Raw,7104660,7108448000000,,,-1291005709998544896,0.0,113.95505862310529,-22.2877879071336,20.651754723826127,3,6,0.0,207,34800381013223,121,16.6,-385.8276062011719,5.013000011444092,0,0.0,0.0,,,,,0,,3,,
Raw,7104661,7108448000000,,,-1291005709998544896,0.0,113.95505862310529,-22.2877879071336,20.651754723826127,3,9,0.0,207,34800379354736,218,17.1,-247.82093811035156,8.805000305175781,0,0.0,0.0,,,,,0,,3,,
Raw,7104661,7108448000000,,,-1291005709998544896,0.0,113.95505862310529,-22.2877879071336,20.651754723826127,3,16,0.0,207,34800380256559,46,20.0,409.3454895019531,1.2235000133514404,0,0.0,0.0,,,,,0,,3,,
Raw,7104662,7108448000000,,,-1291005709998544896,0.0,113.95505862310529,-22.2877879071336,20.651754723826127,3,5,0.0,207,34800377867117,27,24.1,383.3919982910156,0.8420000076293945,0,0.0,0.0,,,,,0,,3,,
Raw,7104662,7108448000000,,,-1291005709998544896,0.0,113.95505862310529,-22.2877879071336,20.651754723826127,3,7,0.0,207,34800368999787,373,15.6,-735.5767822265625,11.968500137329102,0,0.0,0.0,,,,,0,,3,,
Raw,7104663,7108448000000,,,-1291005709998544896,0.0,113.95505862310529,-22.2877879071336,20.651754723826127,3,10,0.0,15,369618377933982,40,21.9,312.5002746582031,0.8119999766349792,0,0.0,0.0,,,,,0,,1,,
Raw,7104664,7108448000000,,,-1291005709998544896,0.0,113.95505862310529,-22.2877879071336,20.651754723826127,3,12,0.0,15,369618368609740,799,10.8,584.9913330078125,17.62849998474121,0,0.0,0.0,,,,,0,,1,,
Raw,7104664,7108448000000,,,-1291005709998544896,0.0,113.95505862310529,-22.2877879071336,20.651754723826127,3,21,0.0,15,369618359063730,40,21.6,37.06920623779297,0.8149999976158142,0,0.0,0.0,,,,,0,,1,,
Raw,7104665,7108448000000,,,-1291005709998544896,0.0,113.95505862310529,-22.2877879071336,20.651754723826127,3,23,0.0,15,369618372014240,437,13.7,616.2660522460938,12.669500350952148,0,0.0,0.0,,,,,0,,1,,
Raw,7104665,7108448000000,,,-1291005709998544896,0.0,113.95505862310529,-22.2877879071336,20.651754723826127,3,25,0.0,15,369618377700109,24,25.2,233.48287963867188,0.4072999954223633,0,0.0,0.0,,,,,0,,1,,
Raw,7104666,7108448000000,,,-1291005709998544896,0.0,113.95505862310529,-22.2877879071336,20.651754723826127,3,26,0.0,15,369618369132739,11,33.5,-673.4910888671875,0.20000000298023224,0,0.0,0.0,,,,,0,,1,,
Raw,7104666,7108448000000,,,-1291005709998544896,0.0,113.95505862310529,-22.2877879071336,20.651754723826127,3,31,0.0,15,369618374783459,21,26.7,-149.91757202148438,0.20000000298023224,0,0.0,0.0,,,,,0,,1,,
Raw,7104666,7108448000000,,,-1291005709998544896,0.0,113.95505862310529,-22.2877879071336,20.651754723826127,3,32,0.0,15,369618375881171,24,25.4,-277.151123046875,0.4043000042438507,0,0.0,0.0,,,,,0,,1,,
Raw,7104667,7108448000000,,,-1291005709998544896,0.0,113.95505862310529,-22.2877879071336,20.651754723826127,3,1,0.0,783,369604322567416,93,21.3,-6.6349639892578125,5.253499984741211,0,0.0,0.0,,,,,0,,5,,
Raw,7104667,7108448000000,,,-1291005709998544896,0.0,113.95505862310529,-22.2877879071336,20.651754723826127,3,2,0.0,783,369604321630056,23,26.8,-0.4993027150630951,1.2050000429153442,0,0.0,0.0,,,,,0,,5,,
Raw,7104668,7108448000000,,,-1291005709998544896,0.0,113.95505862310529,-22.2877879071336,20.651754723826127,3,5,0.0,783,369604313491184,26,27.4,2.4196977615356445,1.9550000429153442,0,0.0,0.0,,,,,0,,5,,
Raw,7104668,7108448000000,,,-1291005709998544896,0.0,113.95505862310529,-22.2877879071336,20.651754723826127,3,7,0.0,15,369604323541941,101,15.5,-176.54190063476562,2.6710000038146973,0,0.0,0.0,,,,,0,,5,,
Raw,7104669,7108448000000,,,-1291005709998544896,0.0,113.95505862310529,-22.2877879071336,20.651754723826127,3,8,0.0,15,369604312598046,35,22.4,324.79638671875,0.684499979019165,0,0.0,0.0,,,,,0,,5,,
Raw,7104669,7108448000000,,,-1291005709998544896,0.0,113.95505862310529,-22.2877879071336,20.651754723826127,3,10,0.0,15,369604318743787,46,20.8,-214.5753173828125,0.7534999847412109,0,0.0,0.0,,,,,0,,5,,
Raw,7104670,7108448000000,,,-1291005709998544896,0.0,113.95505862310529,-22.2877879071336,20.651754723826127,3,13,0.0,15,369604316125494,16,29.9,348.478759765625,0.20000000298023224,0,0.0,0.0,,,,,0,,5,,
Raw,7104670,7108448000000,,,-1291005709998544896,0.0,113.95505862310529,-22.2877879071336,20.651754723826127,3,21,0.0,15,369604368826024,1489,17.5,-426.02044677734375,25.758501052856445,0,0.0,0.0,,,,,0,,5,,
Raw,7104671,7108448000000,,,-1291005709998544896,0.0,113.95505862310529,-22.2877879071336,20.651754723826127,3,22,0.0,15,369604373571809,1480,13.6,113.33210754394531,25.391000747680664,0,0.0,0.0,,,,,0,,5,,
Raw,7104671,7108448000000,,,-1291005709998544896,0.0,113.95505862310529,-22.2877879071336,20.651754723826127,3,26,0.0,15,369604365503523,10,34.9,-385.9983825683594,0.20000000298023224,0,0.0,0.0,,,,,0,,5,,
Raw,7104672,7108448000000,,,-1291005709998544896,0.0,113.95505862310529,-22.2877879071336,20.651754723826127,3,5,0.0,7183,369618355536148,219,13.7,-443.0417175292969,7.279000282287598,0,0.0,0.0,,,,,0,,6,,
NMEA,$GPGSV,3,1,10,10,63,194,22,12,21,040,11,21,00,000,22,23,35,164,14*74,1606977600421
NMEA,$GPGSV,3,2,10,25,59,059,25,26,22,206,34,31,43,284,27,32,53,354,25*72,1606977600422
NMEA,$GPGSV,3,3,10,20,29,168,,29,13,125,*71,1606977600423
NMEA,$GLGSV,2,1,07,74,07,222,23,70,60,357,17,73,52,247,17,80,57,358,20*62,1606977600429
NMEA,$GLGSV,2,2,07,69,45,122,24,71,13,330,16,79,07,029,*5A,1606977600430
NMEA,$GAGSV,1,1,02,05,15,316,14,36,02,248,*63,1606977600433
NMEA,$PQGSV,1,1,03,193,66,125,16,194,71,063,19,195,18,150,,0,5*64,1606977600436
NMEA,$PQGSV,4,1,16,01,51,129,21,02,41,241,27,05,17,257,27,07,58,178,16,0,4*65,1606977600437
NMEA,$PQGSV,4,2,16,08,14,196,22,10,34,199,21,13,22,219,30,21,43,322,18,0,4*68,1606977600437
NMEA,$PQGSV,4,3,16,22,78,136,14,26,24,243,35,03,59,202,,04,37,115,,0,4*6E,1606977600437
NMEA,$PQGSV,4,4,16,06,56,012,,09,44,329,,19,23,140,,29,02,130,,0,4*6C,1606977600437
NMEA,$GNGSA,A,3,10,23,26,31,,,,,,,,,2.0,1.8,0.9,1*35,1606977600438
NMEA,$GNGSA,A,2,73,74,,,,,,,,,,,2.0,1.8,0.9,2*36,1606977600438
NMEA,$GNGSA,A,2,05,,,,,,,,,,,,2.0,1.8,0.9,3*35,1606977600439
NMEA,$PQGSA,A,2,13,26,,,,,,,,,,,2.0,1.8,0.9,4*39,1606977600439
NMEA,$GNVTG,,T,,M,0.0,N,0.0,K,A*3D,1606977600439
NMEA,$GNRMC,064001.00,A,2255.530413,N,12017.685918,E,0.0,,031220,2.8,W,A*12,1606977600439
NMEA,$GNGGA,064001.00,2255.530413,N,12017.685918,E,1,09,1.8,16.8,M,17.5,M,,*43,1606977600439
NMEA,$GPGSV,3,1,10,10,63,194,20,12,21,040,11,21,00,000,21,23,35,164,14*75,1606977601395
Raw,7105591,7109448000000,,,-1291005709998544896,0.0,120.19986752420664,-19.13963710774794,19.38157681703268,3,10,0.0,207,34801367128196,35,22.3,-649.9032592773438,0.9369999766349792,0,0.0,0.0,,,,,0,,3,,
Raw,7105591,7109448000000,,,-1291005709998544896,0.0,120.19986752420664,-19.13963710774794,19.38157681703268,3,6,0.0,207,34801381014510,155,16.6,-385.8276062011719,6.51300048828125,0,0.0,0.0,,,,,0,,3,,
Raw,7105591,7109448000000,,,-1291005709998544896,0.0,120.19986752420664,-19.13963710774794,19.38157681703268,3,9,0.0,207,34801379355562,277,17.1,-247.82093811035156,10.305000305175781,0,0.0,0.0,,,,,0,,3,,
Raw,7105592,7109448000000,,,-1291005709998544896,0.0,120.19986752420664,-19.13963710774794,19.38157681703268,3,16,0.0,207,34801380255193,53,20.0,409.3454895019531,2.3364999294281006,0,0.0,0.0,,,,,0,,3,,
Raw,7105592,7109448000000,,,-1291005709998544896,0.0,120.19986752420664,-19.13963710774794,19.38157681703268,3,5,0.0,207,34801377865800,24,25.1,383.5741882324219,0.6072999835014343,0,0.0,0.0,,,,,0,,3,,
Raw,7105592,7109448000000,,,-1291005709998544896,0.0,120.19986752420664,-19.13963710774794,19.38157681703268,3,7,0.0,207,34801369002240,453,15.6,-735.5767822265625,13.468501091003418,0,0.0,0.0,,,,,0,,3,,
Raw,7105592,7109448000000,,,-1291005709998544896,0.0,120.19986752420664,-19.13963710774794,19.38157681703268,3,10,0.0,15,369619377932945,46,20.4,312.0435791015625,0.9419999718666077,0,0.0,0.0,,,,,0,,1,,
Raw,7105593,7109448000000,,,-1291005709998544896,0.0,120.19986752420664,-19.13963710774794,19.38157681703268,3,12,0.0,15,369619368607789,916,10.8,584.9913330078125,19.12849998474121,0,0.0,0.0,,,,,0,,1,,
Raw,7105593,7109448000000,,,-1291005709998544896,0.0,120.19986752420664,-19.13963710774794,19.38157681703268,3,21,0.0,15,369619359063582,40,21.2,37.30707550048828,0.875,0,0.0,0.0,,,,,0,,1,,
Raw,7105593,7109448000000,,,-1291005709998544896,0.0,120.19986752420664,-19.13963710774794,19.38157681703268,3,23,0.0,15,369619372012184,522,13.7,616.2660522460938,14.169500350952148,0,0.0,0.0,,,,,0,,1,,
Raw,7105593,7109448000000,,,-1291005709998544896,0.0,120.19986752420664,-19.13963710774794,19.38157681703268,3,25,0.0,15,369619377699337,27,24.9,233.5664520263672,0.6420000195503235,0,0.0,0.0,,,,,0,,1,,
Raw,7105593,7109448000000,,,-1291005709998544896,0.0,120.19986752420664,-19.13963710774794,19.38157681703268,3,26,0.0,15,369619369134986,11,33.8,-673.3411254882812,0.20000000298023224,0,0.0,0.0,,,,,0,,1,,
Raw,7105594,7109448000000,,,-1291005709998544896,0.0,120.19986752420664,-19.13963710774794,19.38157681703268,3,31,0.0,15,369619374783983,19,27.5,-149.78627014160156,0.20000000298023224,0,0.0,0.0,,,,,0,,1,,
Raw,7105594,7109448000000,,,-1291005709998544896,0.0,120.19986752420664,-19.13963710774794,19.38157681703268,3,32,0.0,15,369619375882058,24,25.8,-277.0447082519531,0.4043000042438507,0,0.0,0.0,,,,,0,,1,,
Raw,7105595,7109448000000,,,-1291005709998544896,0.0,120.19986752420664,-19.13963710774794,19.38157681703268,3,1,0.0,783,369605322567420,42,22.9,-2.8613884449005127,2.1585001945495605,0,0.0,0.0,,,,,0,,5,,
Raw,7105596,7109448000000,,,-1291005709998544896,0.0,120.19986752420664,-19.13963710774794,19.38157681703268,3,2,0.0,783,369605321630058,35,26.8,-0.4993027150630951,2.705000162124634,0,0.0,0.0,,,,,0,,5,,
Raw,7105596,7109448000000,,,-1291005709998544896,0.0,120.19986752420664,-19.13963710774794,19.38157681703268,3,5,0.0,783,369605313491205,23,26.8,-1.3058686256408691,1.2050000429153442,0,0.0,0.0,,,,,0,,5,,
Raw,7105596,7109448000000,,,-1291005709998544896,0.0,120.19986752420664,-19.13963710774794,19.38157681703268,3,7,0.0,15,369605323542530,120,15.5,-176.54190063476562,4.171000003814697,0,0.0,0.0,,,,,0,,5,,
Raw,7105596,7109448000000,,,-1291005709998544896,0.0,120.19986752420664,-19.13963710774794,19.38157681703268,3,8,0.0,15,369605312596917,40,21.7,325.6797790527344,0.7444999814033508,0,0.0,0.0,,,,,0,,5,,
Raw,7105597,7109448000000,,,-1291005709998544896,0.0,120.19986752420664,-19.13963710774794,19.38157681703268,3,10,0.0,15,369605318744480,70,17.7,-214.37368774414062,1.0234999656677246,0,0.0,0.0,,,,,0,,5,,
Raw,7105597,7109448000000,,,-1291005709998544896,0.0,120.19986752420664,-19.13963710774794,19.38157681703268,3,13,0.0,15,369605316124329,16,29.3,348.5461120605469,0.20000000298023224,0,0.0,0.0,,,,,0,,5,,
Raw,7105597,7109448000000,,,-1291005709998544896,0.0,120.19986752420664,-19.13963710774794,19.38157681703268,3,21,0.0,15,369605368827445,1663,17.5,-426.02044677734375,27.258501052856445,0,0.0,0.0,,,,,0,,5,,
Raw,7105597,7109448000000,,,-1291005709998544896,0.0,120.19986752420664,-19.13963710774794,19.38157681703268,3,22,0.0,15,369605373571431,1650,13.6,113.33210754394531,26.891000747680664,0,0.0,0.0,,,,,0,,5,,
Raw,7105598,7109448000000,,,-1291005709998544896,0.0,120.19986752420664,-19.13963710774794,19.38157681703268,3,26,0.0,15,369605365504820,9,35.2,-385.84210205078125,0.20000000298023224,0,0.0,0.0,,,,,0,,5,,
Raw,7105598,7109448000000,,,-1291005709998544896,0.0,120.19986752420664,-19.13963710774794,19.38157681703268,3,5,0.0,7183,369619355537626,269,13.7,-443.0417175292969,8.779000282287598,0,0.0,0.0,,,,,0,,6,,
Fix,gps,22.925507,120.294765,34.222778,0.000000,11.792000,1606977602000
NMEA,$GPGSV,3,2,10,25,59,059,25,26,22,206,34,31,43,284,28,32,53,354,26*7E,1606977601395
NMEA,$GPGSV,3,3,10,20,29,168,,29,13,125,*71,1606977601396
NMEA,$GLGSV,2,1,07,74,07,222,22,70,60,357,17,73,52,247,17,80,57,358,20*63,1606977601396
NMEA,$GLGSV,2,2,07,69,45,122,25,71,13,330,16,79,07,029,*5B,1606977601397
NMEA,$GAGSV,1,1,02,05,15,316,14,36,02,248,*63,1606977601397
NMEA,$PQGSV,1,1,03,193,66,125,15,194,71,063,18,195,18,150,,0,5*66,1606977601398
NMEA,$PQGSV,4,1,16,01,51,129,23,02,41,241,27,05,17,257,27,07,58,178,16,0,4*67,1606977601398
NMEA,$PQGSV,4,2,16,08,14,196,22,10,34,199,18,13,22,219,29,21,43,322,18,0,4*6A,1606977601398
NMEA,$PQGSV,4,3,16,22,78,136,14,26,24,243,35,03,59,202,,04,37,115,,0,4*6E,1606977601398
NMEA,$PQGSV,4,4,16,06,56,012,,09,44,329,,19,23,140,,29,02,130,,0,4*6C,1606977601398
NMEA,$GNGSA,A,3,10,23,26,31,,,,,,,,,2.0,1.8,0.9,1*35,1606977601399
NMEA,$GNGSA,A,2,73,74,,,,,,,,,,,2.0,1.8,0.9,2*36,1606977601399
NMEA,$GNGSA,A,2,05,,,,,,,,,,,,2.0,1.8,0.9,3*35,1606977601399
NMEA,$PQGSA,A,2,13,26,,,,,,,,,,,2.0,1.8,0.9,4*39,1606977601399
NMEA,$GNVTG,,T,,M,0.0,N,0.0,K,A*3D,1606977601400
NMEA,$GNRMC,064002.00,A,2255.530414,N,12017.685917,E,0.0,,031220,2.8,W,A*19,1606977601400
NMEA,$GNGGA,064002.00,2255.530414,N,12017.685917,E,1,09,1.8,16.8,M,17.5,M,,*48,1606977601400
Fix,gps,22.925507,120.294765,34.220093,0.000000,11.792000,1606977603000
Raw,7106597,7110448000000,,,-1291005709998544896,0.0,120.1626582769677,-19.072152931917735,21.303600201036637,3,10,0.0,207,34802367130399,31,23.1,-648.8527221679688,0.8769999742507935,0,0.0,0.0,,,,,0,,3,,
Raw,7106598,7110448000000,,,-1291005709998544896,0.0,120.1626582769677,-19.072152931917735,21.303600201036637,3,6,0.0,207,34802381015797,199,16.6,-385.8276062011719,8.01300048828125,0,0.0,0.0,,,,,0,,3,,
Raw,7106598,7110448000000,,,-1291005709998544896,0.0,120.1626582769677,-19.072152931917735,21.303600201036637,3,9,0.0,207,34802379356389,347,17.1,-247.82093811035156,11.805000305175781,0,0.0,0.0,,,,,0,,3,,
Raw,7106599,7110448000000,,,-1291005709998544896,0.0,120.1626582769677,-19.072152931917735,21.303600201036637,3,16,0.0,207,34802380253744,110,14.9,409.7760314941406,2.306500196456909,0,0.0,0.0,,,,,0,,3,,
Raw,7106599,7110448000000,,,-1291005709998544896,0.0,120.1626582769677,-19.072152931917735,21.303600201036637,3,5,0.0,207,34802377864531,31,23.9,383.9532165527344,0.8919999599456787,0,0.0,0.0,,,,,0,,3,,
Raw,7106599,7110448000000,,,-1291005709998544896,0.0,120.1626582769677,-19.072152931917735,21.303600201036637,3,7,0.0,207,34802369004694,543,15.6,-735.5767822265625,14.968501091003418,0,0.0,0.0,,,,,0,,3,,
Raw,7106600,7110448000000,,,-1291005709998544896,0.0,120.1626582769677,-19.072152931917735,21.303600201036637,3,10,0.0,15,369620377931910,35,22.6,313.3565979003906,0.7519999742507935,0,0.0,0.0,,,,,0,,1,,
Raw,7106600,7110448000000,,,-1291005709998544896,0.0,120.1626582769677,-19.072152931917735,21.303600201036637,3,12,0.0,15,369620368605837,1042,10.8,584.9913330078125,20.62849998474121,0,0.0,0.0,,,,,0,,1,,
Raw,7106601,7110448000000,,,-1291005709998544896,0.0,120.1626582769677,-19.072152931917735,21.303600201036637,3,21,0.0,15,369620359063546,35,22.5,37.7447509765625,0.7549999952316284,0,0.0,0.0,,,,,0,,1,,
Raw,7106601,7110448000000,,,-1291005709998544896,0.0,120.1626582769677,-19.072152931917735,21.303600201036637,3,23,0.0,15,369620372010129,617,13.7,616.2660522460938,15.669500350952148,0,0.0,0.0,,,,,0,,1,,
Raw,7106602,7110448000000,,,-1291005709998544896,0.0,120.1626582769677,-19.072152931917735,21.303600201036637,3,25,0.0,15,369620377698650,31,23.7,234.2610321044922,0.6919999718666077,0,0.0,0.0,,,,,0,,1,,
Raw,7106602,7110448000000,,,-1291005709998544896,0.0,120.1626582769677,-19.072152931917735,21.303600201036637,3,26,0.0,15,369620369137248,11,33.6,-672.75244140625,0.20000000298023224,0,0.0,0.0,,,,,0,,1,,
Raw,7106603,7110448000000,,,-1291005709998544896,0.0,120.1626582769677,-19.072152931917735,21.303600201036637,3,31,0.0,15,369620374784505,19,27.5,-149.1693115234375,0.20000000298023224,0,0.0,0.0,,,,,0,,1,,
Raw,7106603,7110448000000,,,-1291005709998544896,0.0,120.1626582769677,-19.072152931917735,21.303600201036637,3,32,0.0,15,369620375882999,31,23.9,-275.7926330566406,0.6889999508857727,0,0.0,0.0,,,,,0,,1,,
Raw,7106603,7110448000000,,,-1291005709998544896,0.0,120.1626582769677,-19.072152931917735,21.303600201036637,3,1,0.0,783,369606322567429,60,22.9,-2.8613884449005127,3.6585001945495605,0,0.0,0.0,,,,,0,,5,,
Raw,7106604,7110448000000,,,-1291005709998544896,0.0,120.1626582769677,-19.072152931917735,21.303600201036637,3,2,0.0,783,369606321630089,23,26.3,-1.0178093910217285,1.2450000047683716,0,0.0,0.0,,,,,0,,5,,
Raw,7106604,7110448000000,,,-1291005709998544896,0.0,120.1626582769677,-19.072152931917735,21.303600201036637,3,5,0.0,783,369606313491223,19,27.3,-2.7845726013183594,0.45500001311302185,0,0.0,0.0,,,,,0,,5,,
Raw,7106604,7110448000000,,,-1291005709998544896,0.0,120.1626582769677,-19.072152931917735,21.303600201036637,3,7,0.0,15,369606323543024,73,17.2,-175.2072296142578,1.7510000467300415,0,0.0,0.0,,,,,0,,5,,
Raw,7106605,7110448000000,,,-1291005709998544896,0.0,120.1626582769677,-19.072152931917735,21.303600201036637,3,8,0.0,15,369606312595865,35,22.2,325.4493408203125,0.684499979019165,0,0.0,0.0,,,,,0,,5,,
Raw,7106605,7110448000000,,,-1291005709998544896,0.0,120.1626582769677,-19.072152931917735,21.303600201036637,3,10,0.0,15,369606318745195,79,17.7,-214.37368774414062,2.5235002040863037,0,0.0,0.0,,,,,0,,5,,
Raw,7106606,7110448000000,,,-1291005709998544896,0.0,120.1626582769677,-19.072152931917735,21.303600201036637,3,13,0.0,15,369606316123164,16,29.7,349.0960388183594,0.20000000298023224,0,0.0,0.0,,,,,0,,5,,
Raw,7106606,7110448000000,,,-1291005709998544896,0.0,120.1626582769677,-19.072152931917735,21.303600201036637,3,21,0.0,15,369606368828866,1846,17.5,-426.02044677734375,28.758501052856445,0,0.0,0.0,,,,,0,,5,,
Raw,7106607,7110448000000,,,-1291005709998544896,0.0,120.1626582769677,-19.072152931917735,21.303600201036637,3,22,0.0,15,369606373571053,1830,13.6,113.33210754394531,28.391000747680664,0,0.0,0.0,,,,,0,,5,,
Raw,7106607,7110448000000,,,-1291005709998544896,0.0,120.1626582769677,-19.072152931917735,21.303600201036637,3,26,0.0,15,369606365506105,9,35.2,-385.2476806640625,0.20000000298023224,0,0.0,0.0,,,,,0,,5,,
Raw,7106608,7110448000000,,,-1291005709998544896,0.0,120.1626582769677,-19.072152931917735,21.303600201036637,3,5,0.0,7183,369620355539104,328,13.7,-443.0417175292969,10.279000282287598,0,0.0,0.0,,,,,0,,6,,
NMEA,$GPGSV,3,1,10,10,63,194,23,12,21,040,11,21,00,000,23,23,35,164,14*74,1606977602398
NMEA,$GPGSV,3,2,10,25,59,059,24,26,22,206,34,31,43,284,28,32,53,354,24*7D,1606977602398
NMEA,$GPGSV,3,3,10,20,29,168,,29,13,125,*71,1606977602398
NMEA,$GLGSV,2,1,07,74,07,222,23,70,60,357,17,73,52,247,17,80,57,358,15*64,1606977602399
NMEA,$GLGSV,2,2,07,69,45,122,24,71,13,330,16,79,07,029,*5A,1606977602399
NMEA,$GAGSV,1,1,02,05,15,316,14,36,02,248,*63,1606977602399
NMEA,$PQGSV,1,1,03,193,66,125,17,194,71,063,18,195,18,150,,0,5*64,1606977602399
NMEA,$PQGSV,4,1,16,01,51,129,23,02,41,241,26,05,17,257,27,07,58,178,17,0,4*67,1606977602399
NMEA,$PQGSV,4,2,16,08,14,196,22,10,34,199,18,13,22,219,30,21,43,322,18,0,4*62,1606977602399
NMEA,$PQGSV,4,3,16,22,78,136,14,26,24,243,35,03,59,202,,04,37,115,,0,4*6E,1606977602400
NMEA,$PQGSV,4,4,16,06,56,012,,09,44,329,,19,23,140,,29,02,130,,0,4*6C,1606977602400
NMEA,$GNGSA,A,3,10,23,26,31,,,,,,,,,2.0,1.8,0.9,1*35,1606977602401
NMEA,$GNGSA,A,2,74,,,,,,,,,,,,2.0,1.8,0.9,2*32,1606977602401
NMEA,$GNGSA,A,2,05,,,,,,,,,,,,2.0,1.8,0.9,3*35,1606977602401
NMEA,$PQGSA,A,2,13,26,,,,,,,,,,,2.0,1.8,0.9,4*39,1606977602402
NMEA,$GNVTG,,T,,M,0.0,N,0.0,K,A*3D,1606977602402
NMEA,$GNRMC,064003.00,A,2255.530415,N,12017.685917,E,0.0,,031220,2.8,W,A*19,1606977602402
NMEA,$GNGGA,064003.00,2255.530415,N,12017.685917,E,1,08,1.8,16.8,M,17.5,M,,*49,1606977602402
Fix,gps,22.925507,120.294765,34.213684,0.000000,11.792000,1606977604000
Raw,7107625,7111448000000,,,-1291005709998544896,0.0,115.66587636480108,-17.37077010101528,18.35179259758311,3,10,0.0,207,34803367132579,40,21.8,-645.6917114257812,0.996999979019165,0,0.0,0.0,,,,,0,,3,,
Raw,7107626,7111448000000,,,-1291005709998544896,0.0,115.66587636480108,-17.37077010101528,18.35179259758311,3,6,0.0,207,34803381017084,253,16.6,-385.8276062011719,9.51300048828125,0,0.0,0.0,,,,,0,,3,,
