# 
# Header Description:
# 
# Version: v2.0.0.1 Platform: 8.0.0 Manufacturer: Sony Model: G8142
# 
# Raw,ElapsedRealtimeMillis,TimeNanos,LeapSecond,TimeUncertaintyNanos,FullBiasNanos,BiasNanos,BiasUncertaintyNanos,DriftNanosPerSecond,DriftUncertaintyNanosPerSecond,HardwareClockDiscontinuityCount,Svid,TimeOffsetNanos,State,ReceivedSvTimeNanos,ReceivedSvTimeUncertaintyNanos,Cn0DbHz,PseudorangeRateMetersPerSecond,PseudorangeRateUncertaintyMetersPerSecond,AccumulatedDeltaRangeState,AccumulatedDeltaRangeMeters,AccumulatedDeltaRangeUncertaintyMeters,CarrierFrequencyHz,CarrierCycles,CarrierPhase,CarrierPhaseUncertainty,MultipathIndicator,SnrInDb,ConstellationType,AgcDb,CarrierFrequencyHz
# 
# Fix,Provider,Latitude,Longitude,Altitude,Speed,Accuracy,(UTC)TimeInMs
# 
# Nav,Svid,Type,Status,MessageId,Sub-messageId,Data(Bytes)
# 
Raw,7521597,7525448000000,,,-1291005709998541312,0.0,61.90023850649595,5.948118609581826,13.254399202800496,3,10,0.0,207,35217367999471,21,26.8,-615.6713256835938,0.32170000672340393,0,0.0,0.0,,,,,0,,3,,
Raw,7521597,7525448000000,,,-1291005709998541312,0.0,61.90023850649595,5.948118609581826,13.254399202800496,3,6,0.0,207,35217381506404,2160,12.7,-332.5124206542969,31.048002243041992,0,0.0,0.0,,,,,0,,3,,
Raw,7521597,7525448000000,,,-1291005709998541312,0.0,61.90023850649595,5.948118609581826,13.254399202800496,3,9,0.0,207,35217379653325,27,24.6,-190.80723571777344,0.8450000286102295,0,0.0,0.0,,,,,0,,3,,
Raw,7521597,7525448000000,,,-1291005709998541312,0.0,61.90023850649595,5.948118609581826,13.254399202800496,3,16,0.0,207,35217379652202,971,17.9,453.22564697265625,20.775001525878906,0,0.0,0.0,,,,,0,,3,,
Raw,7521597,7525448000000,,,-1291005709998541312,0.0,61.90023850649595,5.948118609581826,13.254399202800496,3,15,0.0,207,35217365962248,171,15.7,715.0293579101562,6.714000225067139,0,0.0,0.0,,,,,0,,3,,
Raw,7521597,7525448000000,,,-1291005709998541312,0.0,61.90023850649595,5.948118609581826,13.254399202800496,3,5,0.0,207,35217377288105,46,20.3,440.00897216796875,1.0720000267028809,0,0.0,0.0,,,,,0,,3,,
Raw,7521598,7525448000000,,,-1291005709998541312,0.0,61.90023850649595,5.948118609581826,13.254399202800496,3,7,0.0,207,35217370012384,73,17.5,-729.3654174804688,2.0415000915527344,0,0.0,0.0,,,,,0,,3,,
Raw,7521598,7525448000000,,,-1291005709998541312,0.0,61.90023850649595,5.948118609581826,13.254399202800496,3,10,0.0,15,370035377455319,35,22.2,366.2297058105469,0.8119999766349792,0,0.0,0.0,,,,,0,,1,,
Raw,7521598,7525448000000,,,-1291005709998541312,0.0,61.90023850649595,5.948118609581826,13.254399202800496,3,12,0.0,15,370035367771847,254,16.7,618.93017578125,9.427000045776367,0,0.0,0.0,,,,,0,,1,,
Raw,7521598,7525448000000,,,-1291005709998541312,0.0,61.90023850649595,5.948118609581826,13.254399202800496,3,20,0.0,15,370035370337593,343,11.9,672.0791625976562,9.991500854492188,0,0.0,0.0,,,,,0,,1,,
Raw,7521598,7525448000000,,,-1291005709998541312,0.0,61.90023850649595,5.948118609581826,13.254399202800496,3,22,0.0,15,370035359796127,31,23.6,-577.9028930664062,0.6649999618530273,0,0.0,0.0,,,,,0,,1,,
Raw,7521598,7525448000000,,,-1291005709998541312,0.0,61.90023850649595,5.948118609581826,13.254399202800496,3,23,0.0,15,370035371138779,1639,12.7,639.9385986328125,8.243000030517578,0,0.0,0.0,,,,,0,,1,,
Raw,7521599,7525448000000,,,-1291005709998541312,0.0,61.90023850649595,5.948118609581826,13.254399202800496,3,25,0.0,15,370035377328904,40,21.6,290.8543701171875,0.8119999766349792,0,0.0,0.0,,,,,0,,1,,
Raw,7521599,7525448000000,,,-1291005709998541312,0.0,61.90023850649595,5.948118609581826,13.254399202800496,3,26,0.0,15,370035370045642,31,23.3,-648.0355834960938,0.7414999604225159,0,0.0,0.0,,,,,0,,1,,
Raw,7521600,7525448000000,,,-1291005709998541312,0.0,61.90023850649595,5.948118609581826,13.254399202800496,3,31,0.0,15,370035374964409,27,24.1,-120.14191436767578,0.6875,0,0.0,0.0,,,,,0,,1,,
Raw,7521600,7525448000000,,,-1291005709998541312,0.0,61.90023850649595,5.948118609581826,13.254399202800496,3,32,0.0,15,370035376246042,135,15.5,-252.87173461914062,5.030500411987305,0,0.0,0.0,,,,,0,,1,,
Raw,7521600,7525448000000,,,-1291005709998541312,0.0,61.90023850649595,5.948118609581826,13.254399202800496,3,1,0.0,783,370021322563528,920,21.1,0.0864177718758583,20.25349998474121,0,0.0,0.0,,,,,0,,5,,
Raw,7521600,7525448000000,,,-1291005709998541312,0.0,61.90023850649595,5.948118609581826,13.254399202800496,3,2,0.0,783,370021321622883,14,30.2,4.551336288452148,0.36500000953674316,0,0.0,0.0,,,,,0,,5,,
Raw,7521600,7525448000000,,,-1291005709998541312,0.0,61.90023850649595,5.948118609581826,13.254399202800496,3,5,0.0,783,370021313481322,16,29.7,6.270089626312256,0.3850000202655792,0,0.0,0.0,,,,,0,,5,,
Raw,7521601,7525448000000,,,-1291005709998541312,0.0,61.90023850649595,5.948118609581826,13.254399202800496,3,6,0.0,15,370021323656369,53,19.0,-106.57231903076172,0.8510000109672546,0,0.0,0.0,,,,,0,,5,,
Raw,7521601,7525448000000,,,-1291005709998541312,0.0,61.90023850649595,5.948118609581826,13.254399202800496,3,7,0.0,15,370021323768824,61,18.3,-159.3831787109375,0.9210000038146973,0,0.0,0.0,,,,,0,,5,,
Raw,7521601,7525448000000,,,-1291005709998541312,0.0,61.90023850649595,5.948118609581826,13.254399202800496,3,8,0.0,15,370021312139983,164,14.2,328.98284912109375,5.774500370025635,0,0.0,0.0,,,,,0,,5,,
Raw,7521601,7525448000000,,,-1291005709998541312,0.0,61.90023850649595,5.948118609581826,13.254399202800496,3,10,0.0,15,370021319026395,61,19.1,-202.25601196289062,2.375,0,0.0,0.0,,,,,0,,5,,
Raw,7521601,7525448000000,,,-1291005709998541312,0.0,61.90023850649595,5.948118609581826,13.254399202800496,3,13,0.0,15,370021315630834,31,23.2,353.5831298828125,0.6389999985694885,0,0.0,0.0,,,,,0,,5,,
Raw,7521601,7525448000000,,,-1291005709998541312,0.0,61.90023850649595,5.948118609581826,13.254399202800496,3,16,0.0,15,370021323434499,149,15.1,-91.15154266357422,5.671000003814697,0,0.0,0.0,,,,,0,,5,,
Raw,7521602,7525448000000,,,-1291005709998541312,0.0,61.90023850649595,5.948118609581826,13.254399202800496,3,19,0.0,15,370021364096514,1912,15.1,562.8966064453125,22.337501525878906,0,0.0,0.0,,,,,0,,5,,
Raw,7521602,7525448000000,,,-1291005709998541312,0.0,61.90023850649595,5.948118609581826,13.254399202800496,3,21,0.0,15,370021369401058,718,11.3,-399.499755859375,16.670000076293945,0,0.0,0.0,,,,,0,,5,,
Raw,7521602,7525448000000,,,-1291005709998541312,0.0,61.90023850649595,5.948118609581826,13.254399202800496,3,22,0.0,15,370021373384424,253,16.3,158.4805908203125,9.346000671386719,0,0.0,0.0,,,,,0,,5,,
Raw,7521602,7525448000000,,,-1291005709998541312,0.0,61.90023850649595,5.948118609581826,13.254399202800496,3,26,0.0,15,370021366013872,16,29.0,-357.1629333496094,0.20000000298023224,0,0.0,0.0,,,,,0,,5,,
Raw,7521602,7525448000000,,,-1291005709998541312,0.0,61.90023850649595,5.948118609581826,13.254399202800496,3,5,0.0,7183,370035356142509,19,27.9,-437.8670349121094,0.20000000298023224,0,0.0,0.0,,,,,0,,6,,
Fix,gps,22.925496,120.294744,34.770020,0.000000,9.648001,1606978018000
NMEA,$GPGSV,3,1,10,10,60,191,22,12,18,039,17,20,26,168,12,22,00,000,24*7E,1606978017397
NMEA,$GPGSV,3,2,10,23,32,165,13,25,56,054,22,26,25,208,23,31,44,288,24*72,1606978017397
NMEA,$GPGSV,3,3,10,32,54,358,16,29,14,123,*7F,1606978017397
NMEA,$GLGSV,2,1,07,74,09,224,27,70,00,000,13,73,54,254,25,80,53,001,18*68,1606978017397
NMEA,$GLGSV,2,2,07,79,05,030,16,69,42,127,20,71,16,331,18*5B,1606978017397
NMEA,$GAGSV,1,1,02,05,17,317,28,36,00,000,*63,1606978017398
NMEA,$PQGSV,1,1,03,193,66,127,14,194,71,060,20,195,18,150,,0,5*6D,1606978017398
NMEA,$PQGSV,4,1,16,01,51,129,21,02,40,241,30,05,17,257,30,06,57,014,19,0,4*6E,1606978017398
NMEA,$PQGSV,4,2,16,07,59,180,18,08,12,196,14,10,35,199,19,13,21,219,23,0,4*65,1606978017398
NMEA,$PQGSV,4,3,16,16,56,007,15,19,21,142,15,21,46,320,11,22,75,143,16,0,4*67,1606978017398
NMEA,$PQGSV,4,4,16,26,26,246,29,03,59,202,,04,37,115,,09,45,330,,0,4*65,1606978017399
NMEA,$GNGSA,A,3,10,23,25,26,31,32,,,,,,,1.4,1.1,0.9,1*3D,1606978017400
NMEA,$GNGSA,A,2,74,,,,,,,,,,,,1.4,1.1,0.9,2*3C,1606978017400
NMEA,$GNGSA,A,2,05,,,,,,,,,,,,1.4,1.1,0.9,3*3B,1606978017400
NMEA,$PQGSA,A,2,13,26,,,,,,,,,,,1.4,1.1,0.9,4*37,1606978017400
NMEA,$GNVTG,,T,,M,0.0,N,0.0,K,A*3D,1606978017400
NMEA,$GNRMC,064658.00,A,2255.529766,N,12017.684638,E,0.0,,031220,2.8,W,A*1D,1606978017401
NMEA,$GNGGA,064658.00,2255.529766,N,12017.684638,E,1,10,1.1,17.3,M,17.5,M,,*47,1606978017401
Raw,7522605,7526448000000,,,-1291005709998541312,0.0,64.78795694420114,6.660268883470717,16.734879506612184,3,10,0.0,207,35218368001575,21,26.2,-616.2859497070312,0.323199987411499,0,0.0,0.0,,,,,0,,3,,
Raw,7522605,7526448000000,,,-1291005709998541312,0.0,64.78795694420114,6.660268883470717,16.734879506612184,3,6,0.0,207,35218381507513,2366,12.7,-332.5124206542969,32.54800033569336,0,0.0,0.0,,,,,0,,3,,
Raw,7522605,7526448000000,,,-1291005709998541312,0.0,64.78795694420114,6.660268883470717,16.734879506612184,3,9,0.0,207,35218379654135,31,23.9,-192.39901733398438,0.9099999666213989,0,0.0,0.0,,,,,0,,3,,
Raw,7522605,7526448000000,,,-1291005709998541312,0.0,64.78795694420114,6.660268883470717,16.734879506612184,3,16,0.0,207,35218379650690,1111,17.9,453.22564697265625,22.275001525878906,0,0.0,0.0,,,,,0,,3,,
Raw,7522605,7526448000000,,,-1291005709998541312,0.0,64.78795694420114,6.660268883470717,16.734879506612184,3,15,0.0,207,35218365959863,216,15.7,715.0293579101562,8.214000701904297,0,0.0,0.0,,,,,0,,3,,
Raw,7522605,7526448000000,,,-1291005709998541312,0.0,64.78795694420114,6.660268883470717,16.734879506612184,3,5,0.0,207,35218377286746,53,19.9,438.2879333496094,1.1570000648498535,0,0.0,0.0,,,,,0,,3,,
Raw,7522606,7526448000000,,,-1291005709998541312,0.0,64.78795694420114,6.660268883470717,16.734879506612184,3,7,0.0,207,35218370014817,88,17.5,-729.3654174804688,3.5415000915527344,0,0.0,0.0,,,,,0,,3,,
Raw,7522606,7526448000000,,,-1291005709998541312,0.0,64.78795694420114,6.660268883470717,16.734879506612184,3,10,0.0,15,370036377454021,53,19.9,365.6112365722656,0.9569999575614929,0,0.0,0.0,,,,,0,,1,,
Raw,7522606,7526448000000,,,-1291005709998541312,0.0,64.78795694420114,6.660268883470717,16.734879506612184,3,12,0.0,15,370036367769782,318,16.7,618.93017578125,10.927000045776367,0,0.0,0.0,,,,,0,,1,,
Raw,7522606,7526448000000,,,-1291005709998541312,0.0,64.78795694420114,6.660268883470717,16.734879506612184,3,20,0.0,15,370036370335351,409,11.9,672.0791625976562,11.491500854492188,0,0.0,0.0,,,,,0,,1,,
Raw,7522606,7526448000000,,,-1291005709998541312,0.0,64.78795694420114,6.660268883470717,16.734879506612184,3,22,0.0,15,370036359798114,31,23.1,-577.8457641601562,0.7249999642372131,0,0.0,0.0,,,,,0,,1,,
Raw,7522607,7526448000000,,,-1291005709998541312,0.0,64.78795694420114,6.660268883470717,16.734879506612184,3,23,0.0,15,370036371136620,1873,12.4,638.720703125,8.373000144958496,0,0.0,0.0,,,,,0,,1,,
Raw,7522607,7526448000000,,,-1291005709998541312,0.0,64.78795694420114,6.660268883470717,16.734879506612184,3,25,0.0,15,370036377327927,46,20.5,290.3881530761719,0.8869999647140503,0,0.0,0.0,,,,,0,,1,,
Raw,7522607,7526448000000,,,-1291005709998541312,0.0,64.78795694420114,6.660268883470717,16.734879506612184,3,26,0.0,15,370036370047803,53,19.4,-648.8823852539062,1.0115000009536743,0,0.0,0.0,,,,,0,,1,,
Raw,7522607,7526448000000,,,-1291005709998541312,0.0,64.78795694420114,6.660268883470717,16.734879506612184,3,31,0.0,15,370036374964881,27,24.1,-121.01726531982422,0.6875,0,0.0,0.0,,,,,0,,1,,
Raw,7522607,7526448000000,,,-1291005709998541312,0.0,64.78795694420114,6.660268883470717,16.734879506612184,3,32,0.0,15,370036376246885,169,15.5,-252.87173461914062,6.530500411987305,0,0.0,0.0,,,,,0,,1,,
Raw,7522607,7526448000000,,,-1291005709998541312,0.0,64.78795694420114,6.660268883470717,16.734879506612184,3,1,0.0,783,370022322563528,1058,21.1,0.0864177718758583,21.753501892089844,0,0.0,0.0,,,,,0,,5,,
Raw,7522608,7526448000000,,,-1291005709998541312,0.0,64.78795694420114,6.660268883470717,16.734879506612184,3,2,0.0,783,370022321622878,16,29.4,-1.3634803295135498,0.3850000202655792,0,0.0,0.0,,,,,0,,5,,
Raw,7522608,7526448000000,,,-1291005709998541312,0.0,64.78795694420114,6.660268883470717,16.734879506612184,3,5,0.0,783,370022313481298,16,29.0,6.75018835067749,0.3850000202655792,0,0.0,0.0,,,,,0,,5,,
Raw,7522608,7526448000000,,,-1291005709998541312,0.0,64.78795694420114,6.660268883470717,16.734879506612184,3,6,0.0,15,370022323656701,53,19.7,-106.85077667236328,0.8510000109672546,0,0.0,0.0,,,,,0,,5,,
Raw,7522608,7526448000000,,,-1291005709998541312,0.0,64.78795694420114,6.660268883470717,16.734879506612184,3,7,0.0,15,370022323769385,53,19.5,-159.58480834960938,0.8510000109672546,0,0.0,0.0,,,,,0,,5,,
Raw,7522608,7526448000000,,,-1291005709998541312,0.0,64.78795694420114,6.660268883470717,16.734879506612184,3,8,0.0,15,370022312138886,204,14.2,328.98284912109375,7.274500370025635,0,0.0,0.0,,,,,0,,5,,
Raw,7522608,7526448000000,,,-1291005709998541312,0.0,64.78795694420114,6.660268883470717,16.734879506612184,3,10,0.0,15,370022319027018,84,16.0,-201.9679412841797,1.8550000190734863,0,0.0,0.0,,,,,0,,5,,
Raw,7522609,7526448000000,,,-1291005709998541312,0.0,64.78795694420114,6.660268883470717,16.734879506612184,3,13,0.0,15,370022315629661,19,27.3,352.5229187011719,0.20000000298023224,0,0.0,0.0,,,,,0,,5,,
Raw,7522609,7526448000000,,,-1291005709998541312,0.0,64.78795694420114,6.660268883470717,16.734879506612184,3,16,0.0,15,370022323434845,101,15.3,-94.93472290039062,2.6710000038146973,0,0.0,0.0,,,,,0,,5,,
Raw,7522609,7526448000000,,,-1291005709998541312,0.0,64.78795694420114,6.660268883470717,16.734879506612184,3,19,0.0,15,370022364094636,2062,15.1,562.8966064453125,23.837501525878906,0,0.0,0.0,,,,,0,,5,,
Raw,7522609,7526448000000,,,-1291005709998541312,0.0,64.78795694420114,6.660268883470717,16.734879506612184,3,21,0.0,15,370022369402390,829,11.3,-399.499755859375,18.170000076293945,0,0.0,0.0,,,,,0,,5,,
Raw,7522609,7526448000000,,,-1291005709998541312,0.0,64.78795694420114,6.660268883470717,16.734879506612184,3,22,0.0,15,370022373383895,316,16.3,158.4805908203125,10.846000671386719,0,0.0,0.0,,,,,0,,5,,
Raw,7522610,7526448000000,,,-1291005709998541312,0.0,64.78795694420114,6.660268883470717,16.734879506612184,3,26,0.0,15,370022366015081,19,27.2,-357.6171569824219,0.20000000298023224,0,0.0,0.0,,,,,0,,5,,
Raw,7522610,7526448000000,,,-1291005709998541312,0.0,64.78795694420114,6.660268883470717,16.734879506612184,3,5,0.0,7183,370036356143971,19,27.2,-440.5774230957031,0.44050002098083496,0,0.0,0.0,,,,,0,,6,,
Fix,gps,22.925496,120.294744,34.723572,0.000000,9.648001,1606978019000
NMEA,$GPGSV,3,1,10,10,60,191,20,12,18,039,17,20,26,168,12,22,00,000,23*7B,1606978018396
NMEA,$GPGSV,3,2,10,23,32,165,12,25,56,054,21,26,25,208,19,31,44,288,24*79,1606978018396
NMEA,$GPGSV,3,3,10,32,54,358,16,29,14,123,*7F,1606978018396
NMEA,$GLGSV,2,1,07,74,09,224,26,70,00,000,13,73,54,254,24,80,53,001,18*68,1606978018397
NMEA,$GLGSV,2,2,07,79,05,030,16,69,42,127,20,71,16,331,18*5B,1606978018397
NMEA,$GAGSV,1,1,02,05,17,317,27,36,00,000,*6C,1606978018397
NMEA,$PQGSV,1,1,03,193,66,127,14,194,71,060,20,195,18,150,,0,5*6D,1606978018398
NMEA,$PQGSV,4,1,16,01,51,129,21,02,40,241,29,05,17,257,29,06,57,014,20,0,4*64,1606978018398
NMEA,$PQGSV,4,2,16,07,59,180,20,08,12,196,14,10,35,199,16,13,21,219,27,0,4*65,1606978018398
NMEA,$PQGSV,4,3,16,16,56,007,15,19,21,142,15,21,46,320,11,22,75,143,16,0,4*67,1606978018399
NMEA,$PQGSV,4,4,16,26,26,246,27,03,59,202,,04,37,115,,09,45,330,,0,4*6B,1606978018399
NMEA,$GNGSA,A,3,10,23,25,26,31,32,,,,,,,1.4,1.1,0.9,1*3D,1606978018400
NMEA,$GNGSA,A,2,74,,,,,,,,,,,,1.4,1.1,0.9,2*3C,1606978018400
NMEA,$GNGSA,A,2,05,,,,,,,,,,,,1.4,1.1,0.9,3*3B,1606978018400
NMEA,$PQGSA,A,2,13,26,,,,,,,,,,,1.4,1.1,0.9,4*37,1606978018400
NMEA,$GNVTG,,T,,M,0.0,N,0.0,K,A*3D,1606978018400
NMEA,$GNRMC,064659.00,A,2255.529768,N,12017.684637,E,0.0,,031220,2.8,W,A*1D,1606978018400
NMEA,$GNGGA,064659.00,2255.529768,N,12017.684637,E,1,10,1.1,17.3,M,17.5,M,,*47,1606978018401
Raw,7523864,7527448000000,,,-1291005709998541312,0.0,57.97883204650134,2.069265074197222,14.274447619472262,3,10,0.0,207,35219368003622,17,28.1,-616.1675415039062,0.24530000984668732,0,0.0,0.0,,,,,0,,3,,
Raw,7523864,7527448000000,,,-1291005709998541312,0.0,57.97883204650134,2.069265074197222,14.274447619472262,3,6,0.0,207,35219381508622,2582,12.7,-332.5124206542969,34.04800033569336,0,0.0,0.0,,,,,0,,3,,
Raw,7523865,7527448000000,,,-1291005709998541312,0.0,57.97883204650134,2.069265074197222,14.274447619472262,3,9,0.0,207,35219379654612,31,23.2,-190.84469604492188,0.8949999809265137,0,0.0,0.0,,,,,0,,3,,
Raw,7523865,7527448000000,,,-1291005709998541312,0.0,57.97883204650134,2.069265074197222,14.274447619472262,3,16,0.0,207,35219379649179,1260,17.9,453.22564697265625,23.775001525878906,0,0.0,0.0,,,,,0,,3,,
Raw,7523865,7527448000000,,,-1291005709998541312,0.0,57.97883204650134,2.069265074197222,14.274447619472262,3,15,0.0,207,35219365957483,137,14.2,711.1369018554688,4.564000129699707,0,0.0,0.0,,,,,0,,3,,
Raw,7523865,7527448000000,,,-1291005709998541312,0.0,57.97883204650134,2.069265074197222,14.274447619472262,3,5,0.0,207,35219377285285,53,19.9,439.1484375,1.1420000791549683,0,0.0,0.0,,,,,0,,3,,
Raw,7523866,7527448000000,,,-1291005709998541312,0.0,57.97883204650134,2.069265074197222,14.274447619472262,3,7,0.0,207,35219370017321,84,16.6,-730.0472412109375,2.131500005722046,0,0.0,0.0,,,,,0,,3,,
Raw,7523866,7527448000000,,,-1291005709998541312,0.0,57.97883204650134,2.069265074197222,14.274447619472262,3,10,0.0,15,370037377452767,40,21.7,365.8490905761719,0.8119999766349792,0,0.0,0.0,,,,,0,,1,,
Raw,7523866,7527448000000,,,-1291005709998541312,0.0,57.97883204650134,2.069265074197222,14.274447619472262,3,12,0.0,15,370037367767718,392,16.7,618.93017578125,12.427000045776367,0,0.0,0.0,,,,,0,,1,,
Raw,7523866,7527448000000,,,-1291005709998541312,0.0,57.97883204650134,2.069265074197222,14.274447619472262,3,20,0.0,15,370037370333109,485,11.9,672.0791625976562,12.991500854492188,0,0.0,0.0,,,,,0,,1,,
Raw,7523866,7527448000000,,,-1291005709998541312,0.0,57.97883204650134,2.069265074197222,14.274447619472262,3,22,0.0,15,370037359799990,27,24.3,-577.5698852539062,0.6649999618530273,0,0.0,0.0,,,,,0,,1,,
Raw,7523866,7527448000000,,,-1291005709998541312,0.0,57.97883204650134,2.069265074197222,14.274447619472262,3,23,0.0,15,370037371134489,1665,12.5,638.4828491210938,8.993000030517578,0,0.0,0.0,,,,,0,,1,,
Raw,7523867,7527448000000,,,-1291005709998541312,0.0,57.97883204650134,2.069265074197222,14.274447619472262,3,25,0.0,15,370037377327010,40,21.2,290.76873779296875,0.871999979019165,0,0.0,0.0,,,,,0,,1,,
Raw,7523867,7527448000000,,,-1291005709998541312,0.0,57.97883204650134,2.069265074197222,14.274447619472262,3,26,0.0,15,370037370049978,46,20.5,-648.1782836914062,0.8614999651908875,0,0.0,0.0,,,,,0,,1,,
Raw,7523867,7527448000000,,,-1291005709998541312,0.0,57.97883204650134,2.069265074197222,14.274447619472262,3,31,0.0,15,370037374965243,24,25.0,-120.53176879882812,0.4027999937534332,0,0.0,0.0,,,,,0,,1,,
Raw,7523867,7527448000000,,,-1291005709998541312,0.0,57.97883204650134,2.069265074197222,14.274447619472262,3,32,0.0,15,370037376247729,214,15.5,-252.87173461914062,8.030500411987305,0,0.0,0.0,,,,,0,,1,,
Raw,7523867,7527448000000,,,-1291005709998541312,0.0,57.97883204650134,2.069265074197222,14.274447619472262,3,1,0.0,783,370023322563528,1206,21.1,0.0864177718758583,23.253501892089844,0,0.0,0.0,,,,,0,,5,,
Raw,7523867,7527448000000,,,-1291005709998541312,0.0,57.97883204650134,2.069265074197222,14.274447619472262,3,2,0.0,783,370023321622854,14,30.5,1.5171120166778564,0.36500000953674316,0,0.0,0.0,,,,,0,,5,,
Raw,7523868,7527448000000,,,-1291005709998541312,0.0,57.97883204650134,2.069265074197222,14.274447619472262,3,5,0.0,783,370023313481291,16,29.8,6.7885966300964355,0.36500000953674316,0,0.0,0.0,,,,,0,,5,,
Raw,7523868,7527448000000,,,-1291005709998541312,0.0,57.97883204650134,2.069265074197222,14.274447619472262,3,6,0.0,15,370023323657144,61,18.0,-106.14982604980469,0.9210000038146973,0,0.0,0.0,,,,,0,,5,,
Raw,7523868,7527448000000,,,-1291005709998541312,0.0,57.97883204650134,2.069265074197222,14.274447619472262,3,7,0.0,15,370023323769886,53,19.3,-159.59442138671875,0.8510000109672546,0,0.0,0.0,,,,,0,,5,,
Raw,7523868,7527448000000,,,-1291005709998541312,0.0,57.97883204650134,2.069265074197222,14.274447619472262,3,8,0.0,15,370023312137789,253,14.2,328.98284912109375,8.774499893188477,0,0.0,0.0,,,,,0,,5,,
Raw,7523868,7527448000000,,,-1291005709998541312,0.0,57.97883204650134,2.069265074197222,14.274447619472262,3,10,0.0,15,370023319027691,98,16.0,-201.9679412841797,3.3550000190734863,0,0.0,0.0,,,,,0,,5,,
Raw,7523868,7527448000000,,,-1291005709998541312,0.0,57.97883204650134,2.069265074197222,14.274447619472262,3,13,0.0,15,370023315628460,17,28.5,352.5691833496094,0.20000000298023224,0,0.0,0.0,,,,,0,,5,,
Raw,7523869,7527448000000,,,-1291005709998541312,0.0,57.97883204650134,2.069265074197222,14.274447619472262,3,16,0.0,15,370023323435162,120,15.3,-94.93472290039062,4.171000003814697,0,0.0,0.0,,,,,0,,5,,
Raw,7523869,7527448000000,,,-1291005709998541312,0.0,57.97883204650134,2.069265074197222,14.274447619472262,3,19,0.0,15,370023364092759,2222,15.1,562.8966064453125,25.337501525878906,0,0.0,0.0,,,,,0,,5,,
Raw,7523869,7527448000000,,,-1291005709998541312,0.0,57.97883204650134,2.069265074197222,14.274447619472262,3,22,0.0,15,370023373383367,390,16.3,158.4805908203125,12.346000671386719,0,0.0,0.0,,,,,0,,5,,
Raw,7523869,7527448000000,,,-1291005709998541312,0.0,57.97883204650134,2.069265074197222,14.274447619472262,3,26,0.0,15,370023366016264,19,27.9,-357.70318603515625,0.20000000298023224,0,0.0,0.0,,,,,0,,5,,
Raw,7523869,7527448000000,,,-1291005709998541312,0.0,57.97883204650134,2.069265074197222,14.274447619472262,3,5,0.0,7183,370037356145444,17,28.0,-440.0045471191406,0.20000000298023224,0,0.0,0.0,,,,,0,,6,,
Fix,gps,22.925496,120.294744,34.688416,0.000000,9.648001,1606978020000
NMEA,$GPGSV,3,1,10,10,60,191,22,12,18,039,17,20,26,168,12,22,00,000,24*7E,1606978019414
NMEA,$GPGSV,3,2,10,23,32,165,13,25,56,054,21,26,25,208,21,31,44,288,25*72,1606978019415
NMEA,$GPGSV,3,3,10,32,54,358,16,29,14,123,*7F,1606978019416
NMEA,$GLGSV,2,1,07,74,09,224,28,70,00,000,13,73,54,254,23,80,53,001,18*61,1606978019417
NMEA,$GLGSV,2,2,07,79,05,030,14,69,42,127,20,71,16,331,17*56,1606978019421
NMEA,$GAGSV,1,1,02,05,17,317,28,36,00,000,*63,1606978019422
NMEA,$PQGSV,1,1,03,193,66,127,14,194,71,060,20,195,18,150,,0,5*6D,1606978019423
NMEA,$PQGSV,4,1,16,01,51,129,21,02,40,241,31,05,17,257,30,06,57,014,18,0,4*6E,1606978019424
NMEA,$PQGSV,4,2,16,07,59,180,19,08,12,196,14,10,35,199,16,13,21,219,29,0,4*61,1606978019425
NMEA,$PQGSV,4,3,16,16,56,007,15,19,21,142,15,22,75,143,16,26,26,246,28,0,4*6D,1606978019427
NMEA,$PQGSV,4,4,16,03,59,202,,04,37,115,,09,45,330,,21,46,320,,0,4*6E,1606978019428
NMEA,$GNGSA,A,3,10,23,25,26,31,32,,,,,,,1.4,1.1,0.9,1*3D,1606978019432
NMEA,$GNGSA,A,2,74,,,,,,,,,,,,1.4,1.1,0.9,2*3C,1606978019433
NMEA,$GNGSA,A,2,05,,,,,,,,,,,,1.4,1.1,0.9,3*3B,1606978019434
NMEA,$PQGSA,A,2,13,26,,,,,,,,,,,1.4,1.1,0.9,4*37,1606978019436
NMEA,$GNVTG,,T,,M,0.0,N,0.0,K,A*3D,1606978019437
NMEA,$GNRMC,064700.00,A,2255.529771,N,12017.684637,E,0.0,,031220,2.8,W,A*18,1606978019438
NMEA,$GNGGA,064700.00,2255.529771,N,12017.684637,E,1,10,1.1,17.2,M,17.5,M,,*43,1606978019440
Fix,gps,22.925496,120.294744,34.668030,0.000000,9.648001,1606978021000
Raw,7524643,7528448000000,,,-1291005709998541312,0.0,54.92096170200966,3.6248381143428903,14.519173985588683,3,10,0.0,207,35220368005669,19,27.1,-615.4874267578125,0.2533000111579895,0,0.0,0.0,,,,,0,,3,,
Raw,7524643,7528448000000,,,-1291005709998541312,0.0,54.92096170200966,3.6248381143428903,14.519173985588683,3,6,0.0,207,35220381509731,2809,12.7,-332.5124206542969,35.54800033569336,0,0.0,0.0,,,,,0,,3,,
Raw,7524644,7528448000000,,,-1291005709998541312,0.0,54.92096170200966,3.6248381143428903,14.519173985588683,3,9,0.0,207,35220379655309,31,23.9,-190.64805603027344,0.8949999809265137,0,0.0,0.0,,,,,0,,3,,
Raw,7524644,7528448000000,,,-1291005709998541312,0.0,54.92096170200966,3.6248381143428903,14.519173985588683,3,16,0.0,207,35220379647667,1420,17.9,453.22564697265625,25.275001525878906,0,0.0,0.0,,,,,0,,3,,
Raw,7524644,7528448000000,,,-1291005709998541312,0.0,54.92096170200966,3.6248381143428903,14.519173985588683,3,15,0.0,207,35220365955111,167,14.2,711.1369018554688,6.064000129699707,0,0.0,0.0,,,,,0,,3,,
Raw,7524644,7528448000000,,,-1291005709998541312,0.0,54.92096170200966,3.6248381143428903,14.519173985588683,3,5,0.0,207,35220377283762,46,20.1,439.60675048828125,1.0720000267028809,0,0.0,0.0,,,,,0,,3,,
Raw,7524644,7528448000000,,,-1291005709998541312,0.0,54.92096170200966,3.6248381143428903,14.519173985588683,3,7,0.0,207,35220370019851,70,17.9,-729.55224609375,1.2914999723434448,0,0.0,0.0,,,,,0,,3,,
Raw,7524645,7528448000000,,,-1291005709998541312,0.0,54.92096170200966,3.6248381143428903,14.519173985588683,3,10,0.0,15,370038377451578,40,21.7,366.23919677734375,0.8119999766349792,0,0.0,0.0,,,,,0,,1,,
Raw,7524645,7528448000000,,,-1291005709998541312,0.0,54.92096170200966,3.6248381143428903,14.519173985588683,3,12,0.0,15,370038367765653,476,16.7,618.93017578125,13.927000999450684,0,0.0,0.0,,,,,0,,1,,
Raw,7524645,7528448000000,,,-1291005709998541312,0.0,54.92096170200966,3.6248381143428903,14.519173985588683,3,20,0.0,15,370038370330867,571,11.9,672.0791625976562,14.491500854492188,0,0.0,0.0,,,,,0,,1,,
Raw,7524645,7528448000000,,,-1291005709998541312,0.0,54.92096170200966,3.6248381143428903,14.519173985588683,3,22,0.0,15,370038359801956,31,23.2,-576.94189453125,0.7249999642372131,0,0.0,0.0,,,,,0,,1,,
Raw,7524646,7528448000000,,,-1291005709998541312,0.0,54.92096170200966,3.6248381143428903,14.519173985588683,3,23,0.0,15,370038371132367,1694,12.6,638.2354736328125,9.743000030517578,0,0.0,0.0,,,,,0,,1,,
Raw,7524646,7528448000000,,,-1291005709998541312,0.0,54.92096170200966,3.6248381143428903,14.519173985588683,3,25,0.0,15,370038377325983,40,21.8,290.1122131347656,0.8119999766349792,0,0.0,0.0,,,,,0,,1,,
Raw,7524646,7528448000000,,,-1291005709998541312,0.0,54.92096170200966,3.6248381143428903,14.519173985588683,3,26,0.0,15,370038370052186,40,21.3,-647.7311401367188,0.8614999651908875,0,0.0,0.0,,,,,0,,1,,
Raw,7524646,7528448000000,,,-1291005709998541312,0.0,54.92096170200966,3.6248381143428903,14.519173985588683,3,31,0.0,15,370038374965626,24,25.7,-120.15142822265625,0.5975000262260437,0,0.0,0.0,,,,,0,,1,,
Raw,7524646,7528448000000,,,-1291005709998541312,0.0,54.92096170200966,3.6248381143428903,14.519173985588683,3,32,0.0,15,370038376248572,268,15.5,-252.87173461914062,9.530500411987305,0,0.0,0.0,,,,,0,,1,,
Raw,7524646,7528448000000,,,-1291005709998541312,0.0,54.92096170200966,3.6248381143428903,14.519173985588683,3,1,0.0,783,370024322563527,1363,21.1,0.0864177718758583,24.753501892089844,0,0.0,0.0,,,,,0,,5,,
Raw,7524647,7528448000000,,,-1291005709998541312,0.0,54.92096170200966,3.6248381143428903,14.519173985588683,3,2,0.0,783,370024321622843,14,30.1,-0.2880592346191406,0.36500000953674316,0,0.0,0.0,,,,,0,,5,,
Raw,7524647,7528448000000,,,-1291005709998541312,0.0,54.92096170200966,3.6248381143428903,14.519173985588683,3,5,0.0,783,370024313481272,14,30.0,7.249490737915039,0.36500000953674316,0,0.0,0.0,,,,,0,,5,,
Raw,7524647,7528448000000,,,-1291005709998541312,0.0,54.92096170200966,3.6248381143428903,14.519173985588683,3,6,0.0,15,370024323657486,53,19.9,-106.42829132080078,0.7910000085830688,0,0.0,0.0,,,,,0,,5,,
Raw,7524647,7528448000000,,,-1291005709998541312,0.0,54.92096170200966,3.6248381143428903,14.519173985588683,3,7,0.0,15,370024323770448,53,19.9,-159.67123413085938,0.7910000085830688,0,0.0,0.0,,,,,0,,5,,
Raw,7524647,7528448000000,,,-1291005709998541312,0.0,54.92096170200966,3.6248381143428903,14.519173985588683,3,8,0.0,15,370024312136691,313,14.2,328.98284912109375,10.274500846862793,0,0.0,0.0,,,,,0,,5,,
Raw,7524648,7528448000000,,,-1291005709998541312,0.0,54.92096170200966,3.6248381143428903,14.519173985588683,3,10,0.0,15,370024319028365,121,16.0,-201.9679412841797,4.855000019073486,0,0.0,0.0,,,,,0,,5,,
Raw,7524648,7528448000000,,,-1291005709998541312,0.0,54.92096170200966,3.6248381143428903,14.519173985588683,3,13,0.0,15,370024315627302,19,27.3,353.2137145996094,0.20000000298023224,0,0.0,0.0,,,,,0,,5,,
Raw,7524648,7528448000000,,,-1291005709998541312,0.0,54.92096170200966,3.6248381143428903,14.519173985588683,3,16,0.0,15,370024323435439,84,16.2,-95.39561462402344,1.8309999704360962,0,0.0,0.0,,,,,0,,5,,
Raw,7524648,7528448000000,,,-1291005709998541312,0.0,54.92096170200966,3.6248381143428903,14.519173985588683,3,19,0.0,15,370024364090881,2392,15.1,562.8966064453125,26.837501525878906,0,0.0,0.0,,,,,0,,5,,
Raw,7524648,7528448000000,,,-1291005709998541312,0.0,54.92096170200966,3.6248381143428903,14.519173985588683,3,22,0.0,15,370024373382838,474,16.3,158.4805908203125,13.846000671386719,0,0.0,0.0,,,,,0,,5,,
Raw,7524649,7528448000000,,,-1291005709998541312,0.0,54.92096170200966,3.6248381143428903,14.519173985588683,3,26,0.0,15,370024366017443,19,27.7,-357.0926513671875,0.20000000298023224,0,0.0,0.0,,,,,0,,5,,
Raw,7524649,7528448000000,,,-1291005709998541312,0.0,54.92096170200966,3.6248381143428903,14.519173985588683,3,5,0.0,7183,370038356146921,19,27.1,-439.3123474121094,0.20000000298023224,0,0.0,0.0,,,,,0,,6,,
NMEA,$GPGSV,3,1,10,10,60,191,22,12,18,039,17,20,26,168,12,22,00,000,23*79,1606978020415
NMEA,$GPGSV,3,2,10,23,32,165,13,25,56,054,22,26,25,208,21,31,44,288,26*72,1606978020415
NMEA,$GPGSV,3,3,10,32,54,358,16,29,14,123,*7F,1606978020416
NMEA,$GLGSV,2,1,07,74,09,224,27,70,00,000,13,73,54,254,24,80,53,001,18*69,1606978020417
NMEA,$GLGSV,2,2,07,79,05,030,14,69,42,127,20,71,16,331,18*59,1606978020417
NMEA,$GAGSV,1,1,02,05,17,317,27,36,00,000,*6C,1606978020417
NMEA,$PQGSV,1,1,03,193,66,127,14,194,71,060,20,195,18,150,,0,5*6D,1606978020417
NMEA,$PQGSV,4,1,16,01,51,129,21,02,40,241,30,05,17,257,30,06,57,014,20,0,4*64,1606978020418
NMEA,$PQGSV,4,2,16,07,59,180,20,08,12,196,14,10,35,199,16,13,21,219,27,0,4*65,1606978020418
NMEA,$PQGSV,4,3,16,16,56,007,16,19,21,142,15,22,75,143,16,26,26,246,28,0,4*6E,1606978020418
NMEA,$PQGSV,4,4,16,03,59,202,,04,37,115,,09,45,330,,21,46,320,,0,4*6E,1606978020418
NMEA,$GNGSA,A,3,10,23,25,26,31,32,,,,,,,1.4,1.1,0.9,1*3D,1606978020420
NMEA,$GNGSA,A,2,74,,,,,,,,,,,,1.4,1.1,0.9,2*3C,1606978020421
NMEA,$GNGSA,A,2,05,,,,,,,,,,,,1.4,1.1,0.9,3*3B,1606978020421
NMEA,$PQGSA,A,2,13,26,,,,,,,,,,,1.4,1.1,0.9,4*37,1606978020421
NMEA,$GNVTG,,T,,M,0.0,N,0.0,K,A*3D,1606978020422
NMEA,$GNRMC,064701.00,A,2255.529773,N,12017.684637,E,0.0,,031220,2.8,W,A*1B,1606978020422
NMEA,$GNGGA,064701.00,2255.529773,N,12017.684637,E,1,10,1.1,17.2,M,17.5,M,,*40,1606978020422
Raw,7525581,7529448000000,,,-1291005709998541312,0.0,55.04487853613682,5.332904865719615,15.460675898653793,3,10,0.0,207,35221368007836,21,26.8,-614.6279907226562,0.323199987411499,0,0.0,0.0,,,,,0,,3,,
Raw,7525581,7529448000000,,,-1291005709998541312,0.0,55.04487853613682,5.332904865719615,15.460675898653793,3,6,0.0,207,35221381510841,3045,12.7,-332.5124206542969,37.04800033569336,0,0.0,0.0,,,,,0,,3,,
Raw,7525581,7529448000000,,,-1291005709998541312,0.0,55.04487853613682,5.332904865719615,15.460675898653793,3,9,0.0,207,35221379656081,31,23.4,-189.59934997558594,0.8949999809265137,0,0.0,0.0,,,,,0,,3,,
Raw,7525581,7529448000000,,,-1291005709998541312,0.0,55.04487853613682,5.332904865719615,15.460675898653793,3,16,0.0,207,35221379646155,1589,17.9,453.22564697265625,26.775001525878906,0,0.0,0.0,,,,,0,,3,,
Raw,7525581,7529448000000,,,-1291005709998541312,0.0,55.04487853613682,5.332904865719615,15.460675898653793,3,15,0.0,207,35221365952739,207,14.2,711.1369018554688,7.564000129699707,0,0.0,0.0,,,,,0,,3,,
Raw,7525582,7529448000000,,,-1291005709998541312,0.0,55.04487853613682,5.332904865719615,15.460675898653793,3,5,0.0,207,35221377282294,40,21.0,440.82269287109375,1.0119999647140503,0,0.0,0.0,,,,,0,,3,,
Raw,7525582,7529448000000,,,-1291005709998541312,0.0,55.04487853613682,5.332904865719615,15.460675898653793,3,7,0.0,207,35221370022285,79,17.9,-729.55224609375,2.7915000915527344,0,0.0,0.0,,,,,0,,3,,
Raw,7525582,7529448000000,,,-1291005709998541312,0.0,55.04487853613682,5.332904865719615,15.460675898653793,3,10,0.0,15,370039377450394,46,20.6,367.95184326171875,0.871999979019165,0,0.0,0.0,,,,,0,,1,,
Raw,7525582,7529448000000,,,-1291005709998541312,0.0,55.04487853613682,5.332904865719615,15.460675898653793,3,12,0.0,15,370039367763589,570,16.7,618.93017578125,15.427000999450684,0,0.0,0.0,,,,,0,,1,,
Raw,7525582,7529448000000,,,-1291005709998541312,0.0,55.04487853613682,5.332904865719615,15.460675898653793,3,20,0.0,15,370039370328633,152,13.6,667.9403076171875,4.491500377655029,0,0.0,0.0,,,,,0,,1,,
Raw,7525582,7529448000000,,,-1291005709998541312,0.0,55.04487853613682,5.332904865719615,15.460675898653793,3,22,0.0,15,370039359803881,31,23.6,-575.3529052734375,0.6649999618530273,0,0.0,0.0,,,,,0,,1,,
Raw,7525583,7529448000000,,,-1291005709998541312,0.0,55.04487853613682,5.332904865719615,15.460675898653793,3,23,0.0,15,370039371130220,366,12.2,638.378173828125,10.998000144958496,0,0.0,0.0,,,,,0,,1,,
Raw,7525583,7529448000000,,,-1291005709998541312,0.0,55.04487853613682,5.332904865719615,15.460675898653793,3,25,0.0,15,370039377325029,40,21.0,292.5099182128906,0.871999979019165,0,0.0,0.0,,,,,0,,1,,
Raw,7525583,7529448000000,,,-1291005709998541312,0.0,55.04487853613682,5.332904865719615,15.460675898653793,3,26,0.0,15,370039370054314,46,20.8,-647.4456787109375,0.8614999651908875,0,0.0,0.0,,,,,0,,1,,
Raw,7525583,7529448000000,,,-1291005709998541312,0.0,55.04487853613682,5.332904865719615,15.460675898653793,3,31,0.0,15,370039374966055,24,25.5,-119.00084686279297,0.4027999937534332,0,0.0,0.0,,,,,0,,1,,
Raw,7525583,7529448000000,,,-1291005709998541312,0.0,55.04487853613682,5.332904865719615,15.460675898653793,3,32,0.0,15,370039376249416,333,15.5,-252.87173461914062,11.030500411987305,0,0.0,0.0,,,,,0,,1,,
Raw,7525584,7529448000000,,,-1291005709998541312,0.0,55.04487853613682,5.332904865719615,15.460675898653793,3,1,0.0,783,370025322563527,1531,21.1,0.0864177718758583,26.253501892089844,0,0.0,0.0,,,,,0,,5,,
Raw,7525584,7529448000000,,,-1291005709998541312,0.0,55.04487853613682,5.332904865719615,15.460675898653793,3,2,0.0,783,370025321622835,16,29.9,9.448343276977539,0.36500000953674316,0,0.0,0.0,,,,,0,,5,,
Raw,7525584,7529448000000,,,-1291005709998541312,0.0,55.04487853613682,5.332904865719615,15.460675898653793,3,5,0.0,783,370025313481242,16,29.2,8.901030540466309,0.3850000202655792,0,0.0,0.0,,,,,0,,5,,
Raw,7525584,7529448000000,,,-1291005709998541312,0.0,55.04487853613682,5.332904865719615,15.460675898653793,3,6,0.0,15,370025323657832,53,19.1,-106.57231903076172,0.8510000109672546,0,0.0,0.0,,,,,0,,5,,
Raw,7525584,7529448000000,,,-1291005709998541312,0.0,55.04487853613682,5.332904865719615,15.460675898653793,3,7,0.0,15,370025323770925,61,18.9,-158.34616088867188,0.8510000109672546,0,0.0,0.0,,,,,0,,5,,
Raw,7525584,7529448000000,,,-1291005709998541312,0.0,55.04487853613682,5.332904865719615,15.460675898653793,3,8,0.0,15,370025312135594,382,14.2,328.98284912109375,11.774500846862793,0,0.0,0.0,,,,,0,,5,,
Raw,7525585,7529448000000,,,-1291005709998541312,0.0,55.04487853613682,5.332904865719615,15.460675898653793,3,10,0.0,15,370025319029056,102,15.5,-201.68946838378906,2.694999933242798,0,0.0,0.0,,,,,0,,5,,
Raw,7525585,7529448000000,,,-1291005709998541312,0.0,55.04487853613682,5.332904865719615,15.460675898653793,3,13,0.0,15,370025315626119,21,26.2,354.01336669921875,0.20000000298023224,0,0.0,0.0,,,,,0,,5,,
Raw,7525585,7529448000000,,,-1291005709998541312,0.0,55.04487853613682,5.332904865719615,15.460675898653793,3,16,0.0,15,370025323435859,70,17.5,-94.96353149414062,1.0010000467300415,0,0.0,0.0,,,,,0,,5,,
Raw,7525585,7529448000000,,,-1291005709998541312,0.0,55.04487853613682,5.332904865719615,15.460675898653793,3,19,0.0,15,370025364089004,2573,15.1,562.8966064453125,28.337501525878906,0,0.0,0.0,,,,,0,,5,,
Raw,7525585,7529448000000,,,-1291005709998541312,0.0,55.04487853613682,5.332904865719615,15.460675898653793,3,22,0.0,15,370025373382309,568,16.3,158.4805908203125,15.346000671386719,0,0.0,0.0,,,,,0,,5,,
Raw,7525585,7529448000000,,,-1291005709998541312,0.0,55.04487853613682,5.332904865719615,15.460675898653793,3,26,0.0,15,370025366018623,17,28.1,-356.1413269042969,0.20000000298023224,0,0.0,0.0,,,,,0,,5,,
Raw,7525586,7529448000000,,,-1291005709998541312,0.0,55.04487853613682,5.332904865719615,15.460675898653793,3,5,0.0,7183,370039356148375,19,27.0,-439.00750732421875,0.44050002098083496,0,0.0,0.0,,,,,0,,6,,
Fix,gps,22.925496,120.294744,34.657532,0.000000,9.648001,1606978022000
NMEA,$GPGSV,3,1,10,10,60,191,21,12,18,039,17,20,26,168,14,22,00,000,24*7B,1606978021397
NMEA,$GPGSV,3,2,10,23,32,165,12,25,56,054,21,26,25,208,21,31,44,288,26*70,1606978021398
NMEA,$GPGSV,3,3,10,32,54,358,16,29,14,123,*7F,1606978021398
NMEA,$GLGSV,2,1,07,74,09,224,27,70,00,000,13,73,54,254,23,80,53,001,18*6E,1606978021398
NMEA,$GLGSV,2,2,07,79,05,030,14,69,42,127,21,71,16,331,18*58,1606978021398
NMEA,$GAGSV,1,1,02,05,17,317,27,36,00,000,*6C,1606978021399
NMEA,$PQGSV,1,1,03,193,66,127,14,194,71,060,20,195,18,150,,0,5*6D,1606978021399
NMEA,$PQGSV,4,1,16,01,51,129,21,02,40,241,30,05,17,257,29,06,57,014,19,0,4*66,1606978021399
NMEA,$PQGSV,4,2,16,07,59,180,19,08,12,196,14,10,35,199,16,13,21,219,26,0,4*6E,1606978021399
NMEA,$PQGSV,4,3,16,16,56,007,18,19,21,142,15,22,75,143,16,26,26,246,28,0,4*60,1606978021400
NMEA,$PQGSV,4,4,16,03,59,202,,04,37,115,,09,45,330,,21,46,320,,0,4*6E,1606978021400
NMEA,$GNGSA,A,3,10,23,25,26,31,32,,,,,,,1.5,1.2,0.9,1*3F,1606978021401
NMEA,$GNGSA,A,2,74,,,,,,,,,,,,1.5,1.2,0.9,2*3E,1606978021401
NMEA,$GNGSA,A,2,05,,,,,,,,,,,,1.5,1.2,0.9,3*39,1606978021401
NMEA,$PQGSA,A,2,13,26,,,,,,,,,,,1.5,1.2,0.9,4*35,1606978021402
NMEA,$GNVTG,,T,,M,0.0,N,0.0,K,A*3D,1606978021402
NMEA,$GNRMC,064702.00,A,2255.529774,N,12017.684637,E,0.0,,031220,2.8,W,A*1F,1606978021402
NMEA,$GNGGA,064702.00,2255.529774,N,12017.684637,E,1,10,1.2,17.2,M,17.5,M,,*47,1606978021402
Raw,7526829,7530448000000,,,-1291005709998541312,0.0,54.65346839628182,7.688160339433018,13.956870536344079,3,10,0.0,207,35222368009777,17,28.2,-615.3155517578125,0.24530000984668732,0,0.0,0.0,,,,,0,,3,,
Raw,7526830,7530448000000,,,-1291005709998541312,0.0,54.65346839628182,7.688160339433018,13.956870536344079,3,9,0.0,207,35222379656792,35,22.6,-190.26416015625,0.9549999833106995,0,0.0,0.0,,,,,0,,3,,
Raw,7526830,7530448000000,,,-1291005709998541312,0.0,54.65346839628182,7.688160339433018,13.956870536344079,3,16,0.0,207,35222379644643,1768,17.9,453.22564697265625,28.275001525878906,0,0.0,0.0,,,,,0,,3,,
Raw,7526830,7530448000000,,,-1291005709998541312,0.0,54.65346839628182,7.688160339433018,13.956870536344079,3,15,0.0,207,35222365950367,258,14.2,711.1369018554688,9.064000129699707,0,0.0,0.0,,,,,0,,3,,
Raw,7526830,7530448000000,,,-1291005709998541312,0.0,54.65346839628182,7.688160339433018,13.956870536344079,3,5,0.0,207,35222377280723,46,20.2,440.0183410644531,1.0720000267028809,0,0.0,0.0,,,,,0,,3,,
Raw,7526830,7530448000000,,,-1291005709998541312,0.0,54.65346839628182,7.688160339433018,13.956870536344079,3,7,0.0,207,35222370024718,99,17.9,-729.55224609375,4.291500091552734,0,0.0,0.0,,,,,0,,3,,
Raw,7526831,7530448000000,,,-1291005709998541312,0.0,54.65346839628182,7.688160339433018,13.956870536344079,3,10,0.0,15,370040377449223,40,21.5,367.11456298828125,0.8119999766349792,0,0.0,0.0,,,,,0,,1,,
Raw,7526831,7530448000000,,,-1291005709998541312,0.0,54.65346839628182,7.688160339433018,13.956870536344079,3,12,0.0,15,370040367761524,674,16.7,618.93017578125,16.927000045776367,0,0.0,0.0,,,,,0,,1,,
Raw,7526831,7530448000000,,,-1291005709998541312,0.0,54.65346839628182,7.688160339433018,13.956870536344079,3,20,0.0,15,370040370326405,182,13.6,667.9403076171875,5.991500377655029,0,0.0,0.0,,,,,0,,1,,
Raw,7526831,7530448000000,,,-1291005709998541312,0.0,54.65346839628182,7.688160339433018,13.956870536344079,3,22,0.0,15,370040359805818,31,23.5,-577.3129272460938,0.6649999618530273,0,0.0,0.0,,,,,0,,1,,
Raw,7526831,7530448000000,,,-1291005709998541312,0.0,54.65346839628182,7.688160339433018,13.956870536344079,3,23,0.0,15,370040371128012,82,16.0,638.1973876953125,1.753000020980835,0,0.0,0.0,,,,,0,,1,,
Raw,7526832,7530448000000,,,-1291005709998541312,0.0,54.65346839628182,7.688160339433018,13.956870536344079,3,25,0.0,15,370040377324055,46,20.8,291.47283935546875,0.871999979019165,0,0.0,0.0,,,,,0,,1,,
Raw,7526832,7530448000000,,,-1291005709998541312,0.0,54.65346839628182,7.688160339433018,13.956870536344079,3,26,0.0,15,370040370056459,35,22.9,-647.0746459960938,0.7414999604225159,0,0.0,0.0,,,,,0,,1,,
Raw,7526832,7530448000000,,,-1291005709998541312,0.0,54.65346839628182,7.688160339433018,13.956870536344079,3,31,0.0,15,370040374966438,21,26.8,-119.6081314086914,0.20000000298023224,0,0.0,0.0,,,,,0,,1,,
Raw,7526832,7530448000000,,,-1291005709998541312,0.0,54.65346839628182,7.688160339433018,13.956870536344079,3,32,0.0,15,370040376250259,407,15.5,-252.87173461914062,12.530500411987305,0,0.0,0.0,,,,,0,,1,,
Raw,7526832,7530448000000,,,-1291005709998541312,0.0,54.65346839628182,7.688160339433018,13.956870536344079,3,1,0.0,783,370026322563527,1709,21.1,0.0864177718758583,27.753501892089844,0,0.0,0.0,,,,,0,,5,,
Raw,7526833,7530448000000,,,-1291005709998541312,0.0,54.65346839628182,7.688160339433018,13.956870536344079,3,2,0.0,783,370026321622830,14,30.3,5.703573226928711,0.36500000953674316,0,0.0,0.0,,,,,0,,5,,
Raw,7526833,7530448000000,,,-1291005709998541312,0.0,54.65346839628182,7.688160339433018,13.956870536344079,3,5,0.0,783,370026313481233,16,29.1,4.983425140380859,0.3850000202655792,0,0.0,0.0,,,,,0,,5,,
Raw,7526833,7530448000000,,,-1291005709998541312,0.0,54.65346839628182,7.688160339433018,13.956870536344079,3,6,0.0,15,370026323658214,53,19.2,-106.36107635498047,0.8510000109672546,0,0.0,0.0,,,,,0,,5,,
Raw,7526833,7530448000000,,,-1291005709998541312,0.0,54.65346839628182,7.688160339433018,13.956870536344079,3,7,0.0,15,370026323771498,46,20.9,-159.2583465576172,0.7310000061988831,0,0.0,0.0,,,,,0,,5,,
Raw,7526833,7530448000000,,,-1291005709998541312,0.0,54.65346839628182,7.688160339433018,13.956870536344079,3,8,0.0,15,370026312134497,461,14.2,328.98284912109375,13.274500846862793,0,0.0,0.0,,,,,0,,5,,
Raw,7526833,7530448000000,,,-1291005709998541312,0.0,54.65346839628182,7.688160339433018,13.956870536344079,3,10,0.0,15,370026319029695,61,18.6,-201.10377502441406,0.9449999928474426,0,0.0,0.0,,,,,0,,5,,
Raw,7526834,7530448000000,,,-1291005709998541312,0.0,54.65346839628182,7.688160339433018,13.956870536344079,3,13,0.0,15,370026315624927,21,26.2,353.2125244140625,0.20000000298023224,0,0.0,0.0,,,,,0,,5,,
Raw,7526834,7530448000000,,,-1291005709998541312,0.0,54.65346839628182,7.688160339433018,13.956870536344079,3,16,0.0,15,370026323436126,61,18.0,-95.68367767333984,0.9210000038146973,0,0.0,0.0,,,,,0,,5,,
Raw,7526834,7530448000000,,,-1291005709998541312,0.0,54.65346839628182,7.688160339433018,13.956870536344079,3,19,0.0,15,370026364087126,2763,15.1,562.8966064453125,29.837501525878906,0,0.0,0.0,,,,,0,,5,,
Raw,7526834,7530448000000,,,-1291005709998541312,0.0,54.65346839628182,7.688160339433018,13.956870536344079,3,22,0.0,15,370026373381781,672,16.3,158.4805908203125,16.84600067138672,0,0.0,0.0,,,,,0,,5,,
Raw,7526834,7530448000000,,,-1291005709998541312,0.0,54.65346839628182,7.688160339433018,13.956870536344079,3,26,0.0,15,370026366019829,16,29.1,-356.8709411621094,0.20000000298023224,0,0.0,0.0,,,,,0,,5,,
Raw,7526834,7530448000000,,,-1291005709998541312,0.0,54.65346839628182,7.688160339433018,13.956870536344079,3,5,0.0,7183,370040356149836,21,26.9,-438.1688232421875,0.20000000298023224,0,0.0,0.0,,,,,0,,6,,
Fix,gps,22.925496,120.294744,34.648926,0.000000,9.648001,1606978023000
NMEA,$GPGSV,3,1,10,10,60,191,22,12,18,039,17,20,26,168,14,22,00,000,24*78,1606978022399
NMEA,$GPGSV,3,2,10,23,32,165,16,25,56,054,21,26,25,208,23,31,44,288,27*77,1606978022400
NMEA,$GPGSV,3,3,10,32,54,358,16,29,14,123,*7F,1606978022400
NMEA,$GLGSV,2,1,06,74,09,224,28,73,54,254,23,80,53,001,18,79,05,030,14*68,1606978022402
NMEA,$GLGSV,2,2,06,69,42,127,20,71,16,331,18*65,1606978022402
NMEA,$GAGSV,1,1,02,05,17,317,27,36,00,000,*6C,1606978022404
NMEA,$PQGSV,1,1,03,193,66,127,14,194,71,060,20,195,18,150,,0,5*6D,1606978022404
NMEA,$PQGSV,4,1,16,01,51,129,21,02,40,241,30,05,17,257,29,06,57,014,19,0,4*66,1606978022405
NMEA,$PQGSV,4,2,16,07,59,180,21,08,12,196,14,10,35,199,19,13,21,219,26,0,4*6A,1606978022405
NMEA,$PQGSV,4,3,16,16,56,007,18,19,21,142,15,22,75,143,16,26,26,246,29,0,4*61,1606978022406
NMEA,$PQGSV,4,4,16,03,59,202,,04,37,115,,09,45,330,,21,46,320,,0,4*6E,1606978022406
NMEA,$GNGSA,A,3,10,23,25,26,31,,,,,,,,1.5,1.2,0.9,1*3E,1606978022408
NMEA,$GNGSA,A,2,74,,,,,,,,,,,,1.5,1.2,0.9,2*3E,1606978022408
NMEA,$GNGSA,A,2,05,,,,,,,,,,,,1.5,1.2,0.9,3*39,1606978022408
NMEA,$PQGSA,A,2,13,26,,,,,,,,,,,1.5,1.2,0.9,4*35,1606978022409
NMEA,$GNVTG,,T,,M,0.0,N,0.0,K,A*3D,1606978022409
NMEA,$GNRMC,064703.00,A,2255.529776,N,12017.684636,E,0.0,,031220,2.8,W,A*1D,1606978022409
NMEA,$GNGGA,064703.00,2255.529776,N,12017.684636,E,1,09,1.2,17.2,M,17.5,M,,*4D,1606978022409
NMEA,$GPGSV,3,1,10,10,60,191,21,12,18,039,17,20,26,168,14,22,00,000,23*7C,1606978023397
NMEA,$GPGSV,3,2,10,23,32,165,16,25,56,054,21,26,25,208,22,31,44,288,25*74,1606978023397
Raw,7527619,7531448000000,,,-1291005709998541312,0.0,58.38624929310754,6.933030417004484,17.140804108984476,3,10,0.0,207,35223368011782,21,26.5,-615.7861938476562,0.323199987411499,0,0.0,0.0,,,,,0,,3,,
Raw,7527620,7531448000000,,,-1291005709998541312,0.0,58.38624929310754,6.933030417004484,17.140804108984476,3,9,0.0,207,35223379657274,35,22.4,-191.75294494628906,0.9549999833106995,0,0.0,0.0,,,,,0,,3,,
Raw,7527620,7531448000000,,,-1291005709998541312,0.0,58.38624929310754,6.933030417004484,17.140804108984476,3,16,0.0,207,35223379643131,1958,17.9,453.22564697265625,29.775001525878906,0,0.0,0.0,,,,,0,,3,,
Raw,7527621,7531448000000,,,-1291005709998541312,0.0,58.38624929310754,6.933030417004484,17.140804108984476,3,15,0.0,207,35223365947995,318,14.2,711.1369018554688,10.564000129699707,0,0.0,0.0,,,,,0,,3,,
Raw,7527621,7531448000000,,,-1291005709998541312,0.0,58.38624929310754,6.933030417004484,17.140804108984476,3,5,0.0,207,35223377279357,53,19.9,438.3253479003906,1.1420000791549683,0,0.0,0.0,,,,,0,,3,,
Raw,7527622,7531448000000,,,-1291005709998541312,0.0,58.38624929310754,6.933030417004484,17.140804108984476,3,7,0.0,207,35223370027036,117,14.9,-729.739013671875,3.071500062942505,0,0.0,0.0,,,,,0,,3,,
Raw,7527622,7531448000000,,,-1291005709998541312,0.0,58.38624929310754,6.933030417004484,17.140804108984476,3,10,0.0,15,370041377447958,46,20.6,364.8500671386719,0.871999979019165,0,0.0,0.0,,,,,0,,1,,
Raw,7527623,7531448000000,,,-1291005709998541312,0.0,58.38624929310754,6.933030417004484,17.140804108984476,3,12,0.0,15,370041367759460,788,16.7,618.93017578125,18.427000045776367,0,0.0,0.0,,,,,0,,1,,
Raw,7527623,7531448000000,,,-1291005709998541312,0.0,58.38624929310754,6.933030417004484,17.140804108984476,3,20,0.0,15,370041370324177,222,13.6,667.9403076171875,7.491500377655029,0,0.0,0.0,,,,,0,,1,,
Raw,7527624,7531448000000,,,-1291005709998541312,0.0,58.38624929310754,6.933030417004484,17.140804108984476,3,22,0.0,15,370041359807696,35,22.5,-578.8352661132812,0.7249999642372131,0,0.0,0.0,,,,,0,,1,,
Raw,7527624,7531448000000,,,-1291005709998541312,0.0,58.38624929310754,6.933030417004484,17.140804108984476,3,23,0.0,15,370041371125883,95,16.0,638.1973876953125,3.253000020980835,0,0.0,0.0,,,,,0,,1,,
Raw,7527624,7531448000000,,,-1291005709998541312,0.0,58.38624929310754,6.933030417004484,17.140804108984476,3,25,0.0,15,370041377323064,46,20.5,288.8087158203125,0.871999979019165,0,0.0,0.0,,,,,0,,1,,
Raw,7527625,7531448000000,,,-1291005709998541312,0.0,58.38624929310754,6.933030417004484,17.140804108984476,3,26,0.0,15,370041370058584,35,22.3,-650.5569458007812,0.8014999628067017,0,0.0,0.0,,,,,0,,1,,
Raw,7527625,7531448000000,,,-1291005709998541312,0.0,58.38624929310754,6.933030417004484,17.140804108984476,3,31,0.0,15,370041374966865,27,24.8,-120.8840560913086,0.6375000476837158,0,0.0,0.0,,,,,0,,1,,
Raw,7527626,7531448000000,,,-1291005709998541312,0.0,58.38624929310754,6.933030417004484,17.140804108984476,3,32,0.0,15,370041376251103,492,15.5,-252.87173461914062,14.030500411987305,0,0.0,0.0,,,,,0,,1,,
Raw,7527626,7531448000000,,,-1291005709998541312,0.0,58.38624929310754,6.933030417004484,17.140804108984476,3,1,0.0,783,370027322563526,1897,21.1,0.0864177718758583,29.253501892089844,0,0.0,0.0,,,,,0,,5,,
Raw,7527627,7531448000000,,,-1291005709998541312,0.0,58.38624929310754,6.933030417004484,17.140804108984476,3,2,0.0,783,370027321622816,16,29.5,-0.21124345064163208,0.3850000202655792,0,0.0,0.0,,,,,0,,5,,
Raw,7527627,7531448000000,,,-1291005709998541312,0.0,58.38624929310754,6.933030417004484,17.140804108984476,3,5,0.0,783,370027313481213,16,29.4,7.595161437988281,0.3850000202655792,0,0.0,0.0,,,,,0,,5,,
Raw,7527628,7531448000000,,,-1291005709998541312,0.0,58.38624929310754,6.933030417004484,17.140804108984476,3,6,0.0,15,370027323658550,61,18.5,-107.01400756835938,0.9210000038146973,0,0.0,0.0,,,,,0,,5,,
Raw,7527628,7531448000000,,,-1291005709998541312,0.0,58.38624929310754,6.933030417004484,17.140804108984476,3,7,0.0,15,370027323772029,53,20.9,-159.2583465576172,2.2309999465942383,0,0.0,0.0,,,,,0,,5,,
Raw,7527629,7531448000000,,,-1291005709998541312,0.0,58.38624929310754,6.933030417004484,17.140804108984476,3,8,0.0,15,370027312133399,551,14.2,328.98284912109375,14.774500846862793,0,0.0,0.0,,,,,0,,5,,
Raw,7527629,7531448000000,,,-1291005709998541312,0.0,58.38624929310754,6.933030417004484,17.140804108984476,3,10,0.0,15,370027319030365,69,18.6,-201.10377502441406,2.444999933242798,0,0.0,0.0,,,,,0,,5,,
Raw,7527630,7531448000000,,,-1291005709998541312,0.0,58.38624929310754,6.933030417004484,17.140804108984476,3,13,0.0,15,370027315623783,27,24.6,351.3746643066406,0.5989999771118164,0,0.0,0.0,,,,,0,,5,,
Raw,7527630,7531448000000,,,-1291005709998541312,0.0,58.38624929310754,6.933030417004484,17.140804108984476,3,16,0.0,15,370027323436445,69,18.0,-95.68367767333984,2.4210000038146973,0,0.0,0.0,,,,,0,,5,,
Raw,7527631,7531448000000,,,-1291005709998541312,0.0,58.38624929310754,6.933030417004484,17.140804108984476,3,19,0.0,15,370027364085248,2963,15.1,562.8966064453125,31.337501525878906,0,0.0,0.0,,,,,0,,5,,
Raw,7527631,7531448000000,,,-1291005709998541312,0.0,58.38624929310754,6.933030417004484,17.140804108984476,3,22,0.0,15,370027373381252,786,16.3,158.4805908203125,18.34600067138672,0,0.0,0.0,,,,,0,,5,,
Raw,7527632,7531448000000,,,-1291005709998541312,0.0,58.38624929310754,6.933030417004484,17.140804108984476,3,26,0.0,15,370027366021011,17,28.0,-359.0274353027344,0.4255000054836273,0,0.0,0.0,,,,,0,,5,,
Raw,7527632,7531448000000,,,-1291005709998541312,0.0,58.38624929310754,6.933030417004484,17.140804108984476,3,5,0.0,7183,370041356151324,21,26.3,-441.31005859375,0.4805000126361847,0,0.0,0.0,,,,,0,,6,,
NMEA,$GPGSV,3,3,10,32,54,358,16,29,14,123,*7F,1606978023398
NMEA,$GLGSV,2,1,07,74,09,224,27,73,54,254,22,80,53,001,18,79,05,030,14*67,1606978023398
Fix,gps,22.925496,120.294744,34.648560,0.000000,9.648001,1606978024000
NMEA,$GLGSV,2,2,07,69,42,127,20,71,16,331,15,70,00,000,*5E,1606978023399
NMEA,$GAGSV,1,1,02,05,17,317,26,36,00,000,*6D,1606978023399
NMEA,$PQGSV,1,1,03,193,66,127,14,194,71,060,20,195,18,150,,0,5*6D,1606978023399
NMEA,$PQGSV,4,1,16,01,51,129,21,02,40,241,30,05,17,257,29,06,57,014,19,0,4*66,1606978023400
NMEA,$PQGSV,4,2,16,07,59,180,21,08,12,196,14,10,35,199,19,13,21,219,25,0,4*69,1606978023400
NMEA,$PQGSV,4,3,16,16,56,007,18,19,21,142,15,22,75,143,16,26,26,246,28,0,4*60,1606978023400
NMEA,$PQGSV,4,4,16,03,59,202,,04,37,115,,09,45,330,,21,46,320,,0,4*6E,1606978023401
NMEA,$GNGSA,A,3,10,23,25,26,31,,,,,,,,1.5,1.2,0.9,1*3E,1606978023403
NMEA,$GNGSA,A,2,74,,,,,,,,,,,,1.5,1.2,0.9,2*3E,1606978023403
NMEA,$GNGSA,A,2,05,,,,,,,,,,,,1.5,1.2,0.9,3*39,1606978023404
NMEA,$PQGSA,A,2,13,26,,,,,,,,,,,1.5,1.2,0.9,4*35,1606978023404
NMEA,$GNVTG,,T,,M,0.0,N,0.0,K,A*3D,1606978023404
NMEA,$GNRMC,064704.00,A,2255.529778,N,12017.684636,E,0.0,,031220,2.8,W,A*14,1606978023404
NMEA,$GNGGA,064704.00,2255.529778,N,12017.684636,E,1,09,1.2,17.2,M,17.5,M,,*44,1606978023407
Fix,gps,22.925496,120.294744,34.638306,0.000000,9.648001,1606978025000
Raw,7528624,7532448000000,,,-1291005709998541312,0.0,62.72975588217378,2.1781276047512645,18.47203874853917,3,10,0.0,207,35224368013892,19,27.5,-618.0902099609375,0.2533000111579895,0,0.0,0.0,,,,,0,,3,,
Raw,7528625,7532448000000,,,-1291005709998541312,0.0,62.72975588217378,2.1781276047512645,18.47203874853917,3,9,0.0,207,35224379657893,31,23.5,-193.02635192871094,0.8949999809265137,0,0.0,0.0,,,,,0,,3,,
Raw,7528626,7532448000000,,,-1291005709998541312,0.0,62.72975588217378,2.1781276047512645,18.47203874853917,3,16,0.0,207,35224379641620,2157,17.9,453.22564697265625,31.275001525878906,0,0.0,0.0,,,,,0,,3,,
Raw,7528626,7532448000000,,,-1291005709998541312,0.0,62.72975588217378,2.1781276047512645,18.47203874853917,3,15,0.0,207,35224365945420,153,13.4,710.0983276367188,4.684000015258789,0,0.0,0.0,,,,,0,,3,,
Raw,7528626,7532448000000,,,-1291005709998541312,0.0,62.72975588217378,2.1781276047512645,18.47203874853917,3,5,0.0,207,35224377277771,40,21.2,437.7547607421875,1.0119999647140503,0,0.0,0.0,,,,,0,,3,,
Raw,7528627,7532448000000,,,-1291005709998541312,0.0,62.72975588217378,2.1781276047512645,18.47203874853917,3,7,0.0,207,35224370029471,137,14.9,-729.739013671875,4.571500301361084,0,0.0,0.0,,,,,0,,3,,
Raw,7528627,7532448000000,,,-1291005709998541312,0.0,62.72975588217378,2.1781276047512645,18.47203874853917,3,10,0.0,15,370042377446702,53,19.8,363.0993347167969,0.9419999718666077,0,0.0,0.0,,,,,0,,1,,
Raw,7528628,7532448000000,,,-1291005709998541312,0.0,62.72975588217378,2.1781276047512645,18.47203874853917,3,12,0.0,15,370042367757395,912,16.7,618.93017578125,19.927000045776367,0,0.0,0.0,,,,,0,,1,,
Raw,7528628,7532448000000,,,-1291005709998541312,0.0,62.72975588217378,2.1781276047512645,18.47203874853917,3,20,0.0,15,370042370321949,272,13.6,667.9403076171875,8.991500854492188,0,0.0,0.0,,,,,0,,1,,
Raw,7528628,7532448000000,,,-1291005709998541312,0.0,62.72975588217378,2.1781276047512645,18.47203874853917,3,22,0.0,15,370042359809699,27,24.2,-579.9009399414062,0.6649999618530273,0,0.0,0.0,,,,,0,,1,,
Raw,7528629,7532448000000,,,-1291005709998541312,0.0,62.72975588217378,2.1781276047512645,18.47203874853917,3,23,0.0,15,370042371123754,118,16.0,638.1973876953125,4.753000259399414,0,0.0,0.0,,,,,0,,1,,
Raw,7528629,7532448000000,,,-1291005709998541312,0.0,62.72975588217378,2.1781276047512645,18.47203874853917,3,25,0.0,15,370042377322035,53,19.4,288.8467712402344,1.0220000743865967,0,0.0,0.0,,,,,0,,1,,
Raw,7528629,7532448000000,,,-1291005709998541312,0.0,62.72975588217378,2.1781276047512645,18.47203874853917,3,26,0.0,15,370042370060790,31,23.2,-650.1668701171875,0.7414999604225159,0,0.0,0.0,,,,,0,,1,,
Raw,7528630,7532448000000,,,-1291005709998541312,0.0,62.72975588217378,2.1781276047512645,18.47203874853917,3,31,0.0,15,370042374967286,27,24.5,-122.48252868652344,0.6375000476837158,0,0.0,0.0,,,,,0,,1,,
Raw,7528630,7532448000000,,,-1291005709998541312,0.0,62.72975588217378,2.1781276047512645,18.47203874853917,3,32,0.0,15,370042376251946,586,15.5,-252.87173461914062,15.530500411987305,0,0.0,0.0,,,,,0,,1,,
Raw,7528631,7532448000000,,,-1291005709998541312,0.0,62.72975588217378,2.1781276047512645,18.47203874853917,3,1,0.0,783,370028322563526,2095,21.1,0.0864177718758583,30.753501892089844,0,0.0,0.0,,,,,0,,5,,
Raw,7528631,7532448000000,,,-1291005709998541312,0.0,62.72975588217378,2.1781276047512645,18.47203874853917,3,2,0.0,783,370028321622815,16,29.9,0.3264671564102173,0.36500000953674316,0,0.0,0.0,,,,,0,,5,,
Raw,7528632,7532448000000,,,-1291005709998541312,0.0,62.72975588217378,2.1781276047512645,18.47203874853917,3,5,0.0,783,370028313481197,16,29.1,5.242678165435791,0.3850000202655792,0,0.0,0.0,,,,,0,,5,,
Raw,7528632,7532448000000,,,-1291005709998541312,0.0,62.72975588217378,2.1781276047512645,18.47203874853917,3,6,0.0,15,370028323658907,69,18.5,-107.01400756835938,2.4210000038146973,0,0.0,0.0,,,,,0,,5,,
Raw,7528632,7532448000000,,,-1291005709998541312,0.0,62.72975588217378,2.1781276047512645,18.47203874853917,3,7,0.0,15,370028323772526,73,17.1,-161.26516723632812,1.7510000467300415,0,0.0,0.0,,,,,0,,5,,
Raw,7528633,7532448000000,,,-1291005709998541312,0.0,62.72975588217378,2.1781276047512645,18.47203874853917,3,8,0.0,15,370028312132302,650,14.2,328.98284912109375,16.274499893188477,0,0.0,0.0,,,,,0,,5,,
Raw,7528633,7532448000000,,,-1291005709998541312,0.0,62.72975588217378,2.1781276047512645,18.47203874853917,3,10,0.0,15,370028319031036,87,18.6,-201.10377502441406,3.945000171661377,0,0.0,0.0,,,,,0,,5,,
Raw,7528634,7532448000000,,,-1291005709998541312,0.0,62.72975588217378,2.1781276047512645,18.47203874853917,3,13,0.0,15,370028315622596,19,27.0,350.40484619140625,0.4790000021457672,0,0.0,0.0,,,,,0,,5,,
Raw,7528634,7532448000000,,,-1291005709998541312,0.0,62.72975588217378,2.1781276047512645,18.47203874853917,3,16,0.0,15,370028323436764,87,18.0,-95.68367767333984,3.9210000038146973,0,0.0,0.0,,,,,0,,5,,
Raw,7528634,7532448000000,,,-1291005709998541312,0.0,62.72975588217378,2.1781276047512645,18.47203874853917,3,19,0.0,15,370028364083371,3173,15.1,562.8966064453125,32.837501525878906,0,0.0,0.0,,,,,0,,5,,
Raw,7528635,7532448000000,,,-1291005709998541312,0.0,62.72975588217378,2.1781276047512645,18.47203874853917,3,22,0.0,15,370028373380723,909,16.3,158.4805908203125,19.84600067138672,0,0.0,0.0,,,,,0,,5,,
Raw,7528635,7532448000000,,,-1291005709998541312,0.0,62.72975588217378,2.1781276047512645,18.47203874853917,3,26,0.0,15,370028366022214,14,30.0,-360.064453125,0.37549999356269836,0,0.0,0.0,,,,,0,,5,,
Raw,7528636,7532448000000,,,-1291005709998541312,0.0,62.72975588217378,2.1781276047512645,18.47203874853917,3,5,0.0,7183,370042356152794,21,26.3,-442.8324279785156,0.4805000126361847,0,0.0,0.0,,,,,0,,6,,
NMEA,$GPGSV,3,1,10,10,60,191,20,12,18,039,17,20,26,168,14,22,00,000,24*7A,1606978024395
NMEA,$GPGSV,3,2,10,23,32,165,16,25,56,054,19,26,25,208,23,31,44,288,25*7E,1606978024395
NMEA,$GPGSV,3,3,10,32,54,358,16,29,14,123,*7F,1606978024395
NMEA,$GLGSV,2,1,07,74,09,224,28,73,54,254,24,80,53,001,18,79,05,030,13*69,1606978024398
NMEA,$GLGSV,2,2,07,69,42,127,21,71,16,331,15,70,00,000,*5F,1606978024398
NMEA,$GAGSV,1,1,02,05,17,317,26,36,00,000,*6D,1606978024399
NMEA,$PQGSV,1,1,03,193,66,127,14,194,71,060,20,195,18,150,,0,5*6D,1606978024399
NMEA,$PQGSV,4,1,16,01,51,129,21,02,40,241,30,05,17,257,29,06,57,014,19,0,4*66,1606978024399
NMEA,$PQGSV,4,2,16,07,59,180,17,08,12,196,14,10,35,199,19,13,21,219,27,0,4*6E,1606978024399
NMEA,$PQGSV,4,3,16,16,56,007,18,19,21,142,15,22,75,143,16,26,26,246,30,0,4*69,1606978024399
NMEA,$PQGSV,4,4,16,03,59,202,,04,37,115,,09,45,330,,21,46,320,,0,4*6E,1606978024399
NMEA,$GNGSA,A,3,10,23,25,26,31,,,,,,,,1.5,1.2,0.9,1*3E,1606978024400
NMEA,$GNGSA,A,2,74,,,,,,,,,,,,1.5,1.2,0.9,2*3E,1606978024401
NMEA,$GNGSA,A,2,05,,,,,,,,,,,,1.5,1.2,0.9,3*39,1606978024401
NMEA,$PQGSA,A,2,13,26,,,,,,,,,,,1.5,1.2,0.9,4*35,1606978024401
NMEA,$GNVTG,,T,,M,0.0,N,0.0,K,A*3D,1606978024401
NMEA,$GNRMC,064705.00,A,2255.529780,N,12017.684635,E,0.0,,031220,2.8,W,A*11,1606978024401
NMEA,$GNGGA,064705.00,2255.529780,N,12017.684635,E,1,09,1.2,17.2,M,17.5,M,,*41,1606978024401
Raw,7529800,7533448000000,,,-1291005709998541312,0.0,63.09017771854997,-3.798904358836489,18.743419678117515,3,10,0.0,207,35225368015851,19,27.2,-620.6715087890625,0.2533000111579895,0,0.0,0.0,,,,,0,,3,,
Raw,7529800,7533448000000,,,-1291005709998541312,0.0,63.09017771854997,-3.798904358836489,18.743419678117515,3,9,0.0,207,35225379658574,27,24.0,-195.67620849609375,0.8450000286102295,0,0.0,0.0,,,,,0,,3,,
Raw,7529801,7533448000000,,,-1291005709998541312,0.0,63.09017771854997,-3.798904358836489,18.743419678117515,3,16,0.0,207,35225379640108,2367,17.9,453.22564697265625,32.775001525878906,0,0.0,0.0,,,,,0,,3,,
