# 
# Header Description:
# 
# Version: v2.0.0.1 Platform: 8.0.0 Manufacturer: Sony Model: G8142
# 
# Raw,ElapsedRealtimeMillis,TimeNanos,LeapSecond,TimeUncertaintyNanos,FullBiasNanos,BiasNanos,BiasUncertaintyNanos,DriftNanosPerSecond,DriftUncertaintyNanosPerSecond,HardwareClockDiscontinuityCount,Svid,TimeOffsetNanos,State,ReceivedSvTimeNanos,ReceivedSvTimeUncertaintyNanos,Cn0DbHz,PseudorangeRateMetersPerSecond,PseudorangeRateUncertaintyMetersPerSecond,AccumulatedDeltaRangeState,AccumulatedDeltaRangeMeters,AccumulatedDeltaRangeUncertaintyMeters,CarrierFrequencyHz,CarrierCycles,CarrierPhase,CarrierPhaseUncertainty,MultipathIndicator,SnrInDb,ConstellationType,AgcDb,CarrierFrequencyHz
# 
# Fix,Provider,Latitude,Longitude,Altitude,Speed,Accuracy,(UTC)TimeInMs
# 
# Nav,Svid,Type,Status,MessageId,Sub-messageId,Data(Bytes)
# 
Fix,gps,22.925453,120.294725,34.073914,0.000000,9.648001,1606978691000
Raw,8195604,8199448000000,,,-1291005709998534656,0.0,68.57716653030366,-4.960603059446004,22.65178700298405,3,10,0.0,207,35891369327301,88,17.8,-571.1310424804688,3.5400002002716064,0,0.0,0.0,,,,,0,,3,,
Raw,8195604,8199448000000,,,-1291005709998534656,0.0,68.57716653030366,-4.960603059446004,22.65178700298405,3,9,0.0,207,35891379988766,70,17.8,-116.70533752441406,1.274999976158142,0,0.0,0.0,,,,,0,,3,,
Raw,8195605,8199448000000,,,-1291005709998534656,0.0,68.57716653030366,-4.960603059446004,22.65178700298405,3,15,0.0,207,35891364383797,2161,12.4,693.8455200195312,31.052501678466797,0,0.0,0.0,,,,,0,,3,,
Raw,8195605,8199448000000,,,-1291005709998534656,0.0,68.57716653030366,-4.960603059446004,22.65178700298405,3,5,0.0,207,35891376209884,754,15.1,514.949462890625,17.980501174926758,0,0.0,0.0,,,,,0,,3,,
Raw,8195605,8199448000000,,,-1291005709998534656,0.0,68.57716653030366,-4.960603059446004,22.65178700298405,3,10,0.0,15,370709376549989,256,16.1,436.7239685058594,9.530500411987305,0,0.0,0.0,,,,,0,,1,,
Raw,8195606,8199448000000,,,-1291005709998534656,0.0,68.57716653030366,-4.960603059446004,22.65178700298405,3,22,0.0,15,370709361059050,40,21.6,-554.1161499023438,0.7879999876022339,0,0.0,0.0,,,,,0,,1,,
Raw,8195606,8199448000000,,,-1291005709998534656,0.0,68.57716653030366,-4.960603059446004,22.65178700298405,3,23,0.0,15,370709369670150,848,12.3,664.6292114257812,18.735000610351562,0,0.0,0.0,,,,,0,,1,,
Raw,8195607,8199448000000,,,-1291005709998534656,0.0,68.57716653030366,-4.960603059446004,22.65178700298405,3,25,0.0,15,370709376585200,88,18.6,364.9547119140625,4.020500183105469,0,0.0,0.0,,,,,0,,1,,
Raw,8195607,8199448000000,,,-1291005709998534656,0.0,68.57716653030366,-4.960603059446004,22.65178700298405,3,26,0.0,15,370709371459074,17,28.2,-616.9150390625,0.049800001084804535,0,0.0,0.0,,,,,0,,1,,
Raw,8195607,8199448000000,,,-1291005709998534656,0.0,68.57716653030366,-4.960603059446004,22.65178700298405,3,31,0.0,15,370709375191111,61,18.1,-92.04505157470703,1.0989999771118164,0,0.0,0.0,,,,,0,,1,,
Raw,8195608,8199448000000,,,-1291005709998534656,0.0,68.57716653030366,-4.960603059446004,22.65178700298405,3,32,0.0,15,370709376790300,31,23.0,-234.9556121826172,0.750499963760376,0,0.0,0.0,,,,,0,,1,,
Raw,8195608,8199448000000,,,-1291005709998534656,0.0,68.57716653030366,-4.960603059446004,22.65178700298405,3,2,0.0,783,370695321610058,78,24.0,6.356507778167725,5.075000286102295,0,0.0,0.0,,,,,0,,5,,
Raw,8195609,8199448000000,,,-1291005709998534656,0.0,68.57716653030366,-4.960603059446004,22.65178700298405,3,5,0.0,783,370695313464018,13,31.3,-1.104227066040039,0.33500000834465027,0,0.0,0.0,,,,,0,,5,,
Raw,8195609,8199448000000,,,-1291005709998534656,0.0,68.57716653030366,-4.960603059446004,22.65178700298405,3,6,0.0,15,370695323899398,481,11.5,-112.03584289550781,12.851000785827637,0,0.0,0.0,,,,,0,,5,,
Raw,8195609,8199448000000,,,-1291005709998534656,0.0,68.57716653030366,-4.960603059446004,22.65178700298405,3,8,0.0,15,370695311423686,53,20.9,306.1301574707031,2.243000030517578,0,0.0,0.0,,,,,0,,5,,
Raw,8195610,8199448000000,,,-1291005709998534656,0.0,68.57716653030366,-4.960603059446004,22.65178700298405,3,10,0.0,15,370695319462007,150,15.2,-190.0230712890625,5.695000171661377,0,0.0,0.0,,,,,0,,5,,
Raw,8195610,8199448000000,,,-1291005709998534656,0.0,68.57716653030366,-4.960603059446004,22.65178700298405,3,13,0.0,15,370695314838285,14,30.4,342.5993957519531,0.046800002455711365,0,0.0,0.0,,,,,0,,5,,
Raw,8195611,8199448000000,,,-1291005709998534656,0.0,68.57716653030366,-4.960603059446004,22.65178700298405,3,16,0.0,15,370695323653037,155,16.2,-101.12800598144531,6.331000328063965,0,0.0,0.0,,,,,0,,5,,
Raw,8195611,8199448000000,,,-1291005709998534656,0.0,68.57716653030366,-4.960603059446004,22.65178700298405,3,21,0.0,15,370695370251285,252,16.0,-353.8711853027344,9.341500282287598,0,0.0,0.0,,,,,0,,5,,
Raw,8195611,8199448000000,,,-1291005709998534656,0.0,68.57716653030366,-4.960603059446004,22.65178700298405,3,22,0.0,15,370695372963973,53,19.7,211.72354125976562,0.8644999861717224,0,0.0,0.0,,,,,0,,5,,
Raw,8195612,8199448000000,,,-1291005709998534656,0.0,68.57716653030366,-4.960603059446004,22.65178700298405,3,26,0.0,15,370695366772819,24,25.7,-326.97259521484375,0.39079999923706055,0,0.0,0.0,,,,,0,,5,,
Raw,8195612,8199448000000,,,-1291005709998534656,0.0,68.57716653030366,-4.960603059446004,22.65178700298405,3,5,0.0,7183,370709357134593,251,16.0,-443.62213134765625,9.272000312805176,0,0.0,0.0,,,,,0,,6,,
Fix,gps,22.925452,120.294727,34.020630,0.000000,9.648001,1606978692000
NMEA,$GPGSV,3,1,10,10,54,188,16,22,04,319,23,23,27,165,12,25,52,047,19*7C,1606978689392
NMEA,$GPGSV,3,2,10,26,30,209,28,31,45,296,16,32,58,005,25,12,14,037,*7A,1606978689393
NMEA,$GPGSV,3,3,10,20,21,167,,29,16,118,*7D,1606978689393
NMEA,$GLGSV,2,1,07,74,14,230,14,73,56,265,19,79,00,000,12,69,37,133,15*6E,1606978689393
NMEA,$GLGSV,2,2,07,70,70,004,,80,48,005,,71,21,333,*51,1606978689393
NMEA,$GAGSV,1,1,01,05,20,319,16*52,1606978689394
NMEA,$PQGSV,1,1,03,193,65,132,17,194,71,054,11,195,20,149,,0,5*6F,1606978689395
NMEA,$PQGSV,4,1,16,02,40,241,24,05,17,257,31,06,58,015,12,08,10,195,21,0,4*64,1606978689395
NMEA,$PQGSV,4,2,16,10,37,202,15,13,18,217,30,16,57,009,16,21,50,317,16,0,4*68,1606978689396
NMEA,$PQGSV,4,3,16,22,71,151,21,26,28,250,28,01,51,129,,03,59,202,,0,4*68,1606978689396
NMEA,$PQGSV,4,4,16,04,37,115,,07,61,182,,09,45,331,,19,17,143,,0,4*63,1606978689397
NMEA,$GNGSA,A,3,10,22,23,25,26,31,32,,,,,,1.3,1.0,0.8,1*3A,1606978689397
NMEA,$GNGSA,A,2,73,74,,,,,,,,,,,1.3,1.0,0.8,2*3F,1606978689398
NMEA,$GNGSA,A,2,05,,,,,,,,,,,,1.3,1.0,0.8,3*3C,1606978689398
NMEA,$PQGSA,A,2,13,26,,,,,,,,,,,1.3,1.0,0.8,4*30,1606978689398
NMEA,$GNVTG,,T,,M,0.0,N,0.0,K,A*3D,1606978689398
NMEA,$GNRMC,065810.00,A,2255.527361,N,12017.683504,E,0.0,,031220,2.8,W,A*18,1606978689399
NMEA,$GNGGA,065810.00,2255.527361,N,12017.683504,E,1,12,1.0,16.4,M,17.5,M,,*47,1606978689400
NMEA,$GPGSV,3,1,10,10,54,188,16,22,04,319,23,23,27,165,12,25,52,047,19*7C,1606978690391
NMEA,$GPGSV,3,2,10,26,30,209,27,31,45,296,20,32,58,005,26,12,14,037,*73,1606978690391
NMEA,$GPGSV,3,3,10,20,21,167,,29,16,118,*7D,1606978690392
NMEA,$GLGSV,2,1,07,74,14,230,18,73,56,265,19,79,00,000,12,69,37,133,15*62,1606978690392
NMEA,$GLGSV,2,2,07,70,70,004,,80,48,005,,71,21,333,*51,1606978690392
NMEA,$GAGSV,1,1,01,05,20,319,16*52,1606978690393
Raw,8196626,8200448000000,,,-1291005709998534656,0.0,66.80377555312589,-12.271434635461276,21.707598638213057,3,10,0.0,207,35892369329034,84,16.8,-572.6130981445312,2.130000114440918,0,0.0,0.0,,,,,0,,3,,
Raw,8196627,8200448000000,,,-1291005709998534656,0.0,66.80377555312589,-12.271434635461276,21.707598638213057,3,9,0.0,207,35892379989158,61,18.9,-116.34952545166016,1.1950000524520874,0,0.0,0.0,,,,,0,,3,,
Raw,8196628,8200448000000,,,-1291005709998534656,0.0,66.80377555312589,-12.271434635461276,21.707598638213057,3,15,0.0,207,35892364381482,2367,12.4,693.8455200195312,32.5525016784668,0,0.0,0.0,,,,,0,,3,,
Raw,8196628,8200448000000,,,-1291005709998534656,0.0,66.80377555312589,-12.271434635461276,21.707598638213057,3,5,0.0,207,35892376208166,874,15.1,514.949462890625,19.480501174926758,0,0.0,0.0,,,,,0,,3,,
Raw,8196629,8200448000000,,,-1291005709998534656,0.0,66.80377555312589,-12.271434635461276,21.707598638213057,3,10,0.0,15,370710376548532,321,16.1,436.7239685058594,11.030500411987305,0,0.0,0.0,,,,,0,,1,,
Raw,8196630,8200448000000,,,-1291005709998534656,0.0,66.80377555312589,-12.271434635461276,21.707598638213057,3,22,0.0,15,370710361060883,35,22.4,-553.9067993164062,0.7879999876022339,0,0.0,0.0,,,,,0,,1,,
Raw,8196630,8200448000000,,,-1291005709998534656,0.0,66.80377555312589,-12.271434635461276,21.707598638213057,3,23,0.0,15,370710369667933,973,12.3,664.6292114257812,20.235000610351562,0,0.0,0.0,,,,,0,,1,,
Raw,8196631,8200448000000,,,-1291005709998534656,0.0,66.80377555312589,-12.271434635461276,21.707598638213057,3,25,0.0,15,370710376583983,116,18.6,364.9547119140625,5.520500183105469,0,0.0,0.0,,,,,0,,1,,
Raw,8196632,8200448000000,,,-1291005709998534656,0.0,66.80377555312589,-12.271434635461276,21.707598638213057,3,26,0.0,15,370710371461141,19,27.4,-616.5859985351562,0.05780000239610672,0,0.0,0.0,,,,,0,,1,,
Raw,8196632,8200448000000,,,-1291005709998534656,0.0,66.80377555312589,-12.271434635461276,21.707598638213057,3,31,0.0,15,370710375191418,70,18.1,-92.04505157470703,2.5989999771118164,0,0.0,0.0,,,,,0,,1,,
Raw,8196633,8200448000000,,,-1291005709998534656,0.0,66.80377555312589,-12.271434635461276,21.707598638213057,3,32,0.0,15,370710376791088,31,23.3,-234.78433227539062,0.765500009059906,0,0.0,0.0,,,,,0,,1,,
Raw,8196633,8200448000000,,,-1291005709998534656,0.0,66.80377555312589,-12.271434635461276,21.707598638213057,3,2,0.0,783,370696321610110,42,22.8,-2.6885528564453125,2.115000009536743,0,0.0,0.0,,,,,0,,5,,
Raw,8196634,8200448000000,,,-1291005709998534656,0.0,66.80377555312589,-12.271434635461276,21.707598638213057,3,5,0.0,783,370696313464010,13,31.3,-1.5075099468231201,0.33500000834465027,0,0.0,0.0,,,,,0,,5,,
Raw,8196635,8200448000000,,,-1291005709998534656,0.0,66.80377555312589,-12.271434635461276,21.707598638213057,3,6,0.0,15,370696323899772,566,11.5,-112.03584289550781,14.351000785827637,0,0.0,0.0,,,,,0,,5,,
Raw,8196635,8200448000000,,,-1291005709998534656,0.0,66.80377555312589,-12.271434635461276,21.707598638213057,3,8,0.0,15,370696311422774,63,18.8,303.3167724609375,1.6130000352859497,0,0.0,0.0,,,,,0,,5,,
Raw,8196636,8200448000000,,,-1291005709998534656,0.0,66.80377555312589,-12.271434635461276,21.707598638213057,3,10,0.0,15,370696319462722,102,15.3,-195.3137664794922,2.694999933242798,0,0.0,0.0,,,,,0,,5,,
Raw,8196637,8200448000000,,,-1291005709998534656,0.0,66.80377555312589,-12.271434635461276,21.707598638213057,3,13,0.0,15,370696314837132,13,31.1,342.79315185546875,0.06120000407099724,0,0.0,0.0,,,,,0,,5,,
Raw,8196637,8200448000000,,,-1291005709998534656,0.0,66.80377555312589,-12.271434635461276,21.707598638213057,3,16,0.0,15,370696323653390,124,14.3,-107.18684387207031,3.511000156402588,0,0.0,0.0,,,,,0,,5,,
Raw,8196638,8200448000000,,,-1291005709998534656,0.0,66.80377555312589,-12.271434635461276,21.707598638213057,3,21,0.0,15,370696370252466,316,16.0,-353.8711853027344,10.841500282287598,0,0.0,0.0,,,,,0,,5,,
Raw,8196638,8200448000000,,,-1291005709998534656,0.0,66.80377555312589,-12.271434635461276,21.707598638213057,3,22,0.0,15,370696372963278,61,18.8,211.7139434814453,0.8794999718666077,0,0.0,0.0,,,,,0,,5,,
Raw,8196639,8200448000000,,,-1291005709998534656,0.0,66.80377555312589,-12.271434635461276,21.707598638213057,3,26,0.0,15,370696366773924,21,26.6,-326.6145935058594,0.12020000070333481,0,0.0,0.0,,,,,0,,5,,
Raw,8196640,8200448000000,,,-1291005709998534656,0.0,66.80377555312589,-12.271434635461276,21.707598638213057,3,5,0.0,7183,370710357136073,315,16.0,-443.62213134765625,10.772000312805176,0,0.0,0.0,,,,,0,,6,,
NMEA,$PQGSV,1,1,03,193,65,132,17,194,71,054,11,195,20,149,,0,5*6F,1606978690393
NMEA,$PQGSV,4,1,16,02,40,241,24,05,17,257,31,06,58,015,12,08,10,195,21,0,4*64,1606978690394
NMEA,$PQGSV,4,2,16,10,37,202,15,13,18,217,31,16,57,009,16,21,50,317,16,0,4*69,1606978690394
NMEA,$PQGSV,4,3,16,22,71,151,21,26,28,250,28,01,51,129,,03,59,202,,0,4*68,1606978690395
NMEA,$PQGSV,4,4,16,04,37,115,,07,61,182,,09,45,331,,19,17,143,,0,4*63,1606978690395
NMEA,$GNGSA,A,3,10,22,23,25,26,31,32,,,,,,1.3,1.0,0.8,1*3A,1606978690396
NMEA,$GNGSA,A,2,73,74,,,,,,,,,,,1.3,1.0,0.8,2*3F,1606978690400
NMEA,$GNGSA,A,2,05,,,,,,,,,,,,1.3,1.0,0.8,3*3C,1606978690401
NMEA,$PQGSA,A,2,13,26,,,,,,,,,,,1.3,1.0,0.8,4*30,1606978690401
NMEA,$GNVTG,,T,,M,0.0,N,0.0,K,A*3D,1606978690402
NMEA,$GNRMC,065811.00,A,2255.527205,N,12017.683525,E,0.0,,031220,2.8,W,A*19,1606978690402
NMEA,$GNGGA,065811.00,2255.527205,N,12017.683525,E,1,12,1.0,16.6,M,17.5,M,,*44,1606978690402
NMEA,$GPGSV,3,1,10,10,54,188,16,22,04,319,22,23,27,165,12,25,52,047,19*7D,1606978691391
NMEA,$GPGSV,3,2,10,26,30,209,28,31,45,296,18,32,58,005,23,12,14,037,*72,1606978691391
NMEA,$GPGSV,3,3,10,20,21,167,,29,16,118,*7D,1606978691391
NMEA,$GLGSV,2,1,07,74,14,230,18,73,56,265,18,79,00,000,12,69,37,133,15*63,1606978691393
NMEA,$GLGSV,2,2,07,70,70,004,,80,48,005,,71,21,333,*51,1606978691393
NMEA,$GAGSV,1,1,01,05,20,319,16*52,1606978691394
NMEA,$PQGSV,1,1,03,193,65,132,19,194,71,054,11,195,20,149,,0,5*61,1606978691395
NMEA,$PQGSV,4,1,16,02,40,241,24,05,17,257,31,06,58,015,12,08,10,195,21,0,4*64,1606978691395
NMEA,$PQGSV,4,2,16,10,37,202,15,13,18,217,30,16,57,009,16,21,50,317,16,0,4*68,1606978691395
NMEA,$PQGSV,4,3,16,22,71,151,20,26,28,250,26,01,51,129,,03,59,202,,0,4*67,1606978691395
NMEA,$PQGSV,4,4,16,04,37,115,,07,61,182,,09,45,331,,19,17,143,,0,4*63,1606978691395
NMEA,$GNGSA,A,3,10,22,23,25,26,31,32,,,,,,1.3,1.0,0.8,1*3A,1606978691396
NMEA,$GNGSA,A,2,73,74,,,,,,,,,,,1.3,1.0,0.8,2*3F,1606978691397
NMEA,$GNGSA,A,2,05,,,,,,,,,,,,1.3,1.0,0.8,3*3C,1606978691397
NMEA,$PQGSA,A,2,13,26,,,,,,,,,,,1.3,1.0,0.8,4*30,1606978691397
NMEA,$GNVTG,,T,,M,0.0,N,0.0,K,A*3D,1606978691397
NMEA,$GNRMC,065812.00,A,2255.527139,N,12017.683595,E,0.0,,031220,2.8,W,A*1D,1606978691398
NMEA,$GNGGA,065812.00,2255.527139,N,12017.683595,E,1,12,1.0,16.6,M,17.5,M,,*40,1606978691404
Raw,8197640,8201448000000,,,-1291005709998534656,0.0,60.73543772799894,-12.285611274925182,20.036525472027783,3,10,0.0,207,35893369330762,40,21.7,-571.581298828125,1.0,0,0.0,0.0,,,,,0,,3,,
Raw,8197641,8201448000000,,,-1291005709998534656,0.0,60.73543772799894,-12.285611274925182,20.036525472027783,3,9,0.0,207,35893379989546,70,18.9,-116.34952545166016,2.695000171661377,0,0.0,0.0,,,,,0,,3,,
Raw,8197641,8201448000000,,,-1291005709998534656,0.0,60.73543772799894,-12.285611274925182,20.036525472027783,3,15,0.0,207,35893364379168,2583,12.4,693.8455200195312,34.0525016784668,0,0.0,0.0,,,,,0,,3,,
Raw,8197641,8201448000000,,,-1291005709998534656,0.0,60.73543772799894,-12.285611274925182,20.036525472027783,3,5,0.0,207,35893376206448,1004,15.1,514.949462890625,20.980501174926758,0,0.0,0.0,,,,,0,,3,,
Raw,8197642,8201448000000,,,-1291005709998534656,0.0,60.73543772799894,-12.285611274925182,20.036525472027783,3,10,0.0,15,370711376547076,395,16.1,436.7239685058594,12.530500411987305,0,0.0,0.0,,,,,0,,1,,
Raw,8197642,8201448000000,,,-1291005709998534656,0.0,60.73543772799894,-12.285611274925182,20.036525472027783,3,22,0.0,15,370711361062768,31,23.7,-553.2407836914062,0.6679999828338623,0,0.0,0.0,,,,,0,,1,,
Raw,8197643,8201448000000,,,-1291005709998534656,0.0,60.73543772799894,-12.285611274925182,20.036525472027783,3,23,0.0,15,370711369665717,1107,12.3,664.6292114257812,21.735000610351562,0,0.0,0.0,,,,,0,,1,,
Raw,8197643,8201448000000,,,-1291005709998534656,0.0,60.73543772799894,-12.285611274925182,20.036525472027783,3,25,0.0,15,370711376582765,155,18.6,364.9547119140625,7.020500183105469,0,0.0,0.0,,,,,0,,1,,
Raw,8197644,8201448000000,,,-1291005709998534656,0.0,60.73543772799894,-12.285611274925182,20.036525472027783,3,26,0.0,15,370711371463211,17,28.3,-615.8451538085938,0.049800001084804535,0,0.0,0.0,,,,,0,,1,,
Raw,8197644,8201448000000,,,-1291005709998534656,0.0,60.73543772799894,-12.285611274925182,20.036525472027783,3,31,0.0,15,370711375191725,88,18.1,-92.04505157470703,4.098999977111816,0,0.0,0.0,,,,,0,,1,,
Raw,8197644,8201448000000,,,-1291005709998534656,0.0,60.73543772799894,-12.285611274925182,20.036525472027783,3,32,0.0,15,370711376791882,27,24.1,-234.3656768798828,0.6904999613761902,0,0.0,0.0,,,,,0,,1,,
Raw,8197645,8201448000000,,,-1291005709998534656,0.0,60.73543772799894,-12.285611274925182,20.036525472027783,3,2,0.0,783,370697321610119,59,22.8,-2.6885528564453125,3.6150002479553223,0,0.0,0.0,,,,,0,,5,,
Raw,8197645,8201448000000,,,-1291005709998534656,0.0,60.73543772799894,-12.285611274925182,20.036525472027783,3,5,0.0,783,370697313464003,12,32.1,2.7941746711730957,0.3050000071525574,0,0.0,0.0,,,,,0,,5,,
Raw,8197646,8201448000000,,,-1291005709998534656,0.0,60.73543772799894,-12.285611274925182,20.036525472027783,3,6,0.0,15,370697323900145,662,11.5,-112.03584289550781,15.851000785827637,0,0.0,0.0,,,,,0,,5,,
Raw,8197646,8201448000000,,,-1291005709998534656,0.0,60.73543772799894,-12.285611274925182,20.036525472027783,3,8,0.0,15,370697311421762,76,18.8,303.3167724609375,3.1130001544952393,0,0.0,0.0,,,,,0,,5,,
Raw,8197647,8201448000000,,,-1291005709998534656,0.0,60.73543772799894,-12.285611274925182,20.036525472027783,3,10,0.0,15,370697319463374,121,15.3,-195.3137664794922,4.195000171661377,0,0.0,0.0,,,,,0,,5,,
Raw,8197647,8201448000000,,,-1291005709998534656,0.0,60.73543772799894,-12.285611274925182,20.036525472027783,3,13,0.0,15,370697314835996,14,30.2,343.50274658203125,0.046800002455711365,0,0.0,0.0,,,,,0,,5,,
Raw,8197647,8201448000000,,,-1291005709998534656,0.0,60.73543772799894,-12.285611274925182,20.036525472027783,3,16,0.0,15,370697323653748,148,14.3,-107.18684387207031,5.011000156402588,0,0.0,0.0,,,,,0,,5,,
Raw,8197648,8201448000000,,,-1291005709998534656,0.0,60.73543772799894,-12.285611274925182,20.036525472027783,3,21,0.0,15,370697370253646,390,16.0,-353.8711853027344,12.341500282287598,0,0.0,0.0,,,,,0,,5,,
Raw,8197648,8201448000000,,,-1291005709998534656,0.0,60.73543772799894,-12.285611274925182,20.036525472027783,3,22,0.0,15,370697372962572,69,18.8,211.7139434814453,2.379500150680542,0,0.0,0.0,,,,,0,,5,,
Raw,8197649,8201448000000,,,-1291005709998534656,0.0,60.73543772799894,-12.285611274925182,20.036525472027783,3,26,0.0,15,370697366775022,27,24.3,-325.31488037109375,0.5855000019073486,0,0.0,0.0,,,,,0,,5,,
Raw,8197649,8201448000000,,,-1291005709998534656,0.0,60.73543772799894,-12.285611274925182,20.036525472027783,3,5,0.0,7183,370711357137553,389,16.0,-443.62213134765625,12.272000312805176,0,0.0,0.0,,,,,0,,6,,
Fix,gps,22.925452,120.294726,34.149048,0.000000,9.648001,1606978693000
Fix,gps,22.925452,120.294727,34.220032,0.000000,9.648001,1606978694000
NMEA,$GPGSV,3,1,10,10,54,188,16,22,04,319,22,23,27,165,12,25,52,047,19*7D,1606978692391
NMEA,$GPGSV,3,2,10,26,30,209,27,31,45,296,18,32,58,005,23,12,14,037,*7D,1606978692392
NMEA,$GPGSV,3,3,10,20,21,167,,29,16,118,*7D,1606978692392
NMEA,$GLGSV,2,1,07,74,14,230,17,73,56,265,19,79,00,000,12,69,37,133,15*6D,1606978692392
NMEA,$GLGSV,2,2,07,70,70,004,,80,48,005,,71,21,333,*51,1606978692392
NMEA,$GAGSV,1,1,01,05,20,319,16*52,1606978692393
NMEA,$PQGSV,1,1,03,193,65,132,19,194,71,054,11,195,20,149,,0,5*61,1606978692393
NMEA,$PQGSV,4,1,16,02,40,241,23,05,17,257,31,06,58,015,12,08,10,195,19,0,4*68,1606978692393
NMEA,$PQGSV,4,2,16,10,37,202,15,13,18,217,31,16,57,009,14,21,50,317,16,0,4*6B,1606978692393
NMEA,$PQGSV,4,3,16,22,71,151,19,26,28,250,27,01,51,129,,03,59,202,,0,4*6C,1606978692395
NMEA,$PQGSV,4,4,16,04,37,115,,07,61,182,,09,45,331,,19,17,143,,0,4*63,1606978692395
NMEA,$GNGSA,A,3,10,22,23,25,26,31,32,,,,,,1.5,1.3,0.8,1*3F,1606978692396
NMEA,$GNGSA,A,2,73,74,,,,,,,,,,,1.5,1.3,0.8,2*3A,1606978692397
NMEA,$GNGSA,A,2,05,,,,,,,,,,,,1.5,1.3,0.8,3*39,1606978692397
NMEA,$PQGSA,A,2,13,26,,,,,,,,,,,1.5,1.3,0.8,4*35,1606978692397
NMEA,$GNVTG,,T,,M,0.0,N,0.0,K,A*3D,1606978692397
Raw,8198649,8202448000000,,,-1291005709998534656,0.0,58.24865365866572,-11.151825268801487,18.23139693421713,3,10,0.0,207,35894369332713,53,19.3,-570.2306518554688,1.1299999952316284,0,0.0,0.0,,,,,0,,3,,
Raw,8198651,8202448000000,,,-1291005709998534656,0.0,58.24865365866572,-11.151825268801487,18.23139693421713,3,9,0.0,207,35894379989934,89,18.9,-116.34952545166016,4.195000171661377,0,0.0,0.0,,,,,0,,3,,
Raw,8198652,8202448000000,,,-1291005709998534656,0.0,58.24865365866572,-11.151825268801487,18.23139693421713,3,15,0.0,207,35894364376854,2809,12.4,693.8455200195312,35.5525016784668,0,0.0,0.0,,,,,0,,3,,
Raw,8198653,8202448000000,,,-1291005709998534656,0.0,58.24865365866572,-11.151825268801487,18.23139693421713,3,5,0.0,207,35894376204731,1144,15.1,514.949462890625,22.480501174926758,0,0.0,0.0,,,,,0,,3,,
Raw,8198654,8202448000000,,,-1291005709998534656,0.0,58.24865365866572,-11.151825268801487,18.23139693421713,3,10,0.0,15,370712376545619,479,16.1,436.7239685058594,14.030500411987305,0,0.0,0.0,,,,,0,,1,,
Raw,8198655,8202448000000,,,-1291005709998534656,0.0,58.24865365866572,-11.151825268801487,18.23139693421713,3,22,0.0,15,370712361064657,53,19.8,-552.1085815429688,0.9179999828338623,0,0.0,0.0,,,,,0,,1,,
Raw,8198656,8202448000000,,,-1291005709998534656,0.0,58.24865365866572,-11.151825268801487,18.23139693421713,3,23,0.0,15,370712369663500,1251,12.3,664.6292114257812,23.235000610351562,0,0.0,0.0,,,,,0,,1,,
Raw,8198659,8202448000000,,,-1291005709998534656,0.0,58.24865365866572,-11.151825268801487,18.23139693421713,3,25,0.0,15,370712376581584,137,14.1,362.7663269042969,4.500500202178955,0,0.0,0.0,,,,,0,,1,,
Raw,8198660,8202448000000,,,-1291005709998534656,0.0,58.24865365866572,-11.151825268801487,18.23139693421713,3,26,0.0,15,370712371465243,19,27.3,-614.3662109375,0.05780000239610672,0,0.0,0.0,,,,,0,,1,,
Raw,8198662,8202448000000,,,-1291005709998534656,0.0,58.24865365866572,-11.151825268801487,18.23139693421713,3,31,0.0,15,370712375192032,117,18.1,-92.04505157470703,5.598999977111816,0,0.0,0.0,,,,,0,,1,,
Raw,8198664,8202448000000,,,-1291005709998534656,0.0,58.24865365866572,-11.151825268801487,18.23139693421713,3,32,0.0,15,370712376792711,27,24.7,-232.947998046875,0.655500054359436,0,0.0,0.0,,,,,0,,1,,
Raw,8198665,8202448000000,,,-1291005709998534656,0.0,58.24865365866572,-11.151825268801487,18.23139693421713,3,2,0.0,783,370698321610128,86,22.8,-2.6885528564453125,5.115000247955322,0,0.0,0.0,,,,,0,,5,,
Raw,8198667,8202448000000,,,-1291005709998534656,0.0,58.24865365866572,-11.151825268801487,18.23139693421713,3,5,0.0,783,370698313463995,13,31.9,2.909398317337036,0.3050000071525574,0,0.0,0.0,,,,,0,,5,,
Raw,8198668,8202448000000,,,-1291005709998534656,0.0,58.24865365866572,-11.151825268801487,18.23139693421713,3,6,0.0,15,370698323900519,767,11.5,-112.03584289550781,17.351001739501953,0,0.0,0.0,,,,,0,,5,,
Raw,8198669,8202448000000,,,-1291005709998534656,0.0,58.24865365866572,-11.151825268801487,18.23139693421713,3,8,0.0,15,370698311420670,73,17.5,306.3221740722656,1.7630000114440918,0,0.0,0.0,,,,,0,,5,,
Raw,8198671,8202448000000,,,-1291005709998534656,0.0,58.24865365866572,-11.151825268801487,18.23139693421713,3,10,0.0,15,370698319464025,150,15.3,-195.3137664794922,5.695000171661377,0,0.0,0.0,,,,,0,,5,,
Raw,8198672,8202448000000,,,-1291005709998534656,0.0,58.24865365866572,-11.151825268801487,18.23139693421713,3,13,0.0,15,370698314834848,14,30.3,344.91290283203125,0.06180000305175781,0,0.0,0.0,,,,,0,,5,,
Raw,8198676,8202448000000,,,-1291005709998534656,0.0,58.24865365866572,-11.151825268801487,18.23139693421713,3,16,0.0,15,370698323654105,182,14.3,-107.18684387207031,6.511000156402588,0,0.0,0.0,,,,,0,,5,,
Raw,8198678,8202448000000,,,-1291005709998534656,0.0,58.24865365866572,-11.151825268801487,18.23139693421713,3,21,0.0,15,370698370254826,474,16.0,-353.8711853027344,13.841500282287598,0,0.0,0.0,,,,,0,,5,,
Raw,8198679,8202448000000,,,-1291005709998534656,0.0,58.24865365866572,-11.151825268801487,18.23139693421713,3,22,0.0,15,370698372961914,64,18.1,213.73995971679688,1.684499979019165,0,0.0,0.0,,,,,0,,5,,
Raw,8198681,8202448000000,,,-1291005709998534656,0.0,58.24865365866572,-11.151825268801487,18.23139693421713,3,26,0.0,15,370698366776087,21,26.4,-324.3634033203125,0.12020000070333481,0,0.0,0.0,,,,,0,,5,,
Raw,8198683,8202448000000,,,-1291005709998534656,0.0,58.24865365866572,-11.151825268801487,18.23139693421713,3,5,0.0,7183,370712357139033,472,16.0,-443.62213134765625,13.772000312805176,0,0.0,0.0,,,,,0,,6,,
NMEA,$GNRMC,065813.00,A,2255.527107,N,12017.683580,E,0.0,,031220,2.8,W,A*15,1606978692397
NMEA,$GNGGA,065813.00,2255.527107,N,12017.683580,E,1,12,1.3,16.7,M,17.5,M,,*4A,1606978692397
NMEA,$GPGSV,3,1,10,10,54,188,16,22,04,319,24,23,27,165,12,25,52,047,19*7B,1606978693403
NMEA,$GPGSV,3,2,10,26,30,209,28,31,45,296,18,32,58,005,24,12,14,037,*75,1606978693404
NMEA,$GPGSV,3,3,10,20,21,167,,29,16,118,*7D,1606978693405
NMEA,$GLGSV,2,1,07,74,14,230,22,73,56,265,19,79,00,000,12,69,37,133,15*6B,1606978693406
NMEA,$GLGSV,2,2,07,70,70,004,,80,48,005,,71,21,333,*51,1606978693407
NMEA,$GAGSV,1,1,01,05,20,319,16*52,1606978693409
NMEA,$PQGSV,1,1,03,193,65,132,18,194,71,054,11,195,20,149,,0,5*60,1606978693410
NMEA,$PQGSV,4,1,16,02,40,241,23,05,17,257,32,06,58,015,12,08,10,195,19,0,4*6B,1606978693411
NMEA,$PQGSV,4,2,16,10,37,202,15,13,18,217,30,16,57,009,14,21,50,317,16,0,4*6A,1606978693412
NMEA,$PQGSV,4,3,16,22,71,151,19,26,28,250,24,01,51,129,,03,59,202,,0,4*6F,1606978693414
NMEA,$PQGSV,4,4,16,04,37,115,,07,61,182,,09,45,331,,19,17,143,,0,4*63,1606978693414
NMEA,$GNGSA,A,3,22,25,26,31,32,,,,,,,,1.5,1.3,0.8,1*3F,1606978693417
NMEA,$GNGSA,A,2,73,74,,,,,,,,,,,1.5,1.3,0.8,2*3A,1606978693418
NMEA,$PQGSA,A,2,13,26,,,,,,,,,,,1.5,1.3,0.8,4*35,1606978693419
NMEA,$GNVTG,,T,,M,0.0,N,0.0,K,A*3D,1606978693419
NMEA,$GNRMC,065814.00,A,2255.527104,N,12017.683605,E,0.0,,031220,2.8,W,A*1F,1606978693420
NMEA,$GNGGA,065814.00,2255.527104,N,12017.683605,E,1,09,1.3,16.8,M,17.5,M,,*45,1606978693420
Raw,8199605,8203448000000,,,-1291005709998534656,0.0,57.57759208790958,-7.134480097958364,17.99809554299909,3,10,0.0,207,35895369334666,61,18.9,-570.2212524414062,1.2100000381469727,0,0.0,0.0,,,,,0,,3,,
Raw,8199605,8203448000000,,,-1291005709998534656,0.0,57.57759208790958,-7.134480097958364,17.99809554299909,3,9,0.0,207,35895379990247,102,15.3,-113.98995208740234,2.955000162124634,0,0.0,0.0,,,,,0,,3,,
Raw,8199606,8203448000000,,,-1291005709998534656,0.0,57.57759208790958,-7.134480097958364,17.99809554299909,3,15,0.0,207,35895364374539,3045,12.4,693.8455200195312,37.0525016784668,0,0.0,0.0,,,,,0,,3,,
Raw,8199606,8203448000000,,,-1291005709998534656,0.0,57.57759208790958,-7.134480097958364,17.99809554299909,3,5,0.0,207,35895376203013,1294,15.1,514.949462890625,23.980501174926758,0,0.0,0.0,,,,,0,,3,,
Raw,8199607,8203448000000,,,-1291005709998534656,0.0,57.57759208790958,-7.134480097958364,17.99809554299909,3,7,0.0,207,35895371651079,1612,12.2,-724.9287109375,7.4830002784729,0,0.0,0.0,,,,,0,,3,,
Raw,8199607,8203448000000,,,-1291005709998534656,0.0,57.57759208790958,-7.134480097958364,17.99809554299909,3,10,0.0,15,370713376544162,574,16.1,436.7239685058594,15.530500411987305,0,0.0,0.0,,,,,0,,1,,
Raw,8199607,8203448000000,,,-1291005709998534656,0.0,57.57759208790958,-7.134480097958364,17.99809554299909,3,22,0.0,15,370713361066459,40,21.7,-551.661376953125,0.7879999876022339,0,0.0,0.0,,,,,0,,1,,
Raw,8199608,8203448000000,,,-1291005709998534656,0.0,57.57759208790958,-7.134480097958364,17.99809554299909,3,23,0.0,15,370713369661283,1406,12.3,664.6292114257812,24.735000610351562,0,0.0,0.0,,,,,0,,1,,
Raw,8199608,8203448000000,,,-1291005709998534656,0.0,57.57759208790958,-7.134480097958364,17.99809554299909,3,25,0.0,15,370713376580499,70,17.3,362.83294677734375,1.2055000066757202,0,0.0,0.0,,,,,0,,1,,
Raw,8199609,8203448000000,,,-1291005709998534656,0.0,57.57759208790958,-7.134480097958364,17.99809554299909,3,26,0.0,15,370713371467316,21,26.9,-614.255615234375,0.12770000100135803,0,0.0,0.0,,,,,0,,1,,
Raw,8199609,8203448000000,,,-1291005709998534656,0.0,57.57759208790958,-7.134480097958364,17.99809554299909,3,31,0.0,15,370713375192497,125,14.1,-90.04696655273438,3.764000177383423,0,0.0,0.0,,,,,0,,1,,
Raw,8199609,8203448000000,,,-1291005709998534656,0.0,57.57759208790958,-7.134480097958364,17.99809554299909,3,32,0.0,15,370713376793453,27,24.8,-232.55789184570312,0.655500054359436,0,0.0,0.0,,,,,0,,1,,
Raw,8199610,8203448000000,,,-1291005709998534656,0.0,57.57759208790958,-7.134480097958364,17.99809554299909,3,2,0.0,783,370699321610120,34,24.4,-5.309891700744629,2.075000047683716,0,0.0,0.0,,,,,0,,5,,
Raw,8199610,8203448000000,,,-1291005709998534656,0.0,57.57759208790958,-7.134480097958364,17.99809554299909,3,5,0.0,783,370699313463992,13,31.7,2.8517866134643555,0.33500000834465027,0,0.0,0.0,,,,,0,,5,,
Raw,8199611,8203448000000,,,-1291005709998534656,0.0,57.57759208790958,-7.134480097958364,17.99809554299909,3,6,0.0,15,370699323900893,883,11.5,-112.03584289550781,18.851001739501953,0,0.0,0.0,,,,,0,,5,,
Raw,8199611,8203448000000,,,-1291005709998534656,0.0,57.57759208790958,-7.134480097958364,17.99809554299909,3,8,0.0,15,370699311419676,61,18.7,305.1315612792969,0.9329999685287476,0,0.0,0.0,,,,,0,,5,,
Raw,8199611,8203448000000,,,-1291005709998534656,0.0,57.57759208790958,-7.134480097958364,17.99809554299909,3,10,0.0,15,370699319464677,189,15.3,-195.3137664794922,7.195000171661377,0,0.0,0.0,,,,,0,,5,,
Raw,8199612,8203448000000,,,-1291005709998534656,0.0,57.57759208790958,-7.134480097958364,17.99809554299909,3,13,0.0,15,370699314833693,13,31.1,344.9438171386719,0.06120000407099724,0,0.0,0.0,,,,,0,,5,,
Raw,8199612,8203448000000,,,-1291005709998534656,0.0,57.57759208790958,-7.134480097958364,17.99809554299909,3,16,0.0,15,370699323654487,101,15.5,-105.33366394042969,2.6710000038146973,0,0.0,0.0,,,,,0,,5,,
Raw,8199613,8203448000000,,,-1291005709998534656,0.0,57.57759208790958,-7.134480097958364,17.99809554299909,3,21,0.0,15,370699370256007,568,16.0,-353.8711853027344,15.341500282287598,0,0.0,0.0,,,,,0,,5,,
Raw,8199613,8203448000000,,,-1291005709998534656,0.0,57.57759208790958,-7.134480097958364,17.99809554299909,3,22,0.0,15,370699372961171,61,18.0,215.314697265625,0.9494999647140503,0,0.0,0.0,,,,,0,,5,,
Raw,8199613,8203448000000,,,-1291005709998534656,0.0,57.57759208790958,-7.134480097958364,17.99809554299909,3,26,0.0,15,370699366777148,19,27.0,-324.2764892578125,0.050300002098083496,0,0.0,0.0,,,,,0,,5,,
Raw,8199614,8203448000000,,,-1291005709998534656,0.0,57.57759208790958,-7.134480097958364,17.99809554299909,3,5,0.0,7183,370713357140543,220,13.1,-447.8752136230469,7.2820000648498535,0,0.0,0.0,,,,,0,,6,,
Fix,gps,22.925452,120.294727,34.265869,0.000000,9.648001,1606978695000
Fix,gps,22.925452,120.294730,34.264160,0.000000,9.648001,1606978696000
NMEA,$GPGSV,3,1,10,10,54,188,16,22,04,319,20,23,27,165,12,25,52,047,14*72,1606978694406
NMEA,$GPGSV,3,2,10,26,30,209,27,31,45,296,18,32,58,005,25,12,14,037,*7B,1606978694407
NMEA,$GPGSV,3,3,10,20,21,167,,29,16,118,*7D,1606978694408
NMEA,$GLGSV,2,1,07,74,14,230,19,73,56,265,19,79,00,000,12,69,37,133,15*63,1606978694410
NMEA,$GLGSV,2,2,07,70,70,004,,80,48,005,,71,21,333,*51,1606978694418
NMEA,$GAGSV,1,1,01,05,20,319,16*52,1606978694418
NMEA,$PQGSV,1,1,03,193,65,132,20,194,71,054,11,195,20,149,,0,5*6B,1606978694418
NMEA,$PQGSV,4,1,16,02,40,241,23,05,17,257,32,06,58,015,12,08,10,195,18,0,4*6A,1606978694418
NMEA,$PQGSV,4,2,16,10,37,202,15,13,18,217,30,16,57,009,14,21,50,317,16,0,4*6A,1606978694419
NMEA,$PQGSV,4,3,16,22,71,151,18,26,28,250,26,01,51,129,,03,59,202,,0,4*6C,1606978694419
NMEA,$PQGSV,4,4,16,04,37,115,,07,61,182,,09,45,331,,19,17,143,,0,4*63,1606978694419
NMEA,$GNGSA,A,3,22,25,26,31,32,,,,,,,,1.5,1.3,0.8,1*3F,1606978694420
NMEA,$GNGSA,A,2,73,74,,,,,,,,,,,1.5,1.3,0.8,2*3A,1606978694420
NMEA,$PQGSA,A,2,13,26,,,,,,,,,,,1.5,1.3,0.8,4*35,1606978694421
Raw,8200612,8204448000000,,,-1291005709998534656,0.0,58.83314952370711,-7.021100383955708,20.17620187404309,3,10,0.0,207,35896369336749,40,21.3,-570.88720703125,1.0,0,0.0,0.0,,,,,0,,3,,
Raw,8200613,8204448000000,,,-1291005709998534656,0.0,58.83314952370711,-7.021100383955708,20.17620187404309,3,9,0.0,207,35896379990627,122,15.3,-113.98995208740234,4.455000400543213,0,0.0,0.0,,,,,0,,3,,
Raw,8200613,8204448000000,,,-1291005709998534656,0.0,58.83314952370711,-7.021100383955708,20.17620187404309,3,5,0.0,207,35896376201295,1455,15.1,514.949462890625,25.480501174926758,0,0.0,0.0,,,,,0,,3,,
Raw,8200613,8204448000000,,,-1291005709998534656,0.0,58.83314952370711,-7.021100383955708,20.17620187404309,3,7,0.0,207,35896371653480,1432,13.5,-725.1435546875,8.11299991607666,0,0.0,0.0,,,,,0,,3,,
Raw,8200614,8204448000000,,,-1291005709998534656,0.0,58.83314952370711,-7.021100383955708,20.17620187404309,3,10,0.0,15,370714376542705,678,16.1,436.7239685058594,17.030500411987305,0,0.0,0.0,,,,,0,,1,,
Raw,8200614,8204448000000,,,-1291005709998534656,0.0,58.83314952370711,-7.021100383955708,20.17620187404309,3,22,0.0,15,370714361068289,31,23.2,-551.1951293945312,0.7279999852180481,0,0.0,0.0,,,,,0,,1,,
Raw,8200615,8204448000000,,,-1291005709998534656,0.0,58.83314952370711,-7.021100383955708,20.17620187404309,3,23,0.0,15,370714369659066,1570,12.3,664.6292114257812,26.235000610351562,0,0.0,0.0,,,,,0,,1,,
Raw,8200615,8204448000000,,,-1291005709998534656,0.0,58.83314952370711,-7.021100383955708,20.17620187404309,3,25,0.0,15,370714376579288,79,17.3,362.83294677734375,2.7055001258850098,0,0.0,0.0,,,,,0,,1,,
Raw,8200616,8204448000000,,,-1291005709998534656,0.0,58.83314952370711,-7.021100383955708,20.17620187404309,3,26,0.0,15,370714371469378,19,27.2,-614.145263671875,0.05780000239610672,0,0.0,0.0,,,,,0,,1,,
Raw,8200616,8204448000000,,,-1291005709998534656,0.0,58.83314952370711,-7.021100383955708,20.17620187404309,3,31,0.0,15,370714375192798,151,14.1,-90.04696655273438,5.264000415802002,0,0.0,0.0,,,,,0,,1,,
Raw,8200616,8204448000000,,,-1291005709998534656,0.0,58.83314952370711,-7.021100383955708,20.17620187404309,3,32,0.0,15,370714376794311,24,25.1,-232.5286407470703,0.4058000147342682,0,0.0,0.0,,,,,0,,1,,
Raw,8200617,8204448000000,,,-1291005709998534656,0.0,58.83314952370711,-7.021100383955708,20.17620187404309,3,2,0.0,783,370700321610138,51,24.4,-5.309891700744629,3.575000047683716,0,0.0,0.0,,,,,0,,5,,
Raw,8200617,8204448000000,,,-1291005709998534656,0.0,58.83314952370711,-7.021100383955708,20.17620187404309,3,5,0.0,783,370700313463965,12,32.4,3.600740432739258,0.3050000071525574,0,0.0,0.0,,,,,0,,5,,
Raw,8200618,8204448000000,,,-1291005709998534656,0.0,58.83314952370711,-7.021100383955708,20.17620187404309,3,6,0.0,15,370700323901267,1008,11.5,-112.03584289550781,20.351001739501953,0,0.0,0.0,,,,,0,,5,,
Raw,8200618,8204448000000,,,-1291005709998534656,0.0,58.83314952370711,-7.021100383955708,20.17620187404309,3,8,0.0,15,370700311418596,53,19.7,306.3125915527344,0.8629999756813049,0,0.0,0.0,,,,,0,,5,,
Raw,8200618,8204448000000,,,-1291005709998534656,0.0,58.83314952370711,-7.021100383955708,20.17620187404309,3,10,0.0,15,370700319465328,238,15.3,-195.3137664794922,8.695000648498535,0,0.0,0.0,,,,,0,,5,,
Raw,8200619,8204448000000,,,-1291005709998534656,0.0,58.83314952370711,-7.021100383955708,20.17620187404309,3,13,0.0,15,370700314832547,13,31.6,345.0063171386719,0.04620000347495079,0,0.0,0.0,,,,,0,,5,,
Raw,8200619,8204448000000,,,-1291005709998534656,0.0,58.83314952370711,-7.021100383955708,20.17620187404309,3,16,0.0,15,370700323654839,120,15.5,-105.33366394042969,4.171000003814697,0,0.0,0.0,,,,,0,,5,,
Raw,8200619,8204448000000,,,-1291005709998534656,0.0,58.83314952370711,-7.021100383955708,20.17620187404309,3,21,0.0,15,370700370257392,262,12.9,-359.86279296875,8.121500015258789,0,0.0,0.0,,,,,0,,5,,
Raw,8200620,8204448000000,,,-1291005709998534656,0.0,58.83314952370711,-7.021100383955708,20.17620187404309,3,22,0.0,15,370700372960453,69,18.0,215.314697265625,2.44950008392334,0,0.0,0.0,,,,,0,,5,,
Raw,8200621,8204448000000,,,-1291005709998534656,0.0,58.83314952370711,-7.021100383955708,20.17620187404309,3,26,0.0,15,370700366778243,21,26.9,-324.17578125,0.12020000070333481,0,0.0,0.0,,,,,0,,5,,
Raw,8200622,8204448000000,,,-1291005709998534656,0.0,58.83314952370711,-7.021100383955708,20.17620187404309,3,5,0.0,7183,370714357142037,269,13.1,-447.8752136230469,8.782000541687012,0,0.0,0.0,,,,,0,,6,,
NMEA,$GNVTG,,T,,M,0.0,N,0.0,K,A*3D,1606978694421
NMEA,$GNRMC,065815.00,A,2255.527116,N,12017.683641,E,0.0,,031220,2.8,W,A*1D,1606978694421
NMEA,$GNGGA,065815.00,2255.527116,N,12017.683641,E,1,09,1.3,16.8,M,17.5,M,,*47,1606978694421
NMEA,$GPGSV,3,1,10,10,54,188,16,22,04,319,22,23,27,165,12,25,52,047,17*73,1606978695392
NMEA,$GPGSV,3,2,10,26,30,209,27,31,45,296,14,32,58,005,25,12,14,037,*77,1606978695392
NMEA,$GPGSV,3,3,10,20,21,167,,29,16,118,*7D,1606978695393
NMEA,$GLGSV,2,1,07,74,14,230,19,73,56,265,15,79,00,000,12,69,37,133,15*6F,1606978695393
NMEA,$GLGSV,2,2,07,71,21,333,12,70,70,004,,80,48,005,*52,1606978695394
NMEA,$GAGSV,1,1,01,05,20,319,13*57,1606978695394
NMEA,$PQGSV,1,1,03,193,65,132,19,194,71,054,11,195,20,149,,0,5*61,1606978695395
NMEA,$PQGSV,4,1,16,02,40,241,24,05,17,257,32,06,58,015,12,08,10,195,19,0,4*6C,1606978695395
NMEA,$PQGSV,4,2,16,10,37,202,15,13,18,217,31,16,57,009,16,21,50,317,16,0,4*69,1606978695396
NMEA,$PQGSV,4,3,16,22,71,151,18,26,28,250,27,01,51,129,,03,59,202,,0,4*6D,1606978695396
NMEA,$PQGSV,4,4,16,04,37,115,,07,61,182,,09,45,331,,19,17,143,,0,4*63,1606978695397
NMEA,$GNGSA,A,3,22,25,26,31,32,,,,,,,,1.5,1.2,0.8,1*3E,1606978695398
NMEA,$GNGSA,A,2,73,74,,,,,,,,,,,1.5,1.2,0.8,2*3B,1606978695398
NMEA,$PQGSA,A,2,13,26,,,,,,,,,,,1.5,1.2,0.8,4*34,1606978695398
NMEA,$GNVTG,,T,,M,0.0,N,0.0,K,A*3D,1606978695399
NMEA,$GNRMC,065816.00,A,2255.527140,N,12017.683789,E,0.0,,031220,2.8,W,A*18,1606978695399
NMEA,$GNGGA,065816.00,2255.527140,N,12017.683789,E,1,09,1.2,16.8,M,17.5,M,,*43,1606978695399
Raw,8201601,8205448000000,,,-1291005709998534656,0.0,57.17884414480068,-5.39542371851084,15.369285642812084,3,10,0.0,207,35897369338606,40,21.5,-568.1295166015625,1.0,0,0.0,0.0,,,,,0,,3,,
Raw,8201602,8205448000000,,,-1291005709998534656,0.0,57.17884414480068,-5.39542371851084,15.369285642812084,3,9,0.0,207,35897379991154,73,17.5,-112.02364349365234,2.0250000953674316,0,0.0,0.0,,,,,0,,3,,
Raw,8201602,8205448000000,,,-1291005709998534656,0.0,57.17884414480068,-5.39542371851084,15.369285642812084,3,5,0.0,207,35897376199578,1625,15.1,514.949462890625,26.980501174926758,0,0.0,0.0,,,,,0,,3,,
Raw,8201602,8205448000000,,,-1291005709998534656,0.0,57.17884414480068,-5.39542371851084,15.369285642812084,3,7,0.0,207,35897371655826,1458,13.5,-724.8539428710938,8.863000869750977,0,0.0,0.0,,,,,0,,3,,
Raw,8201603,8205448000000,,,-1291005709998534656,0.0,57.17884414480068,-5.39542371851084,15.369285642812084,3,10,0.0,15,370715376541142,314,11.9,432.3948059082031,9.250500679016113,0,0.0,0.0,,,,,0,,1,,
Raw,8201603,8205448000000,,,-1291005709998534656,0.0,57.17884414480068,-5.39542371851084,15.369285642812084,3,22,0.0,15,370715361070161,35,22.1,-550.3673706054688,0.7879999876022339,0,0.0,0.0,,,,,0,,1,,
Raw,8201604,8205448000000,,,-1291005709998534656,0.0,57.17884414480068,-5.39542371851084,15.369285642812084,3,23,0.0,15,370715369656849,1744,12.3,664.6292114257812,27.735000610351562,0,0.0,0.0,,,,,0,,1,,
Raw,8201604,8205448000000,,,-1291005709998534656,0.0,57.17884414480068,-5.39542371851084,15.369285642812084,3,25,0.0,15,370715376578078,98,17.3,362.83294677734375,4.20550012588501,0,0.0,0.0,,,,,0,,1,,
Raw,8201604,8205448000000,,,-1291005709998534656,0.0,57.17884414480068,-5.39542371851084,15.369285642812084,3,26,0.0,15,370715371471430,21,26.7,-612.6552124023438,0.12770000100135803,0,0.0,0.0,,,,,0,,1,,
Raw,8201605,8205448000000,,,-1291005709998534656,0.0,57.17884414480068,-5.39542371851084,15.369285642812084,3,31,0.0,15,370715375193098,186,14.1,-90.04696655273438,6.764000415802002,0,0.0,0.0,,,,,0,,1,,
Raw,8201606,8205448000000,,,-1291005709998534656,0.0,57.17884414480068,-5.39542371851084,15.369285642812084,3,32,0.0,15,370715376795028,27,24.6,-231.37808227539062,0.640500009059906,0,0.0,0.0,,,,,0,,1,,
Raw,8201606,8205448000000,,,-1291005709998534656,0.0,57.17884414480068,-5.39542371851084,15.369285642812084,3,2,0.0,783,370701321610155,78,24.4,-5.309891700744629,5.075000286102295,0,0.0,0.0,,,,,0,,5,,
Raw,8201606,8205448000000,,,-1291005709998534656,0.0,57.17884414480068,-5.39542371851084,15.369285642812084,3,5,0.0,783,370701313463951,12,32.1,5.866806507110596,0.3050000071525574,0,0.0,0.0,,,,,0,,5,,
Raw,8201607,8205448000000,,,-1291005709998534656,0.0,57.17884414480068,-5.39542371851084,15.369285642812084,3,6,0.0,15,370701323901640,1144,11.5,-112.03584289550781,21.851001739501953,0,0.0,0.0,,,,,0,,5,,
Raw,8201607,8205448000000,,,-1291005709998534656,0.0,57.17884414480068,-5.39542371851084,15.369285642812084,3,8,0.0,15,370701311417640,61,18.6,305.92852783203125,0.9329999685287476,0,0.0,0.0,,,,,0,,5,,
Raw,8201608,8205448000000,,,-1291005709998534656,0.0,57.17884414480068,-5.39542371851084,15.369285642812084,3,10,0.0,15,370701319465856,121,15.5,-192.87486267089844,4.195000171661377,0,0.0,0.0,,,,,0,,5,,
Raw,8201608,8205448000000,,,-1291005709998534656,0.0,57.17884414480068,-5.39542371851084,15.369285642812084,3,13,0.0,15,370701314831382,13,31.9,346.397216796875,0.04620000347495079,0,0.0,0.0,,,,,0,,5,,
Raw,8201609,8205448000000,,,-1291005709998534656,0.0,57.17884414480068,-5.39542371851084,15.369285642812084,3,16,0.0,15,370701323655254,84,16.0,-105.07440948486328,1.8309999704360962,0,0.0,0.0,,,,,0,,5,,
Raw,8201609,8205448000000,,,-1291005709998534656,0.0,57.17884414480068,-5.39542371851084,15.369285642812084,3,22,0.0,15,370701372959735,87,18.0,215.314697265625,3.94950008392334,0,0.0,0.0,,,,,0,,5,,
Raw,8201609,8205448000000,,,-1291005709998534656,0.0,57.17884414480068,-5.39542371851084,15.369285642812084,3,26,0.0,15,370701366779308,24,25.4,-322.6737060546875,0.39079999923706055,0,0.0,0.0,,,,,0,,5,,
Raw,8201610,8205448000000,,,-1291005709998534656,0.0,57.17884414480068,-5.39542371851084,15.369285642812084,3,5,0.0,7183,370715357143531,328,13.1,-447.8752136230469,10.282000541687012,0,0.0,0.0,,,,,0,,6,,
Fix,gps,22.925452,120.294729,34.083923,0.000000,9.648001,1606978697000
Fix,gps,22.925452,120.294728,34.042725,0.000000,9.648001,1606978698000
NMEA,$GPGSV,3,1,10,10,54,188,16,22,04,319,23,23,27,165,12,25,52,047,17*72,1606978696392
NMEA,$GPGSV,3,2,10,26,30,209,27,31,45,296,14,32,58,005,25,12,14,037,*77,1606978696392
NMEA,$GPGSV,3,3,10,20,21,167,,29,16,118,*7D,1606978696392
NMEA,$GLGSV,2,1,06,74,14,230,21,73,56,265,15,69,37,133,15,71,21,333,14*6B,1606978696392
NMEA,$GLGSV,2,2,06,70,70,004,,80,48,005,*66,1606978696393
NMEA,$GAGSV,1,1,01,05,20,319,13*57,1606978696394
NMEA,$PQGSV,1,1,03,193,65,132,19,194,71,054,11,195,20,149,,0,5*61,1606978696394
NMEA,$PQGSV,4,1,16,02,40,241,24,05,17,257,32,06,58,015,12,08,10,195,20,0,4*66,1606978696394
NMEA,$PQGSV,4,2,16,10,37,202,15,13,18,217,32,16,57,009,16,21,50,317,13,0,4*6F,1606978696394
NMEA,$PQGSV,4,3,16,22,71,151,18,26,28,250,27,01,51,129,,03,59,202,,0,4*6D,1606978696395
NMEA,$PQGSV,4,4,16,04,37,115,,07,61,182,,09,45,331,,19,17,143,,0,4*63,1606978696395
NMEA,$GNGSA,A,3,22,25,26,31,32,,,,,,,,1.5,1.2,0.8,1*3E,1606978696396
NMEA,$GNGSA,A,2,73,74,,,,,,,,,,,1.5,1.2,0.8,2*3B,1606978696396
NMEA,$GNGSA,A,2,05,,,,,,,,,,,,1.5,1.2,0.8,3*38,1606978696396
NMEA,$PQGSA,A,2,13,26,,,,,,,,,,,1.5,1.2,0.8,4*34,1606978696396
Raw,8202655,8206448000000,,,-1291005709998534656,0.0,58.77574585611001,-1.7742339455536045,16.075894016549274,3,10,0.0,207,35898369340359,31,23.2,-567.3134765625,0.8799999952316284,0,0.0,0.0,,,,,0,,3,,
Raw,8202656,8206448000000,,,-1291005709998534656,0.0,58.77574585611001,-1.7742339455536045,16.075894016549274,3,9,0.0,207,35898379991747,70,17.5,-110.58168029785156,1.274999976158142,0,0.0,0.0,,,,,0,,3,,
Raw,8202656,8206448000000,,,-1291005709998534656,0.0,58.77574585611001,-1.7742339455536045,16.075894016549274,3,5,0.0,207,35898376197860,1805,15.1,514.949462890625,28.480501174926758,0,0.0,0.0,,,,,0,,3,,
Raw,8202657,8206448000000,,,-1291005709998534656,0.0,58.77574585611001,-1.7742339455536045,16.075894016549274,3,7,0.0,207,35898371658268,1486,13.3,-724.4336547851562,9.613000869750977,0,0.0,0.0,,,,,0,,3,,
Raw,8202657,8206448000000,,,-1291005709998534656,0.0,58.77574585611001,-1.7742339455536045,16.075894016549274,3,10,0.0,15,370716376539700,375,11.9,432.3948059082031,10.750500679016113,0,0.0,0.0,,,,,0,,1,,
Raw,8202658,8206448000000,,,-1291005709998534656,0.0,58.77574585611001,-1.7742339455536045,16.075894016549274,3,22,0.0,15,370716361071926,31,23.3,-548.7689208984375,0.7279999852180481,0,0.0,0.0,,,,,0,,1,,
Raw,8202659,8206448000000,,,-1291005709998534656,0.0,58.77574585611001,-1.7742339455536045,16.075894016549274,3,23,0.0,15,370716369654632,1929,12.3,664.6292114257812,29.235000610351562,0,0.0,0.0,,,,,0,,1,,
Raw,8202659,8206448000000,,,-1291005709998534656,0.0,58.77574585611001,-1.7742339455536045,16.075894016549274,3,25,0.0,15,370716376576868,128,17.3,362.83294677734375,5.70550012588501,0,0.0,0.0,,,,,0,,1,,
Raw,8202660,8206448000000,,,-1291005709998534656,0.0,58.77574585611001,-1.7742339455536045,16.075894016549274,3,26,0.0,15,370716371473439,19,27.9,-611.3111572265625,0.05780000239610672,0,0.0,0.0,,,,,0,,1,,
Raw,8202662,8206448000000,,,-1291005709998534656,0.0,58.77574585611001,-1.7742339455536045,16.075894016549274,3,31,0.0,15,370716375193398,231,14.1,-90.04696655273438,8.263999938964844,0,0.0,0.0,,,,,0,,1,,
Raw,8202663,8206448000000,,,-1291005709998534656,0.0,58.77574585611001,-1.7742339455536045,16.075894016549274,3,32,0.0,15,370716376795755,27,24.9,-229.68446350097656,0.640500009059906,0,0.0,0.0,,,,,0,,1,,
Raw,8202665,8206448000000,,,-1291005709998534656,0.0,58.77574585611001,-1.7742339455536045,16.075894016549274,3,2,0.0,783,370702321610089,38,23.7,3.763974189758301,2.115000009536743,0,0.0,0.0,,,,,0,,5,,
Raw,8202666,8206448000000,,,-1291005709998534656,0.0,58.77574585611001,-1.7742339455536045,16.075894016549274,3,5,0.0,783,370702313463937,12,32.0,7.374316692352295,0.3050000071525574,0,0.0,0.0,,,,,0,,5,,
Raw,8202668,8206448000000,,,-1291005709998534656,0.0,58.77574585611001,-1.7742339455536045,16.075894016549274,3,6,0.0,15,370702323902014,1289,11.5,-112.03584289550781,23.351001739501953,0,0.0,0.0,,,,,0,,5,,
Raw,8202670,8206448000000,,,-1291005709998534656,0.0,58.77574585611001,-1.7742339455536045,16.075894016549274,3,8,0.0,15,370702311416613,46,20.6,309.1259765625,0.8029999732971191,0,0.0,0.0,,,,,0,,5,,
Raw,8202672,8206448000000,,,-1291005709998534656,0.0,58.77574585611001,-1.7742339455536045,16.075894016549274,3,10,0.0,15,370702319466499,150,15.5,-192.87486267089844,5.695000171661377,0,0.0,0.0,,,,,0,,5,,
Raw,8202673,8206448000000,,,-1291005709998534656,0.0,58.77574585611001,-1.7742339455536045,16.075894016549274,3,13,0.0,15,370702314830224,12,32.2,347.6898498535156,0.04490000009536743,0,0.0,0.0,,,,,0,,5,,
Raw,8202675,8206448000000,,,-1291005709998534656,0.0,58.77574585611001,-1.7742339455536045,16.075894016549274,3,16,0.0,15,370702323655605,97,16.0,-105.07440948486328,3.3310000896453857,0,0.0,0.0,,,,,0,,5,,
Raw,8202676,8206448000000,,,-1291005709998534656,0.0,58.77574585611001,-1.7742339455536045,16.075894016549274,3,22,0.0,15,370702372959016,116,18.0,215.314697265625,5.44950008392334,0,0.0,0.0,,,,,0,,5,,
Raw,8202678,8206448000000,,,-1291005709998534656,0.0,58.77574585611001,-1.7742339455536045,16.075894016549274,3,26,0.0,15,370702366780407,24,25.8,-321.3578186035156,0.39079999923706055,0,0.0,0.0,,,,,0,,5,,
Raw,8202680,8206448000000,,,-1291005709998534656,0.0,58.77574585611001,-1.7742339455536045,16.075894016549274,3,5,0.0,7183,370716357145025,398,13.1,-447.8752136230469,11.782000541687012,0,0.0,0.0,,,,,0,,6,,
NMEA,$GNVTG,,T,,M,0.0,N,0.0,K,A*3D,1606978696397
NMEA,$GNRMC,065817.00,A,2255.527125,N,12017.683729,E,0.0,,031220,2.8,W,A*10,1606978696397
NMEA,$GNGGA,065817.00,2255.527125,N,12017.683729,E,1,10,1.2,16.6,M,17.5,M,,*4D,1606978696399
NMEA,$GPGSV,3,1,10,10,54,188,12,22,04,319,22,23,27,165,12,25,52,047,17*77,1606978697392
NMEA,$GPGSV,3,2,10,26,30,209,27,31,45,296,14,32,58,005,25,12,14,037,*77,1606978697392
NMEA,$GPGSV,3,3,10,20,21,167,,29,16,118,*7D,1606978697392
NMEA,$GLGSV,2,1,07,74,14,230,22,73,56,265,18,69,37,135,15,71,21,333,14*62,1606978697393
NMEA,$GLGSV,2,2,07,70,71,005,,80,47,005,,79,00,000,*56,1606978697393
NMEA,$GAGSV,1,1,01,05,20,319,13*57,1606978697393
NMEA,$PQGSV,1,1,03,193,65,132,19,194,71,054,11,195,20,149,,0,5*61,1606978697393
NMEA,$PQGSV,4,1,16,02,40,241,24,05,17,257,32,06,58,015,12,08,10,195,19,0,4*6C,1606978697393
NMEA,$PQGSV,4,2,16,10,37,202,16,13,18,217,32,16,57,009,16,22,71,151,18,0,4*67,1606978697393
NMEA,$PQGSV,4,3,16,26,28,250,25,01,51,129,,03,59,202,,04,37,115,,0,4*60,1606978697394
NMEA,$PQGSV,4,4,16,07,61,182,,09,45,331,,19,17,143,,21,50,317,,0,4*65,1606978697394
NMEA,$GNGSA,A,3,22,25,26,31,32,,,,,,,,1.4,1.2,0.8,1*3F,1606978697395
NMEA,$GNGSA,A,2,73,74,,,,,,,,,,,1.4,1.2,0.8,2*3A,1606978697395
NMEA,$GNGSA,A,2,05,,,,,,,,,,,,1.4,1.2,0.8,3*39,1606978697395
NMEA,$PQGSA,A,2,13,26,,,,,,,,,,,1.4,1.2,0.8,4*35,1606978697395
NMEA,$GNVTG,,T,,M,0.0,N,0.0,K,A*3D,1606978697396
NMEA,$GNRMC,065818.00,A,2255.527122,N,12017.683702,E,0.0,,031220,2.8,W,A*11,1606978697396
NMEA,$GNGGA,065818.00,2255.527122,N,12017.683702,E,1,10,1.2,16.6,M,17.5,M,,*4C,1606978697396
Raw,8203638,8207448000000,,,-1291005709998534656,0.0,60.29166252119467,2.9669620381727273,16.256299825807066,3,10,0.0,207,35899369342260,27,24.6,-567.294677734375,0.8300000429153442,0,0.0,0.0,,,,,0,,3,,
Raw,8203639,8207448000000,,,-1291005709998534656,0.0,60.29166252119467,2.9669620381727273,16.256299825807066,3,9,0.0,207,35899379992116,79,17.5,-110.58168029785156,2.7750000953674316,0,0.0,0.0,,,,,0,,3,,
Raw,8203640,8207448000000,,,-1291005709998534656,0.0,60.29166252119467,2.9669620381727273,16.256299825807066,3,5,0.0,207,35899376196142,1995,15.1,514.949462890625,29.980501174926758,0,0.0,0.0,,,,,0,,3,,
Raw,8203640,8207448000000,,,-1291005709998534656,0.0,60.29166252119467,2.9669620381727273,16.256299825807066,3,7,0.0,207,35899371660682,321,14.3,-724.134765625,10.618000984191895,0,0.0,0.0,,,,,0,,3,,
Raw,8203641,8207448000000,,,-1291005709998534656,0.0,60.29166252119467,2.9669620381727273,16.256299825807066,3,10,0.0,15,370717376538272,96,15.9,436.9047546386719,2.0304999351501465,0,0.0,0.0,,,,,0,,1,,
Raw,8203641,8207448000000,,,-1291005709998534656,0.0,60.29166252119467,2.9669620381727273,16.256299825807066,3,22,0.0,15,370717361073835,31,23.3,-547.7222900390625,0.7279999852180481,0,0.0,0.0,,,,,0,,1,,
Raw,8203642,8207448000000,,,-1291005709998534656,0.0,60.29166252119467,2.9669620381727273,16.256299825807066,3,23,0.0,15,370717369652415,2123,12.3,664.6292114257812,30.735000610351562,0,0.0,0.0,,,,,0,,1,,
Raw,8203642,8207448000000,,,-1291005709998534656,0.0,60.29166252119467,2.9669620381727273,16.256299825807066,3,25,0.0,15,370717376575658,167,17.3,362.83294677734375,7.20550012588501,0,0.0,0.0,,,,,0,,1,,
Raw,8203642,8207448000000,,,-1291005709998534656,0.0,60.29166252119467,2.9669620381727273,16.256299825807066,3,26,0.0,15,370717371475475,17,28.2,-610.9595336914062,0.049800001084804535,0,0.0,0.0,,,,,0,,1,,
Raw,8203643,8207448000000,,,-1291005709998534656,0.0,60.29166252119467,2.9669620381727273,16.256299825807066,3,31,0.0,15,370717375193558,141,13.2,-86.85002899169922,3.869000196456909,0,0.0,0.0,,,,,0,,1,,
Raw,8203643,8207448000000,,,-1291005709998534656,0.0,60.29166252119467,2.9669620381727273,16.256299825807066,3,32,0.0,15,370717376796513,21,26.2,-229.30438232421875,0.13520000874996185,0,0.0,0.0,,,,,0,,1,,
Raw,8203644,8207448000000,,,-1291005709998534656,0.0,60.29166252119467,2.9669620381727273,16.256299825807066,3,2,0.0,783,370703321610076,55,23.7,3.763974189758301,3.6150002479553223,0,0.0,0.0,,,,,0,,5,,
Raw,8203644,8207448000000,,,-1291005709998534656,0.0,60.29166252119467,2.9669620381727273,16.256299825807066,3,5,0.0,783,370703313463921,13,31.9,3.1974573135375977,0.3050000071525574,0,0.0,0.0,,,,,0,,5,,
Raw,8203644,8207448000000,,,-1291005709998534656,0.0,60.29166252119467,2.9669620381727273,16.256299825807066,3,6,0.0,15,370703323902388,1445,11.5,-112.03584289550781,24.851001739501953,0,0.0,0.0,,,,,0,,5,,
Raw,8203645,8207448000000,,,-1291005709998534656,0.0,60.29166252119467,2.9669620381727273,16.256299825807066,3,8,0.0,15,370703311415565,53,19.7,309.70208740234375,0.8629999756813049,0,0.0,0.0,,,,,0,,5,,
Raw,8203645,8207448000000,,,-1291005709998534656,0.0,60.29166252119467,2.9669620381727273,16.256299825807066,3,10,0.0,15,370703319467176,73,17.6,-189.55258178710938,1.7750000953674316,0,0.0,0.0,,,,,0,,5,,
Raw,8203646,8207448000000,,,-1291005709998534656,0.0,60.29166252119467,2.9669620381727273,16.256299825807066,3,13,0.0,15,370703314829076,13,31.4,347.98858642578125,0.04620000347495079,0,0.0,0.0,,,,,0,,5,,
Raw,8203647,8207448000000,,,-1291005709998534656,0.0,60.29166252119467,2.9669620381727273,16.256299825807066,3,16,0.0,15,370703323655935,73,17.2,-101.89616394042969,1.7510000467300415,0,0.0,0.0,,,,,0,,5,,
Raw,8203647,8207448000000,,,-1291005709998534656,0.0,60.29166252119467,2.9669620381727273,16.256299825807066,3,22,0.0,15,370703372958322,124,14.5,216.89901733398438,3.5245001316070557,0,0.0,0.0,,,,,0,,5,,
Raw,8203647,8207448000000,,,-1291005709998534656,0.0,60.29166252119467,2.9669620381727273,16.256299825807066,3,26,0.0,15,370703366781459,21,26.3,-320.975830078125,0.12020000070333481,0,0.0,0.0,,,,,0,,5,,
Raw,8203648,8207448000000,,,-1291005709998534656,0.0,60.29166252119467,2.9669620381727273,16.256299825807066,3,5,0.0,7183,370717357146519,477,13.1,-447.8752136230469,13.282000541687012,0,0.0,0.0,,,,,0,,6,,
Fix,gps,22.925452,120.294728,34.096497,0.000000,9.648001,1606978699000
Fix,gps,22.925452,120.294728,34.036072,0.000000,9.648001,1606978700000
NMEA,$GPGSV,3,1,10,10,54,188,12,22,04,319,23,23,27,165,12,25,52,047,17*76,1606978698402
NMEA,$GPGSV,3,2,10,26,30,209,28,31,45,296,14,32,58,005,25,12,14,037,*78,1606978698402
NMEA,$GPGSV,3,3,10,20,21,167,,29,16,118,*7D,1606978698403
NMEA,$GLGSV,2,1,07,74,14,230,23,73,56,265,18,69,37,135,15,71,21,333,13*64,1606978698410
NMEA,$GLGSV,2,2,07,70,71,005,,80,47,005,,79,00,000,*56,1606978698410
NMEA,$GAGSV,1,1,01,05,20,319,13*57,1606978698411
NMEA,$PQGSV,1,1,03,193,65,132,19,194,71,054,11,195,20,149,,0,5*61,1606978698412
NMEA,$PQGSV,4,1,16,02,40,241,24,05,17,257,32,06,58,015,12,08,10,195,21,0,4*67,1606978698412
NMEA,$PQGSV,4,2,16,10,37,202,16,13,18,217,32,16,57,009,16,22,71,151,18,0,4*67,1606978698415
NMEA,$PQGSV,4,3,16,26,28,250,26,01,51,129,,03,59,202,,04,37,115,,0,4*63,1606978698417
NMEA,$PQGSV,4,4,16,07,61,182,,09,45,331,,19,17,143,,21,50,317,,0,4*65,1606978698418
NMEA,$GNGSA,A,3,10,22,25,26,31,32,,,,,,,1.4,1.2,0.8,1*3E,1606978698421
NMEA,$GNGSA,A,2,73,74,,,,,,,,,,,1.4,1.2,0.8,2*3A,1606978698422
NMEA,$GNGSA,A,2,05,,,,,,,,,,,,1.4,1.2,0.8,3*39,1606978698422
NMEA,$PQGSA,A,2,13,26,,,,,,,,,,,1.4,1.2,0.8,4*35,1606978698423
NMEA,$GNVTG,,T,,M,0.0,N,0.0,K,A*3D,1606978698423
NMEA,$GNRMC,065819.00,A,2255.527125,N,12017.683696,E,0.0,,031220,2.8,W,A*1B,1606978698424
NMEA,$GNGGA,065819.00,2255.527125,N,12017.683696,E,1,11,1.2,16.6,M,17.5,M,,*47,1606978698424
NMEA,$GPGSV,3,1,10,10,54,188,16,22,04,319,23,23,27,165,12,25,52,047,17*72,1606978699403
Raw,8204692,8208448000000,,,-1291005709998534656,0.0,58.52353933732957,5.013622704895334,13.503862249307751,3,10,0.0,207,35900369344173,35,22.9,-566.3004150390625,0.9399999976158142,0,0.0,0.0,,,,,0,,3,,
Raw,8204695,8208448000000,,,-1291005709998534656,0.0,58.52353933732957,5.013622704895334,13.503862249307751,3,9,0.0,207,35900379992485,99,17.5,-110.58168029785156,4.275000095367432,0,0.0,0.0,,,,,0,,3,,
Raw,8204697,8208448000000,,,-1291005709998534656,0.0,58.52353933732957,5.013622704895334,13.503862249307751,3,5,0.0,207,35900376194425,2195,15.1,514.949462890625,31.480501174926758,0,0.0,0.0,,,,,0,,3,,
Raw,8204699,8208448000000,,,-1291005709998534656,0.0,58.52353933732957,5.013622704895334,13.503862249307751,3,7,0.0,207,35900371663016,62,18.6,-720.1277465820312,1.5880000591278076,0,0.0,0.0,,,,,0,,3,,
Raw,8204703,8208448000000,,,-1291005709998534656,0.0,58.52353933732957,5.013622704895334,13.503862249307751,3,10,0.0,15,370718376536815,110,15.9,436.9047546386719,3.5305001735687256,0,0.0,0.0,,,,,0,,1,,
Raw,8204706,8208448000000,,,-1291005709998534656,0.0,58.52353933732957,5.013622704895334,13.503862249307751,3,22,0.0,15,370718361075672,35,22.6,-547.8935546875,0.7279999852180481,0,0.0,0.0,,,,,0,,1,,
Raw,8204708,8208448000000,,,-1291005709998534656,0.0,58.52353933732957,5.013622704895334,13.503862249307751,3,23,0.0,15,370718369650198,2327,12.3,664.6292114257812,32.23500061035156,0,0.0,0.0,,,,,0,,1,,
Raw,8204711,8208448000000,,,-1291005709998534656,0.0,58.52353933732957,5.013622704895334,13.503862249307751,3,25,0.0,15,370718376574205,136,14.5,367.5522155761719,4.380500316619873,0,0.0,0.0,,,,,0,,1,,
Raw,8204713,8208448000000,,,-1291005709998534656,0.0,58.52353933732957,5.013622704895334,13.503862249307751,3,26,0.0,15,370718371477477,16,29.3,-609.9788208007812,0.04320000112056732,0,0.0,0.0,,,,,0,,1,,
Raw,8204716,8208448000000,,,-1291005709998534656,0.0,58.52353933732957,5.013622704895334,13.503862249307751,3,31,0.0,15,370718375193847,167,13.2,-86.85002899169922,5.369000434875488,0,0.0,0.0,,,,,0,,1,,
Raw,8204718,8208448000000,,,-1291005709998534656,0.0,58.52353933732957,5.013622704895334,13.503862249307751,3,32,0.0,15,370718376797218,19,27.1,-228.42674255371094,0.06530000269412994,0,0.0,0.0,,,,,0,,1,,
Raw,8204720,8208448000000,,,-1291005709998534656,0.0,58.52353933732957,5.013622704895334,13.503862249307751,3,2,0.0,783,370704321610064,82,23.7,3.763974189758301,5.115000247955322,0,0.0,0.0,,,,,0,,5,,
Raw,8204721,8208448000000,,,-1291005709998534656,0.0,58.52353933732957,5.013622704895334,13.503862249307751,3,5,0.0,783,370704313463906,12,32.0,7.249490737915039,0.3050000071525574,0,0.0,0.0,,,,,0,,5,,
Raw,8204722,8208448000000,,,-1291005709998534656,0.0,58.52353933732957,5.013622704895334,13.503862249307751,3,6,0.0,15,370704323902761,1610,11.5,-112.03584289550781,26.351001739501953,0,0.0,0.0,,,,,0,,5,,
Raw,8204722,8208448000000,,,-1291005709998534656,0.0,58.52353933732957,5.013622704895334,13.503862249307751,3,8,0.0,15,370704311414551,70,17.8,309.2987976074219,0.9329999685287476,0,0.0,0.0,,,,,0,,5,,
Raw,8204723,8208448000000,,,-1291005709998534656,0.0,58.52353933732957,5.013622704895334,13.503862249307751,3,10,0.0,15,370704319467809,87,17.6,-189.55258178710938,3.2750000953674316,0,0.0,0.0,,,,,0,,5,,
Raw,8204723,8208448000000,,,-1291005709998534656,0.0,58.52353933732957,5.013622704895334,13.503862249307751,3,13,0.0,15,370704314827901,13,31.6,348.89190673828125,0.04620000347495079,0,0.0,0.0,,,,,0,,5,,
Raw,8204724,8208448000000,,,-1291005709998534656,0.0,58.52353933732957,5.013622704895334,13.503862249307751,3,16,0.0,15,370704323656275,86,17.2,-101.89616394042969,3.251000165939331,0,0.0,0.0,,,,,0,,5,,
Raw,8204724,8208448000000,,,-1291005709998534656,0.0,58.52353933732957,5.013622704895334,13.503862249307751,3,22,0.0,15,370704372957599,148,14.5,216.89901733398438,5.024500370025635,0,0.0,0.0,,,,,0,,5,,
Raw,8204725,8208448000000,,,-1291005709998534656,0.0,58.52353933732957,5.013622704895334,13.503862249307751,3,26,0.0,15,370704366782532,24,25.7,-320.0250549316406,0.39079999923706055,0,0.0,0.0,,,,,0,,5,,
Raw,8204726,8208448000000,,,-1291005709998534656,0.0,58.52353933732957,5.013622704895334,13.503862249307751,3,5,0.0,7183,370718357148107,135,14.4,-445.8961181640625,4.191999912261963,0,0.0,0.0,,,,,0,,6,,
NMEA,$GPGSV,3,2,10,26,30,209,28,31,45,296,13,32,58,005,26,12,14,037,*7C,1606978699404
NMEA,$GPGSV,3,3,10,20,21,167,,29,16,118,*7D,1606978699405
NMEA,$GLGSV,2,1,07,74,14,230,25,73,56,265,18,69,37,135,15,71,21,333,14*65,1606978699405
NMEA,$GLGSV,2,2,07,70,71,005,,80,47,005,,79,00,000,*56,1606978699409
NMEA,$GAGSV,1,1,01,05,20,319,13*57,1606978699411
NMEA,$PQGSV,1,1,03,193,65,132,19,194,71,054,11,195,20,149,,0,5*61,1606978699413
NMEA,$PQGSV,4,1,16,02,40,241,24,05,17,257,32,06,58,015,12,08,10,195,20,0,4*66,1606978699414
NMEA,$PQGSV,4,2,16,10,37,202,18,13,18,217,31,16,57,009,17,22,71,151,15,0,4*66,1606978699415
NMEA,$PQGSV,4,3,16,26,28,250,26,01,51,129,,03,59,202,,04,37,115,,0,4*63,1606978699416
