# 
# Header Description:
# 
# Version: v2.0.0.1 Platform: 8.0.0 Manufacturer: Sony Model: G8142
# 
# Raw,ElapsedRealtimeMillis,TimeNanos,LeapSecond,TimeUncertaintyNanos,FullBiasNanos,BiasNanos,BiasUncertaintyNanos,DriftNanosPerSecond,DriftUncertaintyNanosPerSecond,HardwareClockDiscontinuityCount,Svid,TimeOffsetNanos,State,ReceivedSvTimeNanos,ReceivedSvTimeUncertaintyNanos,Cn0DbHz,PseudorangeRateMetersPerSecond,PseudorangeRateUncertaintyMetersPerSecond,AccumulatedDeltaRangeState,AccumulatedDeltaRangeMeters,AccumulatedDeltaRangeUncertaintyMeters,CarrierFrequencyHz,CarrierCycles,CarrierPhase,CarrierPhaseUncertainty,MultipathIndicator,SnrInDb,ConstellationType,AgcDb,CarrierFrequencyHz
# 
# Fix,Provider,Latitude,Longitude,Altitude,Speed,Accuracy,(UTC)TimeInMs
# 
# Nav,Svid,Type,Status,MessageId,Sub-messageId,Data(Bytes)
# 
Fix,gps,22.925468,120.294756,43.836853,0.000000,4.288000,1606979910000
NMEA,$GPGSV,3,1,11,10,43,184,17,12,06,036,13,16,07,210,21,22,10,314,25*74,1606979909388
NMEA,$GPGSV,3,2,11,25,43,040,19,26,40,215,13,31,47,310,18,32,63,023,28*75,1606979909388
NMEA,$GPGSV,3,3,11,20,13,165,,23,17,164,,29,21,109,*4F,1606979909388
NMEA,$GLGSV,2,1,06,74,20,239,30,73,58,288,16,70,82,033,,80,38,012,*6B,1606979909389
NMEA,$GLGSV,2,2,06,69,28,143,,71,31,334,*60,1606979909389
NMEA,$GAGSV,1,1,0,*74,1606979909389
NMEA,$PQGSV,1,1,01,193,62,142,11,0,5*63,1606979909389
NMEA,$PQGSV,4,1,16,13,14,216,18,21,58,309,16,22,61,160,18,26,33,260,29,0,4*63,1606979909389
NMEA,$PQGSV,4,2,16,01,51,129,,02,40,241,,03,59,202,,04,37,115,,0,4*6E,1606979909390
NMEA,$PQGSV,4,3,16,06,61,019,,07,66,189,,08,07,194,,09,47,334,,0,4*68,1606979909390
NMEA,$PQGSV,4,4,16,10,40,206,,16,59,014,,19,09,147,,29,09,116,,0,4*64,1606979909390
NMEA,$GNGSA,A,3,10,16,22,25,26,31,32,,,,,,1.4,1.1,0.9,1*3B,1606979909391
NMEA,$GNGSA,A,2,74,,,,,,,,,,,,1.4,1.1,0.9,2*3C,1606979909391
NMEA,$PQGSA,A,2,13,26,,,,,,,,,,,1.4,1.1,0.9,4*37,1606979909391
NMEA,$GNVTG,,T,,M,0.0,N,0.0,K,A*3D,1606979909392
NMEA,$GNRMC,071830.00,A,2255.528066,N,12017.685342,E,0.0,,031220,2.8,W,A*16,1606979909393
NMEA,$GNGGA,071830.00,2255.528066,N,12017.685342,E,1,10,1.1,26.4,M,17.5,M,,*49,1606979909394
Raw,9413633,9417443000000,,,-1291005709998578176,0.0,60.25745824445039,-18.21788037613744,17.07445718180418,5,10,0.0,207,37109366489388,16,29.5,-477.7024841308594,0.23569999635219574,0,0.0,0.0,,,,,0,,3,,
Raw,9413633,9417443000000,,,-1291005709998578176,0.0,60.25745824445039,-18.21788037613744,17.07445718180418,5,9,0.0,207,37109375214596,93,15.6,12.397133827209473,1.4790000915527344,0,0.0,0.0,,,,,0,,3,,
Raw,9413634,9417443000000,,,-1291005709998578176,0.0,60.25745824445039,-18.21788037613744,17.07445718180418,5,10,0.0,15,371927369611603,70,17.2,530.3294677734375,1.1799999475479126,0,0.0,0.0,,,,,0,,1,,
Raw,9413634,9417443000000,,,-1291005709998578176,0.0,60.25745824445039,-18.21788037613744,17.07445718180418,5,12,0.0,15,371927358661712,531,12.9,683.44921875,14.0885009765625,0,0.0,0.0,,,,,0,,1,,
Raw,9413634,9417443000000,,,-1291005709998578176,0.0,60.25745824445039,-18.21788037613744,17.07445718180418,5,16,0.0,15,371927358211613,46,20.6,-746.5601196289062,0.8734999895095825,0,0.0,0.0,,,,,0,,1,,
Raw,9413635,9417443000000,,,-1291005709998578176,0.0,60.25745824445039,-18.21788037613744,17.07445718180418,5,22,0.0,15,371927358206194,24,25.4,-487.6075134277344,0.40880000591278076,0,0.0,0.0,,,,,0,,1,,
Raw,9413635,9417443000000,,,-1291005709998578176,0.0,60.25745824445039,-18.21788037613744,17.07445718180418,5,25,0.0,15,371927369898162,61,18.7,475.9815673828125,1.0099999904632568,0,0.0,0.0,,,,,0,,1,,
Raw,9413635,9417443000000,,,-1291005709998578176,0.0,60.25745824445039,-18.21788037613744,17.07445718180418,5,26,0.0,15,371927368828635,529,13.1,-533.7642211914062,14.343501091003418,0,0.0,0.0,,,,,0,,1,,
Raw,9413636,9417443000000,,,-1291005709998578176,0.0,60.25745824445039,-18.21788037613744,17.07445718180418,5,31,0.0,15,371927370480323,70,17.7,-41.47450637817383,1.091499924659729,0,0.0,0.0,,,,,0,,1,,
Raw,9413636,9417443000000,,,-1291005709998578176,0.0,60.25745824445039,-18.21788037613744,17.07445718180418,5,32,0.0,15,371927372649607,17,28.4,-172.7532958984375,0.05130000039935112,0,0.0,0.0,,,,,0,,1,,
Raw,9413636,9417443000000,,,-1291005709998578176,0.0,60.25745824445039,-18.21788037613744,17.07445718180418,5,13,0.0,15,371913308502268,61,18.2,325.843017578125,0.9284999966621399,0,0.0,0.0,,,,,0,,5,,
Raw,9413637,9417443000000,,,-1291005709998578176,0.0,60.25745824445039,-18.21788037613744,17.07445718180418,5,21,0.0,15,371913366557732,89,16.2,-266.5316162109375,2.5855000019073486,0,0.0,0.0,,,,,0,,5,,
Raw,9413637,9417443000000,,,-1291005709998578176,0.0,60.25745824445039,-18.21788037613744,17.07445718180418,5,22,0.0,15,371913366903619,70,17.9,318.6319274902344,0.9254999756813049,0,0.0,0.0,,,,,0,,5,,
Raw,9413637,9417443000000,,,-1291005709998578176,0.0,60.25745824445039,-18.21788037613744,17.07445718180418,5,26,0.0,15,371913362999780,16,29.1,-266.1595764160156,0.02970000170171261,0,0.0,0.0,,,,,0,,5,,
Fix,gps,22.925468,120.294756,43.800598,0.000000,4.288000,1606979911000
NMEA,$GPGSV,3,1,11,10,43,184,17,12,06,036,13,16,07,210,23,22,10,314,25*76,1606979910387
NMEA,$GPGSV,3,2,11,25,43,040,20,26,40,215,13,31,47,310,20,32,63,023,30*7D,1606979910387
NMEA,$GPGSV,3,3,11,20,13,165,,23,17,164,,29,21,109,*4F,1606979910388
NMEA,$GLGSV,2,1,06,74,20,239,30,73,58,288,16,70,82,033,,80,38,012,*6B,1606979910388
NMEA,$GLGSV,2,2,06,69,28,143,,71,31,334,*60,1606979910388
NMEA,$GAGSV,1,1,0,*74,1606979910389
NMEA,$PQGSV,1,1,01,193,62,142,11,0,5*63,1606979910389
NMEA,$PQGSV,4,1,16,13,14,216,18,21,58,309,17,22,61,160,18,26,33,260,31,0,4*6B,1606979910390
NMEA,$PQGSV,4,2,16,01,51,129,,02,40,241,,03,59,202,,04,37,115,,0,4*6E,1606979910390
NMEA,$PQGSV,4,3,16,06,61,019,,07,66,189,,08,07,194,,09,47,334,,0,4*68,1606979910391
NMEA,$PQGSV,4,4,16,10,40,206,,16,59,014,,19,09,147,,29,09,116,,0,4*64,1606979910391
NMEA,$GNGSA,A,3,10,16,22,25,26,31,32,,,,,,1.4,1.1,0.9,1*3B,1606979910392
NMEA,$GNGSA,A,2,74,,,,,,,,,,,,1.4,1.1,0.9,2*3C,1606979910392
NMEA,$PQGSA,A,2,13,26,,,,,,,,,,,1.4,1.1,0.9,4*37,1606979910392
NMEA,$GNVTG,,T,,M,0.0,N,0.0,K,A*3D,1606979910393
NMEA,$GNRMC,071831.00,A,2255.528069,N,12017.685342,E,0.0,,031220,2.8,W,A*18,1606979910393
Raw,9414581,9418443000000,,,-1291005709998578176,0.0,58.774785429704934,-19.474034336992002,15.150429695284293,5,10,0.0,207,37110366490976,14,30.2,-477.4210510253906,0.23479999601840973,0,0.0,0.0,,,,,0,,3,,
Raw,9414581,9418443000000,,,-1291005709998578176,0.0,58.774785429704934,-19.474034336992002,15.150429695284293,5,9,0.0,207,37110375214554,103,15.6,12.397133827209473,2.9790000915527344,0,0.0,0.0,,,,,0,,3,,
Raw,9414582,9418443000000,,,-1291005709998578176,0.0,58.774785429704934,-19.474034336992002,15.150429695284293,5,10,0.0,15,371928369609972,70,17.1,530.5482788085938,1.1799999475479126,0,0.0,0.0,,,,,0,,1,,
Raw,9414582,9418443000000,,,-1291005709998578176,0.0,58.774785429704934,-19.474034336992002,15.150429695284293,5,12,0.0,15,371928358659432,625,12.9,683.44921875,15.5885009765625,0,0.0,0.0,,,,,0,,1,,
Raw,9414583,9418443000000,,,-1291005709998578176,0.0,58.774785429704934,-19.474034336992002,15.150429695284293,5,16,0.0,15,371928358214167,35,22.8,-745.7228393554688,0.7534999847412109,0,0.0,0.0,,,,,0,,1,,
Raw,9414583,9418443000000,,,-1291005709998578176,0.0,58.774785429704934,-19.474034336992002,15.150429695284293,5,22,0.0,15,371928358207884,27,24.6,-487.085205078125,0.643500030040741,0,0.0,0.0,,,,,0,,1,,
Raw,9414583,9418443000000,,,-1291005709998578176,0.0,58.774785429704934,-19.474034336992002,15.150429695284293,5,25,0.0,15,371928369896632,46,20.2,476.1718444824219,0.9300000071525574,0,0.0,0.0,,,,,0,,1,,
Raw,9414583,9418443000000,,,-1291005709998578176,0.0,58.774785429704934,-19.474034336992002,15.150429695284293,5,26,0.0,15,371928368830415,624,13.1,-533.7642211914062,15.843501091003418,0,0.0,0.0,,,,,0,,1,,
Raw,9414584,9418443000000,,,-1291005709998578176,0.0,58.774785429704934,-19.474034336992002,15.150429695284293,5,31,0.0,15,371928370480285,46,20.1,-40.99877166748047,0.9314999580383301,0,0.0,0.0,,,,,0,,1,,
Raw,9414584,9418443000000,,,-1291005709998578176,0.0,58.774785429704934,-19.474034336992002,15.150429695284293,5,32,0.0,15,371928372650171,14,30.0,-172.49002075195312,0.043800000101327896,0,0.0,0.0,,,,,0,,1,,
Raw,9414584,9418443000000,,,-1291005709998578176,0.0,58.774785429704934,-19.474034336992002,15.150429695284293,5,13,0.0,15,371914308501181,69,18.2,325.843017578125,2.428499937057495,0,0.0,0.0,,,,,0,,5,,
Raw,9414585,9418443000000,,,-1291005709998578176,0.0,58.774785429704934,-19.474034336992002,15.150429695284293,5,21,0.0,15,371914366558645,73,17.4,-267.5686340332031,1.755500078201294,0,0.0,0.0,,,,,0,,5,,
Raw,9414585,9418443000000,,,-1291005709998578176,0.0,58.774785429704934,-19.474034336992002,15.150429695284293,5,22,0.0,15,371914366902556,78,17.9,318.6319274902344,2.4255001544952393,0,0.0,0.0,,,,,0,,5,,
Raw,9414585,9418443000000,,,-1291005709998578176,0.0,58.774785429704934,-19.474034336992002,15.150429695284293,5,26,0.0,15,371914363000669,14,30.9,-265.92303466796875,0.030300000682473183,0,0.0,0.0,,,,,0,,5,,
NMEA,$GNGGA,071831.00,2255.528069,N,12017.685342,E,1,10,1.1,26.3,M,17.5,M,,*40,1606979910393
Fix,gps,22.925468,120.294756,43.755066,0.000000,4.288000,1606979912000
Raw,9415604,9419443000000,,,-1291005709998578176,0.0,59.39248512731865,-19.391147201825042,17.112713272052794,5,10,0.0,207,37111366492543,14,30.2,-477.6329040527344,0.23479999601840973,0,0.0,0.0,,,,,0,,3,,
Raw,9415605,9419443000000,,,-1291005709998578176,0.0,59.39248512731865,-19.391147201825042,17.112713272052794,5,9,0.0,207,37111375214513,123,15.6,12.397133827209473,4.479000091552734,0,0.0,0.0,,,,,0,,3,,
Raw,9415605,9419443000000,,,-1291005709998578176,0.0,59.39248512731865,-19.391147201825042,17.112713272052794,5,10,0.0,15,371929369608202,79,17.1,530.5482788085938,2.680000066757202,0,0.0,0.0,,,,,0,,1,,
Raw,9415606,9419443000000,,,-1291005709998578176,0.0,59.39248512731865,-19.391147201825042,17.112713272052794,5,12,0.0,15,371929358657153,729,12.9,683.44921875,17.0885009765625,0,0.0,0.0,,,,,0,,1,,
Raw,9415606,9419443000000,,,-1291005709998578176,0.0,59.39248512731865,-19.391147201825042,17.112713272052794,5,16,0.0,15,371929358216657,31,23.9,-746.34130859375,0.6934999823570251,0,0.0,0.0,,,,,0,,1,,
Raw,9415607,9419443000000,,,-1291005709998578176,0.0,59.39248512731865,-19.391147201825042,17.112713272052794,5,22,0.0,15,371929358209502,27,24.4,-487.2659912109375,0.6934999823570251,0,0.0,0.0,,,,,0,,1,,
Raw,9415607,9419443000000,,,-1291005709998578176,0.0,59.39248512731865,-19.391147201825042,17.112713272052794,5,25,0.0,15,371929369895035,46,20.1,476.95208740234375,0.9300000071525574,0,0.0,0.0,,,,,0,,1,,
Raw,9415608,9419443000000,,,-1291005709998578176,0.0,59.39248512731865,-19.391147201825042,17.112713272052794,5,26,0.0,15,371929368832155,121,15.3,-533.9354858398438,4.338500022888184,0,0.0,0.0,,,,,0,,1,,
Raw,9415608,9419443000000,,,-1291005709998578176,0.0,59.39248512731865,-19.391147201825042,17.112713272052794,5,31,0.0,15,371929370480481,40,21.9,-41.626739501953125,0.8014999628067017,0,0.0,0.0,,,,,0,,1,,
Raw,9415609,9419443000000,,,-1291005709998578176,0.0,59.39248512731865,-19.391147201825042,17.112713272052794,5,32,0.0,15,371929372650728,16,29.3,-172.7369842529297,0.04470000043511391,0,0.0,0.0,,,,,0,,1,,
Raw,9415609,9419443000000,,,-1291005709998578176,0.0,59.39248512731865,-19.391147201825042,17.112713272052794,5,13,0.0,15,371915308500142,84,16.4,324.97882080078125,1.8385000228881836,0,0.0,0.0,,,,,0,,5,,
Raw,9415609,9419443000000,,,-1291005709998578176,0.0,59.39248512731865,-19.391147201825042,17.112713272052794,5,21,0.0,15,371915366559503,53,19.4,-266.3395690917969,0.8554999828338623,0,0.0,0.0,,,,,0,,5,,
Raw,9415610,9419443000000,,,-1291005709998578176,0.0,59.39248512731865,-19.391147201825042,17.112713272052794,5,22,0.0,15,371915366901460,96,15.4,320.21624755859375,1.9255000352859497,0,0.0,0.0,,,,,0,,5,,
Raw,9415610,9419443000000,,,-1291005709998578176,0.0,59.39248512731865,-19.391147201825042,17.112713272052794,5,26,0.0,15,371915363001561,14,30.7,-266.13629150390625,0.030300000682473183,0,0.0,0.0,,,,,0,,5,,
NMEA,$GPGSV,3,1,11,10,43,184,17,12,06,036,13,16,07,210,24,22,10,314,24*70,1606979911388
NMEA,$GPGSV,3,2,11,25,43,040,20,26,40,215,15,31,47,310,22,32,63,023,29*71,1606979911388
NMEA,$GPGSV,3,3,11,20,13,165,,23,17,164,,29,21,109,*4F,1606979911389
NMEA,$GLGSV,2,1,06,74,20,239,30,73,58,288,16,70,82,033,,80,38,012,*6B,1606979911389
NMEA,$GLGSV,2,2,06,69,28,143,,71,31,334,*60,1606979911389
NMEA,$GAGSV,1,1,0,*74,1606979911392
NMEA,$PQGSV,1,1,01,193,62,142,11,0,5*63,1606979911393
NMEA,$PQGSV,4,1,16,13,14,216,16,21,58,309,19,22,61,160,15,26,33,260,31,0,4*66,1606979911393
NMEA,$PQGSV,4,2,16,01,51,129,,02,40,241,,03,59,202,,04,37,115,,0,4*6E,1606979911393
NMEA,$PQGSV,4,3,16,06,61,019,,07,66,189,,08,07,194,,09,47,334,,0,4*68,1606979911393
NMEA,$PQGSV,4,4,16,10,40,206,,16,59,014,,19,09,147,,29,09,116,,0,4*64,1606979911393
NMEA,$GNGSA,A,3,10,16,22,25,26,31,32,,,,,,1.4,1.1,0.9,1*3B,1606979911394
NMEA,$GNGSA,A,2,74,,,,,,,,,,,,1.4,1.1,0.9,2*3C,1606979911394
NMEA,$PQGSA,A,2,13,26,,,,,,,,,,,1.4,1.1,0.9,4*37,1606979911395
NMEA,$GNVTG,,T,,M,0.0,N,0.0,K,A*3D,1606979911395
NMEA,$GNRMC,071832.00,A,2255.528072,N,12017.685342,E,0.0,,031220,2.8,W,A*11,1606979911395
NMEA,$GNGGA,071832.00,2255.528072,N,12017.685342,E,1,10,1.1,26.3,M,17.5,M,,*49,1606979911395
Fix,gps,22.925468,120.294756,43.726196,0.000000,4.288000,1606979913000
NMEA,$GPGSV,3,1,11,10,43,184,17,12,06,036,14,16,07,210,25,22,10,314,24*76,1606979912386
NMEA,$GPGSV,3,2,11,25,43,040,19,26,40,215,18,31,47,310,22,32,63,023,30*7E,1606979912386
NMEA,$GPGSV,3,3,11,20,13,165,,23,17,164,,29,21,109,*4F,1606979912386
NMEA,$GLGSV,2,1,06,74,20,239,30,73,58,288,13,70,82,033,,80,38,012,*6E,1606979912387
NMEA,$GLGSV,2,2,06,69,28,143,,71,31,334,*60,1606979912387
NMEA,$GAGSV,1,1,0,*74,1606979912387
NMEA,$PQGSV,1,1,01,193,62,142,11,0,5*63,1606979912387
NMEA,$PQGSV,4,1,16,13,14,216,16,21,58,309,17,22,61,160,17,26,33,260,30,0,4*6B,1606979912387
NMEA,$PQGSV,4,2,16,01,51,129,,02,40,241,,03,59,202,,04,37,115,,0,4*6E,1606979912389
NMEA,$PQGSV,4,3,16,06,61,019,,07,66,189,,08,07,194,,09,47,334,,0,4*68,1606979912389
Raw,9416611,9420443000000,,,-1291005709998578176,0.0,55.420245189452544,-20.402813380196037,16.118686376937127,5,10,0.0,207,37112366494173,14,30.3,-478.7490234375,0.23479999601840973,0,0.0,0.0,,,,,0,,3,,
Raw,9416612,9420443000000,,,-1291005709998578176,0.0,55.420245189452544,-20.402813380196037,16.118686376937127,5,9,0.0,207,37112375214612,133,13.2,12.406496047973633,3.199000120162964,0,0.0,0.0,,,,,0,,3,,
Raw,9416612,9420443000000,,,-1291005709998578176,0.0,55.420245189452544,-20.402813380196037,16.118686376937127,5,10,0.0,15,371930369606433,98,17.1,530.5482788085938,4.180000305175781,0,0.0,0.0,,,,,0,,1,,
Raw,9416613,9420443000000,,,-1291005709998578176,0.0,55.420245189452544,-20.402813380196037,16.118686376937127,5,12,0.0,15,371930358654708,147,14.2,683.44921875,5.088500022888184,0,0.0,0.0,,,,,0,,1,,
Raw,9416613,9420443000000,,,-1291005709998578176,0.0,55.420245189452544,-20.402813380196037,16.118686376937127,5,16,0.0,15,371930358219155,27,24.7,-747.016845703125,0.643500030040741,0,0.0,0.0,,,,,0,,1,,
Raw,9416614,9420443000000,,,-1291005709998578176,0.0,55.420245189452544,-20.402813380196037,16.118686376937127,5,22,0.0,15,371930358211107,27,24.1,-488.7978515625,0.6934999823570251,0,0.0,0.0,,,,,0,,1,,
Raw,9416614,9420443000000,,,-1291005709998578176,0.0,55.420245189452544,-20.402813380196037,16.118686376937127,5,25,0.0,15,371930369893513,53,19.4,474.9920349121094,1.0099999904632568,0,0.0,0.0,,,,,0,,1,,
Raw,9416615,9420443000000,,,-1291005709998578176,0.0,55.420245189452544,-20.402813380196037,16.118686376937127,5,26,0.0,15,371930368833950,61,18.0,-535.0010986328125,1.088499903678894,0,0.0,0.0,,,,,0,,1,,
Raw,9416615,9420443000000,,,-1291005709998578176,0.0,55.420245189452544,-20.402813380196037,16.118686376937127,5,31,0.0,15,371930370480632,35,22.1,-42.99685287475586,0.8014999628067017,0,0.0,0.0,,,,,0,,1,,
Raw,9416616,9420443000000,,,-1291005709998578176,0.0,55.420245189452544,-20.402813380196037,16.118686376937127,5,32,0.0,15,371930372651324,16,29.7,-173.85182189941406,0.04470000043511391,0,0.0,0.0,,,,,0,,1,,
Raw,9416616,9420443000000,,,-1291005709998578176,0.0,55.420245189452544,-20.402813380196037,16.118686376937127,5,13,0.0,15,371916308499058,97,16.4,324.97882080078125,3.3385000228881836,0,0.0,0.0,,,,,0,,5,,
Raw,9416618,9420443000000,,,-1291005709998578176,0.0,55.420245189452544,-20.402813380196037,16.118686376937127,5,21,0.0,15,371916366560404,70,17.3,-267.5686340332031,1.005500078201294,0,0.0,0.0,,,,,0,,5,,
Raw,9416618,9420443000000,,,-1291005709998578176,0.0,55.420245189452544,-20.402813380196037,16.118686376937127,5,22,0.0,15,371916366900343,70,17.0,317.4797058105469,1.005500078201294,0,0.0,0.0,,,,,0,,5,,
Raw,9416619,9420443000000,,,-1291005709998578176,0.0,55.420245189452544,-20.402813380196037,16.118686376937127,5,26,0.0,15,371916363002442,14,30.1,-267.29754638671875,0.030300000682473183,0,0.0,0.0,,,,,0,,5,,
NMEA,$PQGSV,4,4,16,10,40,206,,16,59,014,,19,09,147,,29,09,116,,0,4*64,1606979912389
NMEA,$GNGSA,A,3,10,16,22,25,26,31,32,,,,,,1.4,1.1,0.9,1*3B,1606979912391
NMEA,$GNGSA,A,2,74,,,,,,,,,,,,1.4,1.1,0.9,2*3C,1606979912391
NMEA,$PQGSA,A,2,13,26,,,,,,,,,,,1.4,1.1,0.9,4*37,1606979912391
NMEA,$GNVTG,,T,,M,0.0,N,0.0,K,A*3D,1606979912391
NMEA,$GNRMC,071833.00,A,2255.528075,N,12017.685343,E,0.0,,031220,2.8,W,A*16,1606979912391
NMEA,$GNGGA,071833.00,2255.528075,N,12017.685343,E,1,10,1.1,26.3,M,17.5,M,,*4E,1606979912392
Fix,gps,22.925468,120.294756,43.726990,0.000000,4.288000,1606979914000
NMEA,$GPGSV,3,1,11,10,43,184,14,12,06,036,14,16,07,210,21,22,10,314,22*77,1606979913387
Raw,9417603,9421443000000,,,-1291005709998578176,0.0,55.77220508712344,-24.26775530276889,17.074767340526886,5,10,0.0,207,37113366495715,14,30.0,-480.1955871582031,0.23479999601840973,0,0.0,0.0,,,,,0,,3,,
Raw,9417604,9421443000000,,,-1291005709998578176,0.0,55.77220508712344,-24.26775530276889,17.074767340526886,5,9,0.0,207,37113375214570,153,13.2,12.406496047973633,4.699000358581543,0,0.0,0.0,,,,,0,,3,,
Raw,9417604,9421443000000,,,-1291005709998578176,0.0,55.77220508712344,-24.26775530276889,17.074767340526886,5,10,0.0,15,371931369604772,132,13.5,530.1581420898438,2.990000009536743,0,0.0,0.0,,,,,0,,1,,
Raw,9417605,9421443000000,,,-1291005709998578176,0.0,55.77220508712344,-24.26775530276889,17.074767340526886,5,12,0.0,15,371931358652428,181,14.2,683.44921875,6.588500499725342,0,0.0,0.0,,,,,0,,1,,
Raw,9417606,9421443000000,,,-1291005709998578176,0.0,55.77220508712344,-24.26775530276889,17.074767340526886,5,16,0.0,15,371931358221691,40,21.4,-749.0814819335938,0.8734999895095825,0,0.0,0.0,,,,,0,,1,,
Raw,9417606,9421443000000,,,-1291005709998578176,0.0,55.77220508712344,-24.26775530276889,17.074767340526886,5,22,0.0,15,371931358212771,40,21.7,-489.7017517089844,0.8134999871253967,0,0.0,0.0,,,,,0,,1,,
Raw,9417607,9421443000000,,,-1291005709998578176,0.0,55.77220508712344,-24.26775530276889,17.074767340526886,5,25,0.0,15,371931369891750,61,18.7,474.7256164550781,1.0099999904632568,0,0.0,0.0,,,,,0,,1,,
Raw,9417607,9421443000000,,,-1291005709998578176,0.0,55.77220508712344,-24.26775530276889,17.074767340526886,5,26,0.0,15,371931368835751,53,19.5,-537.2180786132812,0.9284999966621399,0,0.0,0.0,,,,,0,,1,,
Raw,9417608,9421443000000,,,-1291005709998578176,0.0,55.77220508712344,-24.26775530276889,17.074767340526886,5,31,0.0,15,371931370480751,35,22.2,-44.005409240722656,0.8014999628067017,0,0.0,0.0,,,,,0,,1,,
Raw,9417608,9421443000000,,,-1291005709998578176,0.0,55.77220508712344,-24.26775530276889,17.074767340526886,5,32,0.0,15,371931372651854,14,30.4,-175.3341064453125,0.043800000101327896,0,0.0,0.0,,,,,0,,1,,
Raw,9417609,9421443000000,,,-1291005709998578176,0.0,55.77220508712344,-24.26775530276889,17.074767340526886,5,13,0.0,15,371917308497974,121,16.4,324.97882080078125,4.838500022888184,0,0.0,0.0,,,,,0,,5,,
Raw,9417609,9421443000000,,,-1291005709998578176,0.0,55.77220508712344,-24.26775530276889,17.074767340526886,5,21,0.0,15,371917366561272,53,19.2,-268.3559875488281,0.8554999828338623,0,0.0,0.0,,,,,0,,5,,
Raw,9417610,9421443000000,,,-1291005709998578176,0.0,55.77220508712344,-24.26775530276889,17.074767340526886,5,22,0.0,15,371917366899284,78,17.0,317.4797058105469,2.505500078201294,0,0.0,0.0,,,,,0,,5,,
Raw,9417610,9421443000000,,,-1291005709998578176,0.0,55.77220508712344,-24.26775530276889,17.074767340526886,5,26,0.0,15,371917363003337,16,29.3,-268.80999755859375,0.031200001016259193,0,0.0,0.0,,,,,0,,5,,
NMEA,$GPGSV,3,2,11,25,43,040,19,26,40,215,20,31,47,310,22,32,63,023,30*75,1606979913387
NMEA,$GPGSV,3,3,11,20,13,165,,23,17,164,,29,21,109,*4F,1606979913387
NMEA,$GLGSV,2,1,06,74,20,239,30,73,58,288,13,70,82,033,,80,38,012,*6E,1606979913388
NMEA,$GLGSV,2,2,06,69,28,143,,71,31,334,*60,1606979913389
NMEA,$GAGSV,1,1,0,*74,1606979913390
NMEA,$PQGSV,1,1,01,193,62,142,11,0,5*63,1606979913390
NMEA,$PQGSV,4,1,16,13,14,216,16,21,58,309,19,22,61,160,17,26,33,260,29,0,4*6D,1606979913391
NMEA,$PQGSV,4,2,16,01,51,129,,02,40,241,,03,59,202,,04,37,115,,0,4*6E,1606979913392
NMEA,$PQGSV,4,3,16,06,61,019,,07,66,189,,08,07,194,,09,47,334,,0,4*68,1606979913392
NMEA,$PQGSV,4,4,16,10,40,206,,16,59,014,,19,09,147,,29,09,116,,0,4*64,1606979913393
NMEA,$GNGSA,A,3,10,16,22,25,26,31,32,,,,,,1.4,1.1,0.9,1*3B,1606979913393
NMEA,$GNGSA,A,2,74,,,,,,,,,,,,1.4,1.1,0.9,2*3C,1606979913394
NMEA,$PQGSA,A,2,13,26,,,,,,,,,,,1.4,1.1,0.9,4*37,1606979913394
NMEA,$GNVTG,,T,,M,0.0,N,0.0,K,A*3D,1606979913395
NMEA,$GNRMC,071834.00,A,2255.528079,N,12017.685341,E,0.0,,031220,2.8,W,A*1F,1606979913395
NMEA,$GNGGA,071834.00,2255.528079,N,12017.685341,E,1,10,1.1,26.3,M,17.5,M,,*47,1606979913396
Fix,gps,22.925468,120.294756,43.695374,0.000000,5.360000,1606979915000
NMEA,$GPGSV,3,1,11,10,43,184,14,12,06,036,14,16,07,210,22,22,10,314,23*75,1606979914386
NMEA,$GPGSV,3,2,11,25,43,040,19,26,40,215,20,31,47,310,20,32,63,023,31*76,1606979914387
NMEA,$GPGSV,3,3,11,20,13,165,,23,17,164,,29,21,109,*4F,1606979914388
NMEA,$GLGSV,2,1,06,74,20,239,30,73,58,288,13,70,82,033,,80,38,012,*6E,1606979914388
NMEA,$GLGSV,2,2,06,69,28,143,,71,31,334,*60,1606979914391
NMEA,$GAGSV,1,1,0,*74,1606979914391
NMEA,$PQGSV,1,1,01,193,62,142,11,0,5*63,1606979914393
NMEA,$PQGSV,4,1,16,13,14,216,16,21,58,309,20,22,61,160,17,26,33,260,30,0,4*6F,1606979914393
Raw,9418606,9422443000000,,,-1291005709998578432,0.0,60.930811741854995,-29.11938051623831,18.11205899162345,5,10,0.0,207,37114366497313,16,29.5,-481.9045104980469,0.23569999635219574,0,0.0,0.0,,,,,0,,3,,
Raw,9418606,9422443000000,,,-1291005709998578432,0.0,60.930811741854995,-29.11938051623831,18.11205899162345,5,9,0.0,207,37114375214529,184,13.2,12.406496047973633,6.199000358581543,0,0.0,0.0,,,,,0,,3,,
Raw,9418607,9422443000000,,,-1291005709998578432,0.0,60.930811741854995,-29.11938051623831,18.11205899162345,5,10,0.0,15,371932369603003,152,13.5,530.1581420898438,4.490000247955322,0,0.0,0.0,,,,,0,,1,,
Raw,9418607,9422443000000,,,-1291005709998578432,0.0,60.930811741854995,-29.11938051623831,18.11205899162345,5,12,0.0,15,371932358650148,225,14.2,683.44921875,8.088500022888184,0,0.0,0.0,,,,,0,,1,,
Raw,9418608,9422443000000,,,-1291005709998578432,0.0,60.930811741854995,-29.11938051623831,18.11205899162345,5,16,0.0,15,371932358224144,40,21.9,-750.6038818359375,0.8134999871253967,0,0.0,0.0,,,,,0,,1,,
Raw,9418608,9422443000000,,,-1291005709998578432,0.0,60.930811741854995,-29.11938051623831,18.11205899162345,5,22,0.0,15,371932358214340,31,23.4,-492.10894775390625,0.7534999847412109,0,0.0,0.0,,,,,0,,1,,
Raw,9418609,9422443000000,,,-1291005709998578432,0.0,60.930811741854995,-29.11938051623831,18.11205899162345,5,25,0.0,15,371932369890198,61,18.5,472.4801940917969,1.0099999904632568,0,0.0,0.0,,,,,0,,1,,
Raw,9418610,9422443000000,,,-1291005709998578432,0.0,60.930811741854995,-29.11938051623831,18.11205899162345,5,26,0.0,15,371932368837487,46,20.0,-538.683349609375,0.9284999966621399,0,0.0,0.0,,,,,0,,1,,
Raw,9418610,9422443000000,,,-1291005709998578432,0.0,60.930811741854995,-29.11938051623831,18.11205899162345,5,31,0.0,15,371932370480944,46,20.3,-46.507774353027344,0.9314999580383301,0,0.0,0.0,,,,,0,,1,,
Raw,9418611,9422443000000,,,-1291005709998578432,0.0,60.930811741854995,-29.11938051623831,18.11205899162345,5,32,0.0,15,371932372652462,14,30.9,-177.06292724609375,0.043800000101327896,0,0.0,0.0,,,,,0,,1,,
Raw,9418611,9422443000000,,,-1291005709998578432,0.0,60.930811741854995,-29.11938051623831,18.11205899162345,5,13,0.0,15,371918308496890,155,16.4,324.97882080078125,6.338500022888184,0,0.0,0.0,,,,,0,,5,,
Raw,9418613,9422443000000,,,-1291005709998578432,0.0,60.930811741854995,-29.11938051623831,18.11205899162345,5,21,0.0,15,371918366562174,53,19.9,-269.3833923339844,0.7954999804496765,0,0.0,0.0,,,,,0,,5,,
Raw,9418613,9422443000000,,,-1291005709998578432,0.0,60.930811741854995,-29.11938051623831,18.11205899162345,5,22,0.0,15,371918366898225,97,17.0,317.4797058105469,4.005500316619873,0,0.0,0.0,,,,,0,,5,,
Raw,9418614,9422443000000,,,-1291005709998578432,0.0,60.930811741854995,-29.11938051623831,18.11205899162345,5,26,0.0,15,371918363004245,14,30.1,-270.51678466796875,0.030300000682473183,0,0.0,0.0,,,,,0,,5,,
NMEA,$PQGSV,4,2,16,01,51,129,,02,40,241,,03,59,202,,04,37,115,,0,4*6E,1606979914393
NMEA,$PQGSV,4,3,16,06,61,019,,07,66,189,,08,07,194,,09,47,334,,0,4*68,1606979914394
NMEA,$PQGSV,4,4,16,10,40,206,,16,59,014,,19,09,147,,29,09,116,,0,4*64,1606979914395
NMEA,$GNGSA,A,3,10,16,22,25,26,31,32,,,,,,1.4,1.1,0.9,1*3B,1606979914398
NMEA,$GNGSA,A,2,74,,,,,,,,,,,,1.4,1.1,0.9,2*3C,1606979914399
NMEA,$PQGSA,A,2,13,26,,,,,,,,,,,1.4,1.1,0.9,4*37,1606979914399
NMEA,$GNVTG,,T,,M,0.0,N,0.0,K,A*3D,1606979914399
NMEA,$GNRMC,071835.00,A,2255.528088,N,12017.685338,E,0.0,,031220,2.8,W,A*1E,1606979914400
NMEA,$GNGGA,071835.00,2255.528088,N,12017.685338,E,1,10,1.1,26.2,M,17.5,M,,*47,1606979914400
Fix,gps,22.925468,120.294756,43.683777,0.000000,5.360000,1606979916000
NMEA,$GPGSV,3,1,11,10,43,184,14,12,06,036,14,16,07,210,20,22,10,314,25*71,1606979915387
Raw,9419596,9423443000000,,,-1291005709998578432,0.0,61.14793359301984,-34.58761558546149,18.128421057164257,5,10,0.0,207,37115366498938,16,29.1,-481.95172119140625,0.23569999635219574,0,0.0,0.0,,,,,0,,3,,
Raw,9419597,9423443000000,,,-1291005709998578432,0.0,61.14793359301984,-34.58761558546149,18.128421057164257,5,9,0.0,207,37115375214487,225,13.2,12.406496047973633,7.699000358581543,0,0.0,0.0,,,,,0,,3,,
Raw,9419598,9423443000000,,,-1291005709998578432,0.0,61.14793359301984,-34.58761558546149,18.128421057164257,5,10,0.0,15,371933369601235,182,13.5,530.1581420898438,5.990000247955322,0,0.0,0.0,,,,,0,,1,,
Raw,9419598,9423443000000,,,-1291005709998578432,0.0,61.14793359301984,-34.58761558546149,18.128421057164257,5,12,0.0,15,371933358647869,279,14.2,683.44921875,9.588500022888184,0,0.0,0.0,,,,,0,,1,,
Raw,9419599,9423443000000,,,-1291005709998578432,0.0,61.14793359301984,-34.58761558546149,18.128421057164257,5,16,0.0,15,371933358226636,46,20.2,-750.04248046875,0.9434999823570251,0,0.0,0.0,,,,,0,,1,,
Raw,9419599,9423443000000,,,-1291005709998578432,0.0,61.14793359301984,-34.58761558546149,18.128421057164257,5,22,0.0,15,371933358215992,27,24.6,-491.6807861328125,0.643500030040741,0,0.0,0.0,,,,,0,,1,,
Raw,9419600,9423443000000,,,-1291005709998578432,0.0,61.14793359301984,-34.58761558546149,18.128421057164257,5,25,0.0,15,371933369888678,53,19.6,472.2137451171875,0.9300000071525574,0,0.0,0.0,,,,,0,,1,,
Raw,9419601,9423443000000,,,-1291005709998578432,0.0,61.14793359301984,-34.58761558546149,18.128421057164257,5,26,0.0,15,371933368839284,54,20.0,-538.683349609375,2.428499937057495,0,0.0,0.0,,,,,0,,1,,
Raw,9419601,9423443000000,,,-1291005709998578432,0.0,61.14793359301984,-34.58761558546149,18.128421057164257,5,31,0.0,15,371933370480982,53,19.7,-46.507774353027344,0.9314999580383301,0,0.0,0.0,,,,,0,,1,,
Raw,9419602,9423443000000,,,-1291005709998578432,0.0,61.14793359301984,-34.58761558546149,18.128421057164257,5,32,0.0,15,371933372653046,14,30.4,-177.16006469726562,0.043800000101327896,0,0.0,0.0,,,,,0,,1,,
Raw,9419602,9423443000000,,,-1291005709998578432,0.0,61.14793359301984,-34.58761558546149,18.128421057164257,5,13,0.0,15,371919308495835,124,14.1,320.571533203125,3.5185000896453857,0,0.0,0.0,,,,,0,,5,,
Raw,9419603,9423443000000,,,-1291005709998578432,0.0,61.14793359301984,-34.58761558546149,18.128421057164257,5,21,0.0,15,371919366563091,46,20.3,-271.3038024902344,0.7954999804496765,0,0.0,0.0,,,,,0,,5,,
Raw,9419603,9423443000000,,,-1291005709998578432,0.0,61.14793359301984,-34.58761558546149,18.128421057164257,5,22,0.0,15,371919366897166,131,13.0,316.2506408691406,2.8655002117156982,0,0.0,0.0,,,,,0,,5,,
Raw,9419604,9423443000000,,,-1291005709998578432,0.0,61.14793359301984,-34.58761558546149,18.128421057164257,5,26,0.0,15,371919363005136,16,29.1,-270.6024169921875,0.031200001016259193,0,0.0,0.0,,,,,0,,5,,
NMEA,$GPGSV,3,2,11,25,43,040,20,26,40,215,20,31,47,310,20,32,63,023,30*7D,1606979915387
NMEA,$GPGSV,3,3,11,20,13,165,,23,17,164,,29,21,109,*4F,1606979915388
NMEA,$GLGSV,2,1,06,74,20,239,29,73,58,288,13,70,82,033,,80,38,012,*66,1606979915388
NMEA,$GLGSV,2,2,06,69,28,143,,71,31,334,*60,1606979915388
NMEA,$GAGSV,1,1,0,*74,1606979915388
NMEA,$PQGSV,1,1,01,193,62,142,11,0,5*63,1606979915388
NMEA,$PQGSV,4,1,16,13,14,216,14,21,58,309,20,22,61,160,13,26,33,260,29,0,4*61,1606979915389
NMEA,$PQGSV,4,2,16,01,51,129,,02,40,241,,03,59,202,,04,37,115,,0,4*6E,1606979915389
NMEA,$PQGSV,4,3,16,06,61,019,,07,66,189,,08,07,194,,09,47,334,,0,4*68,1606979915389
NMEA,$PQGSV,4,4,16,10,40,206,,16,59,014,,19,09,147,,29,09,116,,0,4*64,1606979915389
NMEA,$GNGSA,A,3,10,16,22,25,26,31,32,,,,,,1.4,1.1,0.9,1*3B,1606979915390
NMEA,$GNGSA,A,2,74,,,,,,,,,,,,1.4,1.1,0.9,2*3C,1606979915390
NMEA,$PQGSA,A,2,13,26,,,,,,,,,,,1.4,1.1,0.9,4*37,1606979915391
NMEA,$GNVTG,,T,,M,0.0,N,0.0,K,A*3D,1606979915391
NMEA,$GNRMC,071836.00,A,2255.528092,N,12017.685336,E,0.0,,031220,2.8,W,A*18,1606979915395
NMEA,$GNGGA,071836.00,2255.528092,N,12017.685336,E,1,10,1.1,26.2,M,17.5,M,,*41,1606979915395
NMEA,$GPGSV,3,1,11,10,43,184,16,12,06,036,15,16,07,210,23,22,10,314,24*70,1606979916387
Fix,gps,22.925468,120.294756,43.668579,0.000000,5.360000,1606979917000
NMEA,$GPGSV,3,2,11,25,43,040,20,26,40,215,20,31,47,310,21,32,63,023,31*7D,1606979916388
NMEA,$GPGSV,3,3,11,20,13,165,,23,17,164,,29,21,109,*4F,1606979916388
NMEA,$GLGSV,2,1,06,74,20,239,29,73,58,288,13,70,82,033,,80,38,012,*66,1606979916388
NMEA,$GLGSV,2,2,06,69,28,143,,71,31,334,*60,1606979916388
NMEA,$GAGSV,1,1,01,25,13,223,21*5C,1606979916389
NMEA,$PQGSV,1,1,01,193,62,142,11,0,5*63,1606979916391
NMEA,$PQGSV,4,1,16,13,14,216,14,21,58,309,21,22,61,160,13,26,33,260,30,0,4*68,1606979916392
NMEA,$PQGSV,4,2,16,01,51,129,,02,40,241,,03,59,202,,04,37,115,,0,4*6E,1606979916392
NMEA,$PQGSV,4,3,16,06,61,019,,07,66,189,,08,07,194,,09,47,334,,0,4*68,1606979916392
NMEA,$PQGSV,4,4,16,10,40,206,,16,59,014,,19,09,147,,29,09,116,,0,4*64,1606979916392
NMEA,$GNGSA,A,3,10,16,22,25,26,31,32,,,,,,1.4,1.1,0.9,1*3B,1606979916394
Raw,9420613,9424443000000,,,-1291005709998578432,0.0,61.352227930910885,-35.379570096341546,18.16240172871221,5,10,0.0,207,37116366500579,16,29.4,-480.2520446777344,0.23569999635219574,0,0.0,0.0,,,,,0,,3,,
Raw,9420614,9424443000000,,,-1291005709998578432,0.0,61.352227930910885,-35.379570096341546,18.16240172871221,5,9,0.0,207,37116375214446,276,13.2,12.406496047973633,9.199000358581543,0,0.0,0.0,,,,,0,,3,,
Raw,9420614,9424443000000,,,-1291005709998578432,0.0,61.352227930910885,-35.379570096341546,18.16240172871221,5,10,0.0,15,371934369599352,90,16.2,528.3694458007812,2.7699999809265137,0,0.0,0.0,,,,,0,,1,,
Raw,9420614,9424443000000,,,-1291005709998578432,0.0,61.352227930910885,-35.379570096341546,18.16240172871221,5,12,0.0,15,371934358645876,125,14.8,679.4911499023438,3.633500099182129,0,0.0,0.0,,,,,0,,1,,
Raw,9420615,9424443000000,,,-1291005709998578432,0.0,61.352227930910885,-35.379570096341546,18.16240172871221,5,16,0.0,15,371934358229132,35,22.9,-749.37646484375,0.7684999704360962,0,0.0,0.0,,,,,0,,1,,
Raw,9420615,9424443000000,,,-1291005709998578432,0.0,61.352227930910885,-35.379570096341546,18.16240172871221,5,22,0.0,15,371934358217638,31,23.9,-490.3582763671875,0.7084999680519104,0,0.0,0.0,,,,,0,,1,,
Raw,9420615,9424443000000,,,-1291005709998578432,0.0,61.352227930910885,-35.379570096341546,18.16240172871221,5,25,0.0,15,371934369886997,46,20.2,473.0129699707031,0.9449999928474426,0,0.0,0.0,,,,,0,,1,,
Raw,9420616,9424443000000,,,-1291005709998578432,0.0,61.352227930910885,-35.379570096341546,18.16240172871221,5,26,0.0,15,371934368841081,72,20.0,-538.683349609375,3.928500175476074,0,0.0,0.0,,,,,0,,1,,
Raw,9420616,9424443000000,,,-1291005709998578432,0.0,61.352227930910885,-35.379570096341546,18.16240172871221,5,31,0.0,15,371934370481200,46,20.5,-44.433570861816406,0.8765000104904175,0,0.0,0.0,,,,,0,,1,,
Raw,9420617,9424443000000,,,-1291005709998578432,0.0,61.352227930910885,-35.379570096341546,18.16240172871221,5,32,0.0,15,371934372653649,14,30.5,-175.4738006591797,0.058800000697374344,0,0.0,0.0,,,,,0,,1,,
Raw,9420617,9424443000000,,,-1291005709998578432,0.0,61.352227930910885,-35.379570096341546,18.16240172871221,5,13,0.0,15,371920308494765,148,14.1,320.571533203125,5.018500328063965,0,0.0,0.0,,,,,0,,5,,
Raw,9420617,9424443000000,,,-1291005709998578432,0.0,61.352227930910885,-35.379570096341546,18.16240172871221,5,21,0.0,15,371920366563945,40,21.4,-269.0089416503906,0.7354999780654907,0,0.0,0.0,,,,,0,,5,,
Raw,9420618,9424443000000,,,-1291005709998578432,0.0,61.352227930910885,-35.379570096341546,18.16240172871221,5,22,0.0,15,371920366896111,151,13.0,316.2506408691406,4.365499973297119,0,0.0,0.0,,,,,0,,5,,
Raw,9420618,9424443000000,,,-1291005709998578432,0.0,61.352227930910885,-35.379570096341546,18.16240172871221,5,26,0.0,15,371920363006047,14,30.0,-268.91864013671875,0.030300000682473183,0,0.0,0.0,,,,,0,,5,,
Raw,9420618,9424443000000,,,-1291005709998578432,0.0,61.352227930910885,-35.379570096341546,18.16240172871221,5,25,0.0,7183,371934349715225,367,20.9,-478.6076354980469,1.1119999885559082,0,0.0,0.0,,,,,0,,6,,
NMEA,$GNGSA,A,2,74,,,,,,,,,,,,1.4,1.1,0.9,2*3C,1606979916394
NMEA,$PQGSA,A,2,13,26,,,,,,,,,,,1.4,1.1,0.9,4*37,1606979916395
NMEA,$GNVTG,,T,,M,0.0,N,0.0,K,A*3D,1606979916395
NMEA,$GNRMC,071837.00,A,2255.528094,N,12017.685334,E,0.0,,031220,2.8,W,A*1D,1606979916395
NMEA,$GNGGA,071837.00,2255.528094,N,12017.685334,E,1,10,1.1,26.2,M,17.5,M,,*44,1606979916395
Fix,gps,22.925468,120.294756,43.656433,0.000000,5.360000,1606979918000
Raw,9421598,9425443000000,,,-1291005709998578432,0.0,58.9802730246447,-30.741628337239742,17.168182376132712,5,10,0.0,207,37117366502154,16,29.2,-478.947509765625,0.23569999635219574,0,0.0,0.0,,,,,0,,3,,
Raw,9421598,9425443000000,,,-1291005709998578432,0.0,58.9802730246447,-30.741628337239742,17.168182376132712,5,9,0.0,207,37117375214405,337,13.2,12.406496047973633,10.699000358581543,0,0.0,0.0,,,,,0,,3,,
Raw,9421599,9425443000000,,,-1291005709998578432,0.0,58.9802730246447,-30.741628337239742,17.168182376132712,5,10,0.0,15,371935369597590,109,16.2,528.3694458007812,4.269999980926514,0,0.0,0.0,,,,,0,,1,,
Raw,9421599,9425443000000,,,-1291005709998578432,0.0,58.9802730246447,-30.741628337239742,17.168182376132712,5,12,0.0,15,371935358643609,149,14.8,679.4911499023438,5.133500099182129,0,0.0,0.0,,,,,0,,1,,
Raw,9421600,9425443000000,,,-1291005709998578432,0.0,58.9802730246447,-30.741628337239742,17.168182376132712,5,16,0.0,15,371935358231708,31,23.5,-747.5686645507812,0.6934999823570251,0,0.0,0.0,,,,,0,,1,,
Raw,9421602,9425443000000,,,-1291005709998578432,0.0,58.9802730246447,-30.741628337239742,17.168182376132712,5,22,0.0,15,371935358219310,27,24.5,-489.18792724609375,0.643500030040741,0,0.0,0.0,,,,,0,,1,,
Raw,9421602,9425443000000,,,-1291005709998578432,0.0,58.9802730246447,-30.741628337239742,17.168182376132712,5,25,0.0,15,371935369885548,70,17.8,476.22894287109375,1.0899999141693115,0,0.0,0.0,,,,,0,,1,,
Raw,9421603,9425443000000,,,-1291005709998578432,0.0,58.9802730246447,-30.741628337239742,17.168182376132712,5,26,0.0,15,371935368842895,102,15.9,-538.0458374023438,2.7685000896453857,0,0.0,0.0,,,,,0,,1,,
Raw,9421604,9425443000000,,,-1291005709998578432,0.0,58.9802730246447,-30.741628337239742,17.168182376132712,5,31,0.0,15,371935370481251,46,20.0,-43.63433837890625,0.9314999580383301,0,0.0,0.0,,,,,0,,1,,
Raw,9421605,9425443000000,,,-1291005709998578432,0.0,58.9802730246447,-30.741628337239742,17.168182376132712,5,32,0.0,15,371935372654235,14,30.4,-174.20413208007812,0.043800000101327896,0,0.0,0.0,,,,,0,,1,,
Raw,9421605,9425443000000,,,-1291005709998578432,0.0,58.9802730246447,-30.741628337239742,17.168182376132712,5,13,0.0,15,371921308493696,183,14.1,320.571533203125,6.518500328063965,0,0.0,0.0,,,,,0,,5,,
Raw,9421606,9425443000000,,,-1291005709998578432,0.0,58.9802730246447,-30.741628337239742,17.168182376132712,5,21,0.0,15,371921366564910,53,19.2,-268.3656005859375,0.8554999828338623,0,0.0,0.0,,,,,0,,5,,
Raw,9421607,9425443000000,,,-1291005709998578432,0.0,58.9802730246447,-30.741628337239742,17.168182376132712,5,22,0.0,15,371921366895056,181,13.0,316.2506408691406,5.865500450134277,0,0.0,0.0,,,,,0,,5,,
Raw,9421607,9425443000000,,,-1291005709998578432,0.0,58.9802730246447,-30.741628337239742,17.168182376132712,5,26,0.0,15,371921363006962,16,29.6,-267.6606750488281,0.031200001016259193,0,0.0,0.0,,,,,0,,5,,
Raw,9421608,9425443000000,,,-1291005709998578432,0.0,58.9802730246447,-30.741628337239742,17.168182376132712,5,25,0.0,7183,371935349716803,371,20.1,-481.7664794921875,1.8619999885559082,0,0.0,0.0,,,,,0,,6,,
NMEA,$GPGSV,3,1,11,10,43,184,16,12,06,036,15,16,07,210,24,22,10,314,25*76,1606979917387
NMEA,$GPGSV,3,2,11,25,43,040,18,26,40,215,16,31,47,310,20,32,63,023,30*73,1606979917387
NMEA,$GPGSV,3,3,11,20,13,165,,23,17,164,,29,21,109,*4F,1606979917387
NMEA,$GLGSV,2,1,06,74,20,239,29,73,58,288,13,70,82,033,,80,38,012,*66,1606979917388
NMEA,$GLGSV,2,2,06,69,28,143,,71,31,334,*60,1606979917388
NMEA,$GAGSV,1,1,01,25,13,223,20*5D,1606979917388
NMEA,$PQGSV,1,1,01,193,62,142,11,0,5*63,1606979917388
NMEA,$PQGSV,4,1,16,13,14,216,14,21,58,309,19,22,61,160,13,26,33,260,30,0,4*63,1606979917389
NMEA,$PQGSV,4,2,16,01,51,129,,02,40,241,,03,59,202,,04,37,115,,0,4*6E,1606979917390
NMEA,$PQGSV,4,3,16,06,61,019,,07,66,189,,08,07,194,,09,47,334,,0,4*68,1606979917390
NMEA,$PQGSV,4,4,16,10,40,206,,16,59,014,,19,09,147,,29,09,116,,0,4*64,1606979917390
NMEA,$GNGSA,A,3,10,16,22,25,26,31,32,,,,,,1.4,1.1,0.9,1*3B,1606979917391
NMEA,$GNGSA,A,2,74,,,,,,,,,,,,1.4,1.1,0.9,2*3C,1606979917392
NMEA,$GNGSA,A,2,25,,,,,,,,,,,,1.4,1.1,0.9,3*39,1606979917392
NMEA,$PQGSA,A,2,13,26,,,,,,,,,,,1.4,1.1,0.9,4*37,1606979917392
NMEA,$GNVTG,,T,,M,0.0,N,0.0,K,A*3D,1606979917392
NMEA,$GNRMC,071838.00,A,2255.528095,N,12017.685332,E,0.0,,031220,2.8,W,A*15,1606979917392
NMEA,$GNGGA,071838.00,2255.528095,N,12017.685332,E,1,11,1.1,26.2,M,17.5,M,,*4D,1606979917393
Fix,gps,22.925468,120.294756,43.643738,0.000000,4.288000,1606979919000
NMEA,$GPGSV,3,1,11,10,43,184,16,12,06,036,15,16,07,210,23,22,10,314,25*71,1606979918397
NMEA,$GPGSV,3,2,11,25,43,040,19,26,40,215,18,31,47,310,19,32,63,023,31*77,1606979918398
NMEA,$GPGSV,3,3,11,20,13,165,,23,17,164,,29,21,109,*4F,1606979918403
NMEA,$GLGSV,2,1,06,74,20,239,31,73,58,288,13,70,82,033,,80,38,012,*6F,1606979918404
NMEA,$GLGSV,2,2,06,69,28,143,,71,31,334,*60,1606979918405
NMEA,$GAGSV,1,1,01,25,13,223,19*57,1606979918407
NMEA,$PQGSV,1,1,01,193,62,142,11,0,5*63,1606979918408
NMEA,$PQGSV,4,1,16,13,14,216,16,21,58,309,19,22,61,160,13,26,33,260,30,0,4*61,1606979918412
NMEA,$PQGSV,4,2,16,01,51,129,,02,40,241,,03,59,202,,04,37,115,,0,4*6E,1606979918412
NMEA,$PQGSV,4,3,16,06,61,019,,07,66,189,,08,07,194,,09,47,334,,0,4*68,1606979918418
Raw,9422626,9426443000000,,,-1291005709998578432,0.0,58.39899677084759,-27.325594244333313,16.137383380964753,5,10,0.0,207,37118366503748,14,30.9,-477.9056091308594,0.23479999601840973,0,0.0,0.0,,,,,0,,3,,
Raw,9422626,9426443000000,,,-1291005709998578432,0.0,58.39899677084759,-27.325594244333313,16.137383380964753,5,9,0.0,207,37118375214363,408,13.2,12.406496047973633,12.199000358581543,0,0.0,0.0,,,,,0,,3,,
Raw,9422627,9426443000000,,,-1291005709998578432,0.0,58.39899677084759,-27.325594244333313,16.137383380964753,5,10,0.0,15,371936369595827,139,16.2,528.3694458007812,5.770000457763672,0,0.0,0.0,,,,,0,,1,,
Raw,9422627,9426443000000,,,-1291005709998578432,0.0,58.39899677084759,-27.325594244333313,16.137383380964753,5,12,0.0,15,371936358641342,184,14.8,679.4911499023438,6.633500099182129,0,0.0,0.0,,,,,0,,1,,
Raw,9422628,9426443000000,,,-1291005709998578432,0.0,58.39899677084759,-27.325594244333313,16.137383380964753,5,16,0.0,15,371936358234123,31,23.3,-747.1119995117188,0.7534999847412109,0,0.0,0.0,,,,,0,,1,,
Raw,9422628,9426443000000,,,-1291005709998578432,0.0,58.39899677084759,-27.325594244333313,16.137383380964753,5,22,0.0,15,371936358220862,24,25.3,-488.091552734375,0.40880000591278076,0,0.0,0.0,,,,,0,,1,,
Raw,9422629,9426443000000,,,-1291005709998578432,0.0,58.39899677084759,-27.325594244333313,16.137383380964753,5,25,0.0,15,371936369883816,61,18.9,475.36309814453125,1.0099999904632568,0,0.0,0.0,,,,,0,,1,,
Raw,9422630,9426443000000,,,-1291005709998578432,0.0,58.39899677084759,-27.325594244333313,16.137383380964753,5,26,0.0,15,371936368844749,61,18.0,-534.1257934570312,1.088499903678894,0,0.0,0.0,,,,,0,,1,,
Raw,9422631,9426443000000,,,-1291005709998578432,0.0,58.39899677084759,-27.325594244333313,16.137383380964753,5,31,0.0,15,371936370481451,53,19.1,-42.007328033447266,1.0115000009536743,0,0.0,0.0,,,,,0,,1,,
Raw,9422631,9426443000000,,,-1291005709998578432,0.0,58.39899677084759,-27.325594244333313,16.137383380964753,5,32,0.0,15,371936372654798,14,30.9,-173.1835479736328,0.043800000101327896,0,0.0,0.0,,,,,0,,1,,
Raw,9422632,9426443000000,,,-1291005709998578432,0.0,58.39899677084759,-27.325594244333313,16.137383380964753,5,13,0.0,15,371922308492584,89,16.0,324.2778625488281,2.5885000228881836,0,0.0,0.0,,,,,0,,5,,
Raw,9422632,9426443000000,,,-1291005709998578432,0.0,58.39899677084759,-27.325594244333313,16.137383380964753,5,21,0.0,15,371922366565805,61,19.2,-268.3656005859375,2.3554999828338623,0,0.0,0.0,,,,,0,,5,,
Raw,9422633,9426443000000,,,-1291005709998578432,0.0,58.39899677084759,-27.325594244333313,16.137383380964753,5,22,0.0,15,371922366894001,220,13.0,316.2506408691406,7.365500450134277,0,0.0,0.0,,,,,0,,5,,
Raw,9422633,9426443000000,,,-1291005709998578432,0.0,58.39899677084759,-27.325594244333313,16.137383380964753,5,26,0.0,15,371922363007847,16,29.6,-266.68310546875,0.031200001016259193,0,0.0,0.0,,,,,0,,5,,
Raw,9422634,9426443000000,,,-1291005709998578432,0.0,58.39899677084759,-27.325594244333313,16.137383380964753,5,25,0.0,7183,371936349718395,433,19.4,-480.0919189453125,2.6720001697540283,0,0.0,0.0,,,,,0,,6,,
NMEA,$PQGSV,4,4,16,10,40,206,,16,59,014,,19,09,147,,29,09,116,,0,4*64,1606979918418
NMEA,$GNGSA,A,3,10,16,22,25,26,31,32,,,,,,1.4,1.1,0.9,1*3B,1606979918420
NMEA,$GNGSA,A,2,74,,,,,,,,,,,,1.4,1.1,0.9,2*3C,1606979918420
NMEA,$GNGSA,A,2,25,,,,,,,,,,,,1.4,1.1,0.9,3*39,1606979918420
NMEA,$PQGSA,A,2,13,26,,,,,,,,,,,1.4,1.1,0.9,4*37,1606979918420
NMEA,$GNVTG,,T,,M,0.0,N,0.0,K,A*3D,1606979918420
NMEA,$GNRMC,071839.00,A,2255.528095,N,12017.685330,E,0.0,,031220,2.8,W,A*16,1606979918420
NMEA,$GNGGA,071839.00,2255.528095,N,12017.685330,E,1,11,1.1,26.2,M,17.5,M,,*4E,1606979918420
Fix,gps,22.925468,120.294755,43.627075,0.000000,4.288000,1606979920000
NMEA,$GPGSV,3,1,11,10,43,184,16,12,06,036,15,16,07,210,24,22,10,314,26*75,1606979919399
NMEA,$GPGSV,3,2,11,25,43,040,19,26,40,215,20,31,47,310,19,32,63,023,31*7C,1606979919400
NMEA,$GPGSV,3,3,11,20,13,165,,23,17,164,,29,21,109,*4F,1606979919400
NMEA,$GLGSV,2,1,06,74,20,239,30,73,58,288,10,70,82,033,,80,38,012,*6D,1606979919402
NMEA,$GLGSV,2,2,06,69,28,143,,71,31,334,*60,1606979919402
NMEA,$GAGSV,1,1,02,24,66,239,16,25,13,223,19*6D,1606979919408
NMEA,$PQGSV,1,1,01,193,62,142,11,0,5*63,1606979919409
NMEA,$PQGSV,4,1,16,13,14,216,18,21,58,309,17,22,61,160,13,26,33,260,30,0,4*61,1606979919410
NMEA,$PQGSV,4,2,16,01,51,129,,02,40,241,,03,59,202,,04,37,115,,0,4*6E,1606979919411
Raw,9423629,9427443000000,,,-1291005709998578432,0.0,56.582095567137,-24.077772746488524,16.125576672253818,5,10,0.0,207,37119366505332,14,30.0,-477.60406494140625,0.23479999601840973,0,0.0,0.0,,,,,0,,3,,
Raw,9423630,9427443000000,,,-1291005709998578432,0.0,56.582095567137,-24.077772746488524,16.125576672253818,5,9,0.0,207,37119375214165,247,10.4,10.795992851257324,6.589000225067139,0,0.0,0.0,,,,,0,,3,,
Raw,9423630,9427443000000,,,-1291005709998578432,0.0,56.582095567137,-24.077772746488524,16.125576672253818,5,10,0.0,15,371937369594065,178,16.2,528.3694458007812,7.270000457763672,0,0.0,0.0,,,,,0,,1,,
Raw,9423631,9427443000000,,,-1291005709998578432,0.0,56.582095567137,-24.077772746488524,16.125576672253818,5,12,0.0,15,371937358638923,102,15.3,682.4882202148438,2.883500099182129,0,0.0,0.0,,,,,0,,1,,
Raw,9423632,9427443000000,,,-1291005709998578432,0.0,56.582095567137,-24.077772746488524,16.125576672253818,5,16,0.0,15,371937358236576,27,24.2,-746.34130859375,0.6934999823570251,0,0.0,0.0,,,,,0,,1,,
Raw,9423632,9427443000000,,,-1291005709998578432,0.0,56.582095567137,-24.077772746488524,16.125576672253818,5,22,0.0,15,371937358222541,21,26.1,-487.67608642578125,0.13819999992847443,0,0.0,0.0,,,,,0,,1,,
Raw,9423633,9427443000000,,,-1291005709998578432,0.0,56.582095567137,-24.077772746488524,16.125576672253818,5,25,0.0,15,371937369882268,53,19.4,478.217529296875,1.0099999904632568,0,0.0,0.0,,,,,0,,1,,
Raw,9423633,9427443000000,,,-1291005709998578432,0.0,56.582095567137,-24.077772746488524,16.125576672253818,5,26,0.0,15,371937368846489,46,20.0,-534.1829223632812,0.9284999966621399,0,0.0,0.0,,,,,0,,1,,
Raw,9423634,9427443000000,,,-1291005709998578432,0.0,56.582095567137,-24.077772746488524,16.125576672253818,5,31,0.0,15,371937370481537,61,18.5,-40.83702087402344,1.0115000009536743,0,0.0,0.0,,,,,0,,1,,
Raw,9423634,9427443000000,,,-1291005709998578432,0.0,56.582095567137,-24.077772746488524,16.125576672253818,5,32,0.0,15,371937372655392,14,30.7,-172.90237426757812,0.043800000101327896,0,0.0,0.0,,,,,0,,1,,
Raw,9423635,9427443000000,,,-1291005709998578432,0.0,56.582095567137,-24.077772746488524,16.125576672253818,5,13,0.0,15,371923308491484,70,17.8,324.6811828613281,0.9284999966621399,0,0.0,0.0,,,,,0,,5,,
Raw,9423635,9427443000000,,,-1291005709998578432,0.0,56.582095567137,-24.077772746488524,16.125576672253818,5,21,0.0,15,371923366566790,84,16.5,-266.6180114746094,1.8355000019073486,0,0.0,0.0,,,,,0,,5,,
Raw,9423636,9427443000000,,,-1291005709998578432,0.0,56.582095567137,-24.077772746488524,16.125576672253818,5,22,0.0,15,371923366892978,158,12.7,320.3794860839844,3.7355000972747803,0,0.0,0.0,,,,,0,,5,,
Raw,9423637,9427443000000,,,-1291005709998578432,0.0,56.582095567137,-24.077772746488524,16.125576672253818,5,26,0.0,15,371923363008734,16,29.9,-266.3865661621094,0.031200001016259193,0,0.0,0.0,,,,,0,,5,,
Raw,9423637,9427443000000,,,-1291005709998578432,0.0,56.582095567137,-24.077772746488524,16.125576672253818,5,24,0.0,7183,371937362174865,767,15.8,-146.82107543945312,3.7135000228881836,0,0.0,0.0,,,,,0,,6,,
Raw,9423638,9427443000000,,,-1291005709998578432,0.0,56.582095567137,-24.077772746488524,16.125576672253818,5,25,0.0,7183,371937349719992,507,18.7,-479.29266357421875,3.4820001125335693,0,0.0,0.0,,,,,0,,6,,
NMEA,$PQGSV,4,3,16,06,61,019,,07,66,189,,08,07,194,,09,47,334,,0,4*68,1606979919412
NMEA,$PQGSV,4,4,16,10,40,206,,16,59,014,,19,09,147,,29,09,116,,0,4*64,1606979919413
NMEA,$GNGSA,A,3,10,16,22,25,26,31,32,,,,,,1.4,1.1,0.9,1*3B,1606979919415
NMEA,$GNGSA,A,2,74,,,,,,,,,,,,1.4,1.1,0.9,2*3C,1606979919416
NMEA,$GNGSA,A,2,25,,,,,,,,,,,,1.4,1.1,0.9,3*39,1606979919417
NMEA,$PQGSA,A,2,13,26,,,,,,,,,,,1.4,1.1,0.9,4*37,1606979919417
NMEA,$GNVTG,,T,,M,0.0,N,0.0,K,A*3D,1606979919417
NMEA,$GNRMC,071840.00,A,2255.528096,N,12017.685328,E,0.0,,031220,2.8,W,A*12,1606979919417
NMEA,$GNGGA,071840.00,2255.528096,N,12017.685328,E,1,11,1.1,26.2,M,17.5,M,,*4A,1606979919418
Fix,gps,22.925468,120.294755,43.611938,0.000000,4.288000,1606979921000
NMEA,$GPGSV,3,1,11,10,43,184,16,12,06,036,15,16,07,210,24,22,10,314,27*74,1606979920396
NMEA,$GPGSV,3,2,11,25,43,040,19,26,40,215,19,31,47,310,17,32,63,023,30*79,1606979920397
NMEA,$GPGSV,3,3,11,20,13,165,,23,17,164,,29,21,109,*4F,1606979920406
NMEA,$GLGSV,2,1,06,74,20,239,30,73,58,288,10,70,82,033,,80,38,012,*6D,1606979920408
NMEA,$GLGSV,2,2,06,69,28,143,,71,31,334,*60,1606979920411
NMEA,$GAGSV,1,1,02,24,66,239,16,25,13,223,19*6D,1606979920412
NMEA,$PQGSV,1,1,01,193,62,142,11,0,5*63,1606979920413
NMEA,$PQGSV,4,1,16,13,14,216,18,21,58,309,19,22,61,160,16,26,33,260,27,0,4*6C,1606979920413
NMEA,$PQGSV,4,2,16,01,51,129,,02,40,241,,03,59,202,,04,37,115,,0,4*6E,1606979920414
NMEA,$PQGSV,4,3,16,06,61,019,,07,66,189,,08,07,194,,09,47,334,,0,4*68,1606979920414
NMEA,$PQGSV,4,4,16,10,40,206,,16,59,014,,19,09,147,,29,09,116,,0,4*64,1606979920415
NMEA,$GNGSA,A,3,10,16,22,25,26,31,32,,,,,,1.4,1.1,0.9,1*3B,1606979920417
NMEA,$GNGSA,A,2,74,,,,,,,,,,,,1.4,1.1,0.9,2*3C,1606979920417
NMEA,$GNGSA,A,2,25,,,,,,,,,,,,1.4,1.1,0.9,3*39,1606979920417
NMEA,$PQGSA,A,2,13,26,,,,,,,,,,,1.4,1.1,0.9,4*37,1606979920417
NMEA,$GNVTG,,T,,M,0.0,N,0.0,K,A*3D,1606979920418
NMEA,$GNRMC,071841.00,A,2255.528096,N,12017.685327,E,0.0,,031220,2.8,W,A*1C,1606979920418
NMEA,$GNGGA,071841.00,2255.528096,N,12017.685327,E,1,11,1.1,26.1,M,17.5,M,,*47,1606979920418
Raw,9424628,9428443000000,,,-1291005709998578432,0.0,54.0585424460005,-22.679718784160496,16.013790696918594,5,10,0.0,207,37120366506910,14,30.0,-477.10687255859375,0.23479999601840973,0,0.0,0.0,,,,,0,,3,,
Raw,9424628,9428443000000,,,-1291005709998578432,0.0,54.0585424460005,-22.679718784160496,16.013790696918594,5,9,0.0,207,37120375214129,290,10.4,10.795992851257324,8.089000701904297,0,0.0,0.0,,,,,0,,3,,
Raw,9424629,9428443000000,,,-1291005709998578432,0.0,54.0585424460005,-22.679718784160496,16.013790696918594,5,10,0.0,15,371938369592302,227,16.2,528.3694458007812,8.770000457763672,0,0.0,0.0,,,,,0,,1,,
Raw,9424629,9428443000000,,,-1291005709998578432,0.0,54.0585424460005,-22.679718784160496,16.013790696918594,5,12,0.0,15,371938358636647,122,15.3,682.4882202148438,4.383500099182129,0,0.0,0.0,,,,,0,,1,,
Raw,9424630,9428443000000,,,-1291005709998578432,0.0,54.0585424460005,-22.679718784160496,16.013790696918594,5,16,0.0,15,371938358239120,31,23.9,-745.7228393554688,0.6934999823570251,0,0.0,0.0,,,,,0,,1,,
Raw,9424631,9428443000000,,,-1291005709998578432,0.0,54.0585424460005,-22.679718784160496,16.013790696918594,5,22,0.0,15,371938358224148,21,26.9,-487.174560546875,0.13819999992847443,0,0.0,0.0,,,,,0,,1,,
Raw,9424632,9428443000000,,,-1291005709998578432,0.0,54.0585424460005,-22.679718784160496,16.013790696918594,5,25,0.0,15,371938369880673,61,19.4,478.217529296875,2.509999990463257,0,0.0,0.0,,,,,0,,1,,
Raw,9424633,9428443000000,,,-1291005709998578432,0.0,54.0585424460005,-22.679718784160496,16.013790696918594,5,26,0.0,15,371938368848333,53,19.3,-534.9821166992188,1.0084999799728394,0,0.0,0.0,,,,,0,,1,,
Raw,9424633,9428443000000,,,-1291005709998578432,0.0,54.0585424460005,-22.679718784160496,16.013790696918594,5,31,0.0,15,371938370481755,80,16.9,-41.931209564208984,1.18149995803833,0,0.0,0.0,,,,,0,,1,,
Raw,9424634,9428443000000,,,-1291005709998578432,0.0,54.0585424460005,-22.679718784160496,16.013790696918594,5,32,0.0,15,371938372655980,16,29.9,-172.42176818847656,0.04470000043511391,0,0.0,0.0,,,,,0,,1,,
Raw,9424634,9428443000000,,,-1291005709998578432,0.0,54.0585424460005,-22.679718784160496,16.013790696918594,5,13,0.0,15,371924308490401,78,17.8,324.6811828613281,2.428499937057495,0,0.0,0.0,,,,,0,,5,,
Raw,9424635,9428443000000,,,-1291005709998578432,0.0,54.0585424460005,-22.679718784160496,16.013790696918594,5,21,0.0,15,371924366567622,61,18.5,-265.1873474121094,0.9254999756813049,0,0.0,0.0,,,,,0,,5,,
Raw,9424635,9428443000000,,,-1291005709998578432,0.0,54.0585424460005,-22.679718784160496,16.013790696918594,5,22,0.0,15,371924366891967,80,16.1,321.6949462890625,1.0855000019073486,0,0.0,0.0,,,,,0,,5,,
Raw,9424636,9428443000000,,,-1291005709998578432,0.0,54.0585424460005,-22.679718784160496,16.013790696918594,5,26,0.0,15,371924363009631,19,27.2,-266.04071044921875,0.04580000042915344,0,0.0,0.0,,,,,0,,5,,
Raw,9424636,9428443000000,,,-1291005709998578432,0.0,54.0585424460005,-22.679718784160496,16.013790696918594,5,24,0.0,7183,371938362175367,779,15.8,-146.57369995117188,4.463500022888184,0,0.0,0.0,,,,,0,,6,,
Raw,9424637,9428443000000,,,-1291005709998578432,0.0,54.0585424460005,-22.679718784160496,16.013790696918594,5,25,0.0,7183,371938349721580,519,18.6,-478.3316955566406,4.232000350952148,0,0.0,0.0,,,,,0,,6,,
Fix,gps,22.925468,120.294755,43.614014,0.000000,4.288000,1606979922000
Raw,9425638,9429443000000,,,-1291005709998578432,0.0,50.93309300718829,-21.353128572658605,15.079551269637415,5,10,0.0,207,37121366508573,14,30.0,-476.4732971191406,0.23479999601840973,0,0.0,0.0,,,,,0,,3,,
Raw,9425638,9429443000000,,,-1291005709998578432,0.0,50.93309300718829,-21.353128572658605,15.079551269637415,5,9,0.0,207,37121375214093,342,10.4,10.795992851257324,9.589000701904297,0,0.0,0.0,,,,,0,,3,,
Raw,9425639,9429443000000,,,-1291005709998578432,0.0,50.93309300718829,-21.353128572658605,15.079551269637415,5,10,0.0,15,371939369590540,287,16.2,528.3694458007812,10.270000457763672,0,0.0,0.0,,,,,0,,1,,
Raw,9425640,9429443000000,,,-1291005709998578432,0.0,50.93309300718829,-21.353128572658605,15.079551269637415,5,12,0.0,15,371939358634370,152,15.3,682.4882202148438,5.883500099182129,0,0.0,0.0,,,,,0,,1,,
Raw,9425640,9429443000000,,,-1291005709998578432,0.0,50.93309300718829,-21.353128572658605,15.079551269637415,5,16,0.0,15,371939358241575,27,24.3,-745.313720703125,0.6934999823570251,0,0.0,0.0,,,,,0,,1,,
Raw,9425641,9429443000000,,,-1291005709998578432,0.0,50.93309300718829,-21.353128572658605,15.079551269637415,5,22,0.0,15,371939358225737,17,28.3,-486.584716796875,0.06030000001192093,0,0.0,0.0,,,,,0,,1,,
Raw,9425641,9429443000000,,,-1291005709998578432,0.0,50.93309300718829,-21.353128572658605,15.079551269637415,5,25,0.0,15,371939369879198,84,16.8,478.0557556152344,1.9300000667572021,0,0.0,0.0,,,,,0,,1,,
Raw,9425641,9429443000000,,,-1291005709998578432,0.0,50.93309300718829,-21.353128572658605,15.079551269637415,5,26,0.0,15,371939368850058,53,19.6,-532.3560791015625,0.9284999966621399,0,0.0,0.0,,,,,0,,1,,
Raw,9425641,9429443000000,,,-1291005709998578432,0.0,50.93309300718829,-21.353128572658605,15.079551269637415,5,31,0.0,15,371939370481939,46,20.0,-40.35177230834961,0.9314999580383301,0,0.0,0.0,,,,,0,,1,,
Raw,9425641,9429443000000,,,-1291005709998578432,0.0,50.93309300718829,-21.353128572658605,15.079551269637415,5,32,0.0,15,371939372656559,14,30.5,-171.7944793701172,0.043800000101327896,0,0.0,0.0,,,,,0,,1,,
Raw,9425642,9429443000000,,,-1291005709998578432,0.0,50.93309300718829,-21.353128572658605,15.079551269637415,5,13,0.0,15,371925308489318,96,17.8,324.6811828613281,3.928500175476074,0,0.0,0.0,,,,,0,,5,,
Raw,9425642,9429443000000,,,-1291005709998578432,0.0,50.93309300718829,-21.353128572658605,15.079551269637415,5,21,0.0,15,371925366568498,53,19.3,-265.6770324707031,0.8554999828338623,0,0.0,0.0,,,,,0,,5,,
Raw,9425642,9429443000000,,,-1291005709998578432,0.0,50.93309300718829,-21.353128572658605,15.079551269637415,5,22,0.0,15,371925366890876,80,16.5,320.542724609375,1.0855000019073486,0,0.0,0.0,,,,,0,,5,,
Raw,9425642,9429443000000,,,-1291005709998578432,0.0,50.93309300718829,-21.353128572658605,15.079551269637415,5,26,0.0,15,371925363010520,19,27.7,-265.3330383300781,0.04580000042915344,0,0.0,0.0,,,,,0,,5,,
Raw,9425643,9429443000000,,,-1291005709998578432,0.0,50.93309300718829,-21.353128572658605,15.079551269637415,5,24,0.0,7183,371939362175851,794,15.9,-145.9076690673828,5.213500022888184,0,0.0,0.0,,,,,0,,6,,
Raw,9425643,9429443000000,,,-1291005709998578432,0.0,50.93309300718829,-21.353128572658605,15.079551269637415,5,25,0.0,7183,371939349723182,608,17.8,-477.7702941894531,5.052000045776367,0,0.0,0.0,,,,,0,,6,,
NMEA,$GPGSV,3,1,11,10,43,184,16,12,06,036,15,16,07,210,24,22,10,314,28*7B,1606979921398
NMEA,$GPGSV,3,2,11,25,43,040,17,26,40,215,20,31,47,310,20,32,63,023,31*78,1606979921398
NMEA,$GPGSV,3,3,11,20,13,165,,23,17,164,,29,21,109,*4F,1606979921398
NMEA,$GLGSV,2,1,06,74,20,239,30,73,58,288,10,70,82,033,,80,38,012,*6D,1606979921399
NMEA,$GLGSV,2,2,06,69,28,143,,71,31,334,*60,1606979921399
NMEA,$GAGSV,1,1,02,24,66,239,16,25,13,223,18*6C,1606979921399
NMEA,$PQGSV,1,1,01,193,62,142,11,0,5*63,1606979921399
NMEA,$PQGSV,4,1,16,13,14,216,18,21,58,309,19,22,61,160,17,26,33,260,28,0,4*62,1606979921399
NMEA,$PQGSV,4,2,16,01,51,129,,02,40,241,,03,59,202,,04,37,115,,0,4*6E,1606979921399
NMEA,$PQGSV,4,3,16,06,61,019,,07,66,189,,08,07,194,,09,47,334,,0,4*68,1606979921399
NMEA,$PQGSV,4,4,16,10,40,206,,16,59,014,,19,09,147,,29,09,116,,0,4*64,1606979921400
NMEA,$GNGSA,A,3,10,16,22,25,26,31,32,,,,,,1.4,1.1,0.9,1*3B,1606979921400
NMEA,$GNGSA,A,2,74,,,,,,,,,,,,1.4,1.1,0.9,2*3C,1606979921401
NMEA,$GNGSA,A,2,25,,,,,,,,,,,,1.4,1.1,0.9,3*39,1606979921401
NMEA,$PQGSA,A,2,13,26,,,,,,,,,,,1.4,1.1,0.9,4*37,1606979921401
NMEA,$GNVTG,,T,,M,0.0,N,0.0,K,A*3D,1606979921401
NMEA,$GNRMC,071842.00,A,2255.528095,N,12017.685326,E,0.0,,031220,2.8,W,A*1D,1606979921401
NMEA,$GNGGA,071842.00,2255.528095,N,12017.685326,E,1,11,1.1,26.1,M,17.5,M,,*46,1606979921401
NMEA,$GPGSV,3,1,11,10,43,184,16,12,06,036,15,16,07,210,23,22,10,314,28*7C,1606979922398
Fix,gps,22.925468,120.294755,43.605408,0.000000,4.288000,1606979923000
NMEA,$GPGSV,3,2,11,25,43,040,17,26,40,215,21,31,47,310,20,32,63,023,31*79,1606979922398
NMEA,$GPGSV,3,3,11,20,13,165,,23,17,164,,29,21,109,*4F,1606979922404
NMEA,$GLGSV,2,1,06,74,20,239,29,73,58,288,10,70,82,033,,80,38,012,*65,1606979922404
NMEA,$GLGSV,2,2,06,69,28,143,,71,31,334,*60,1606979922405
Raw,9426625,9430443000000,,,-1291005709998578432,0.0,52.58375676930882,-19.42311422751175,16.028229778378634,5,10,0.0,207,37122366510088,16,29.3,-476.47344970703125,0.23569999635219574,0,0.0,0.0,,,,,0,,3,,
Raw,9426625,9430443000000,,,-1291005709998578432,0.0,52.58375676930882,-19.42311422751175,16.028229778378634,5,9,0.0,207,37122375214057,404,10.4,10.795992851257324,11.089000701904297,0,0.0,0.0,,,,,0,,3,,
Raw,9426626,9430443000000,,,-1291005709998578432,0.0,52.58375676930882,-19.42311422751175,16.028229778378634,5,10,0.0,15,371940369588777,356,16.2,528.3694458007812,11.770000457763672,0,0.0,0.0,,,,,0,,1,,
Raw,9426626,9430443000000,,,-1291005709998578432,0.0,52.58375676930882,-19.42311422751175,16.028229778378634,5,12,0.0,15,371940358632094,192,15.3,682.4882202148438,7.383500099182129,0,0.0,0.0,,,,,0,,1,,
Raw,9426627,9430443000000,,,-1291005709998578432,0.0,52.58375676930882,-19.42311422751175,16.028229778378634,5,16,0.0,15,371940358244068,31,23.3,-745.5420532226562,0.7534999847412109,0,0.0,0.0,,,,,0,,1,,
Raw,9426627,9430443000000,,,-1291005709998578432,0.0,52.58375676930882,-19.42311422751175,16.028229778378634,5,22,0.0,15,371940358227389,19,27.6,-486.60687255859375,0.06830000132322311,0,0.0,0.0,,,,,0,,1,,
Raw,9426628,9430443000000,,,-1291005709998578432,0.0,52.58375676930882,-19.42311422751175,16.028229778378634,5,25,0.0,15,371940369877604,98,16.8,478.0557556152344,3.430000066757202,0,0.0,0.0,,,,,0,,1,,
Raw,9426628,9430443000000,,,-1291005709998578432,0.0,52.58375676930882,-19.42311422751175,16.028229778378634,5,26,0.0,15,371940368851861,46,20.7,-532.9840698242188,0.8585000038146973,0,0.0,0.0,,,,,0,,1,,
Raw,9426629,9430443000000,,,-1291005709998578432,0.0,52.58375676930882,-19.42311422751175,16.028229778378634,5,31,0.0,15,371940370482032,46,20.3,-40.60866928100586,0.9314999580383301,0,0.0,0.0,,,,,0,,1,,
Raw,9426629,9430443000000,,,-1291005709998578432,0.0,52.58375676930882,-19.42311422751175,16.028229778378634,5,32,0.0,15,371940372657150,14,30.5,-171.82369995117188,0.043800000101327896,0,0.0,0.0,,,,,0,,1,,
