# 
# Header Description:
# 
# Version: v2.0.0.1 Platform: 8.0.0 Manufacturer: Sony Model: G8142
# 
# Raw,ElapsedRealtimeMillis,TimeNanos,LeapSecond,TimeUncertaintyNanos,FullBiasNanos,BiasNanos,BiasUncertaintyNanos,DriftNanosPerSecond,DriftUncertaintyNanosPerSecond,HardwareClockDiscontinuityCount,Svid,TimeOffsetNanos,State,ReceivedSvTimeNanos,ReceivedSvTimeUncertaintyNanos,Cn0DbHz,PseudorangeRateMetersPerSecond,PseudorangeRateUncertaintyMetersPerSecond,AccumulatedDeltaRangeState,AccumulatedDeltaRangeMeters,AccumulatedDeltaRangeUncertaintyMeters,CarrierFrequencyHz,CarrierCycles,CarrierPhase,CarrierPhaseUncertainty,MultipathIndicator,SnrInDb,ConstellationType,AgcDb,CarrierFrequencyHz
# 
# Fix,Provider,Latitude,Longitude,Altitude,Speed,Accuracy,(UTC)TimeInMs
# 
# Nav,Svid,Type,Status,MessageId,Sub-messageId,Data(Bytes)
# 
Raw,9912577,9916443000000,,,-1291005709998577920,0.0,51.2418155267369,3.3611773534841602,17.713333252733,7,10,0.0,207,37608367238933,11,33.4,-429.6036682128906,0.23340000212192535,0,0.0,0.0,,,,,0,,3,,
Raw,9912577,9916443000000,,,-1291005709998577920,0.0,51.2418155267369,3.3611773534841602,17.713333252733,7,95,0.0,3,19491922,31,23.1,-556.8475341796875,0.8949999809265137,0,0.0,0.0,,,,,0,,3,,
Raw,9912577,9916443000000,,,-1291005709998577920,0.0,51.2418155267369,3.3611773534841602,17.713333252733,7,9,0.0,207,37608375139878,702,12.1,68.43704223632812,16.819000244140625,0,0.0,0.0,,,,,0,,3,,
Raw,9912577,9916443000000,,,-1291005709998577920,0.0,51.2418155267369,3.3611773534841602,17.713333252733,7,7,0.0,207,37608370654988,243,15.0,-648.2251586914062,8.971500396728516,0,0.0,0.0,,,,,0,,3,,
Raw,9912578,9916443000000,,,-1291005709998577920,0.0,51.2418155267369,3.3611773534841602,17.713333252733,7,10,0.0,15,372426368688025,19,27.7,570.814453125,0.5084999799728394,0,0.0,0.0,,,,,0,,1,,
Raw,9912578,9916443000000,,,-1291005709998577920,0.0,51.2418155267369,3.3611773534841602,17.713333252733,7,12,0.0,15,372426357506028,1221,20.0,697.2740478515625,23.442001342773438,0,0.0,0.0,,,,,0,,1,,
Raw,9912578,9916443000000,,,-1291005709998577920,0.0,51.2418155267369,3.3611773534841602,17.713333252733,7,16,0.0,15,372426359436503,11,33.3,-731.9064331054688,0.05140000209212303,0,0.0,0.0,,,,,0,,1,,
Raw,9912578,9916443000000,,,-1291005709998577920,0.0,51.2418155267369,3.3611773534841602,17.713333252733,7,22,0.0,15,372426358979425,40,21.1,-448.25579833984375,0.8734999895095825,0,0.0,0.0,,,,,0,,1,,
Raw,9912579,9916443000000,,,-1291005709998577920,0.0,51.2418155267369,3.3611773534841602,17.713333252733,7,25,0.0,15,372426369061211,1345,16.9,520.8528442382812,24.43000030517578,0,0.0,0.0,,,,,0,,1,,
Raw,9912579,9916443000000,,,-1291005709998577920,0.0,51.2418155267369,3.3611773534841602,17.713333252733,7,26,0.0,15,372426369674039,70,17.9,-487.6465759277344,1.0899999141693115,0,0.0,0.0,,,,,0,,1,,
Raw,9912579,9916443000000,,,-1291005709998577920,0.0,51.2418155267369,3.3611773534841602,17.713333252733,7,31,0.0,15,372426370524735,53,19.4,-18.315765380859375,1.0115000009536743,0,0.0,0.0,,,,,0,,1,,
Raw,9912579,9916443000000,,,-1291005709998577920,0.0,51.2418155267369,3.3611773534841602,17.713333252733,7,32,0.0,15,372426372900387,21,26.5,-134.55665588378906,0.5444999933242798,0,0.0,0.0,,,,,0,,1,,
Raw,9912579,9916443000000,,,-1291005709998577920,0.0,51.2418155267369,3.3611773534841602,17.713333252733,7,2,0.0,783,372412316637784,21,27.0,1.670743465423584,1.2484999895095825,0,0.0,0.0,,,,,0,,5,,
Raw,9912580,9916443000000,,,-1291005709998577920,0.0,51.2418155267369,3.3611773534841602,17.713333252733,7,6,0.0,15,372412319635690,35,22.0,-126.6884536743164,0.6949999928474426,0,0.0,0.0,,,,,0,,5,,
Raw,9912580,9916443000000,,,-1291005709998577920,0.0,51.2418155267369,3.3611773534841602,17.713333252733,7,8,0.0,15,372412304828606,566,16.6,263.48779296875,15.317501068115234,0,0.0,0.0,,,,,0,,5,,
Raw,9912580,9916443000000,,,-1291005709998577920,0.0,51.2418155267369,3.3611773534841602,17.713333252733,7,9,0.0,15,372412317725113,1002,15.3,-116.9520492553711,8.617000579833984,0,0.0,0.0,,,,,0,,5,,
Raw,9912580,9916443000000,,,-1291005709998577920,0.0,51.2418155267369,3.3611773534841602,17.713333252733,7,10,0.0,15,372412315506933,31,23.6,-158.4901885986328,0.6389999985694885,0,0.0,0.0,,,,,0,,5,,
Raw,9912581,9916443000000,,,-1291005709998577920,0.0,51.2418155267369,3.3611773534841602,17.713333252733,7,13,0.0,15,372412307957091,24,25.0,323.01043701171875,0.5370000004768372,0,0.0,0.0,,,,,0,,5,,
Raw,9912581,9916443000000,,,-1291005709998577920,0.0,51.2418155267369,3.3611773534841602,17.713333252733,7,16,0.0,15,372412319327546,53,19.8,-114.97404479980469,0.8149999976158142,0,0.0,0.0,,,,,0,,5,,
Raw,9912581,9916443000000,,,-1291005709998577920,0.0,51.2418155267369,3.3611773534841602,17.713333252733,7,21,0.0,15,372412366953551,86,17.0,-214.49851989746094,3.255500078201294,0,0.0,0.0,,,,,0,,5,,
Raw,9912581,9916443000000,,,-1291005709998577920,0.0,51.2418155267369,3.3611773534841602,17.713333252733,7,22,0.0,15,372412366324118,281,14.0,370.78985595703125,9.51550006866455,0,0.0,0.0,,,,,0,,5,,
Raw,9912581,9916443000000,,,-1291005709998577920,0.0,51.2418155267369,3.3611773534841602,17.713333252733,7,26,0.0,15,372412363412168,40,21.4,-236.141357421875,0.7310000061988831,0,0.0,0.0,,,,,0,,5,,
Raw,9912582,9916443000000,,,-1291005709998577920,0.0,51.2418155267369,3.3611773534841602,17.713333252733,7,4,0.0,7183,372426356654214,1027,14.9,313.7086486816406,9.275500297546387,0,0.0,0.0,,,,,0,,6,,
Raw,9912582,9916443000000,,,-1291005709998577920,0.0,51.2418155267369,3.3611773534841602,17.713333252733,7,25,0.0,7183,372426350471933,12,32.0,-452.3851623535156,0.3135000169277191,0,0.0,0.0,,,,,0,,6,,
Raw,9912582,9916443000000,,,-1291005709998577920,0.0,51.2418155267369,3.3611773534841602,17.713333252733,7,31,0.0,7183,372426360173244,73,17.4,336.7246398925781,1.690500020980835,0,0.0,0.0,,,,,0,,6,,
Fix,gps,22.925457,120.294739,42.118652,0.000000,9.648001,1606980409000
NMEA,$GPGSV,3,1,11,10,40,184,28,12,03,036,20,16,09,210,33,22,12,313,21*72,1606980408516
NMEA,$GPGSV,3,2,11,25,40,039,17,26,42,216,18,31,47,316,19,32,65,030,27*70,1606980408516
NMEA,$GPGSV,3,3,11,20,10,164,,23,14,164,,29,23,105,*40,1606980408516
NMEA,$GLGSV,2,1,06,74,22,243,33,73,57,298,12,71,35,334,15,70,85,077,*6A,1606980408516
NMEA,$GLGSV,2,2,06,80,35,015,,69,24,146,*63,1606980408517
NMEA,$GAGSV,2,1,05,04,37,120,15,25,15,224,32,31,53,026,17,09,74,018,*6A,1606980408518
NMEA,$GAGSV,2,2,05,24,68,244,*57,1606980408519
NMEA,$PQGSV,1,1,03,193,61,143,14,194,69,045,12,195,23,144,,0,5*6A,1606980408519
NMEA,$PQGSV,4,1,16,02,40,241,27,06,61,022,22,08,06,194,17,09,47,334,15,0,4*62,1606980408520
NMEA,$PQGSV,4,2,16,10,42,208,24,13,13,216,25,16,61,015,20,21,60,305,17,0,4*60,1606980408520
NMEA,$PQGSV,4,3,16,22,57,161,14,26,34,262,21,01,51,129,,03,59,202,,0,4*6C,1606980408520
NMEA,$PQGSV,4,4,16,04,37,115,,07,67,192,,19,07,147,,29,10,113,,0,4*61,1606980408520
NMEA,$GNGSA,A,3,10,16,22,26,31,32,,,,,,,1.6,1.3,0.9,1*3C,1606980408521
NMEA,$GNGSA,A,2,74,,,,,,,,,,,,1.6,1.3,0.9,2*3C,1606980408521
NMEA,$GNGSA,A,2,25,,,,,,,,,,,,1.6,1.3,0.9,3*39,1606980408521
NMEA,$PQGSA,A,2,13,26,,,,,,,,,,,1.6,1.3,0.9,4*37,1606980408522
NMEA,$GNVTG,,T,,M,0.0,N,0.0,K,A*3D,1606980408522
NMEA,$GNRMC,072649.00,A,2255.527415,N,12017.684316,E,0.0,,031220,2.8,W,A*1A,1606980408522
NMEA,$GNGGA,072649.00,2255.527415,N,12017.684316,E,1,10,1.3,24.6,M,17.5,M,,*47,1606980408522
Fix,gps,22.925454,120.294727,42.247681,0.000000,9.648001,1606980410000
Raw,9913609,9917443000000,,,-1291005709998577920,0.0,51.79704385227524,-0.16441656792200643,17.473528071683486,7,10,0.0,207,37609367240365,11,33.1,-430.7033386230469,0.23340000212192535,0,0.0,0.0,,,,,0,,3,,
Raw,9913610,9917443000000,,,-1291005709998577920,0.0,51.79704385227524,-0.16441656792200643,17.473528071683486,7,95,0.0,3,19493846,31,23.5,-558.5159301757812,0.8949999809265137,0,0.0,0.0,,,,,0,,3,,
Raw,9913610,9917443000000,,,-1291005709998577920,0.0,51.79704385227524,-0.16441656792200643,17.473528071683486,7,9,0.0,207,37609375139650,813,12.1,68.43704223632812,18.319000244140625,0,0.0,0.0,,,,,0,,3,,
Raw,9913611,9917443000000,,,-1291005709998577920,0.0,51.79704385227524,-0.16441656792200643,17.473528071683486,7,7,0.0,207,37609370657150,303,15.0,-648.2251586914062,10.471500396728516,0,0.0,0.0,,,,,0,,3,,
Raw,9913612,9917443000000,,,-1291005709998577920,0.0,51.79704385227524,-0.16441656792200643,17.473528071683486,7,10,0.0,15,372427368686099,19,27.6,569.6659545898438,0.053300000727176666,0,0.0,0.0,,,,,0,,1,,
Raw,9913612,9917443000000,,,-1291005709998577920,0.0,51.79704385227524,-0.16441656792200643,17.473528071683486,7,12,0.0,15,372427357503702,1379,20.0,697.2740478515625,24.942001342773438,0,0.0,0.0,,,,,0,,1,,
Raw,9913612,9917443000000,,,-1291005709998577920,0.0,51.79704385227524,-0.16441656792200643,17.473528071683486,7,16,0.0,15,372427359438934,12,32.3,-733.0598754882812,0.052400000393390656,0,0.0,0.0,,,,,0,,1,,
Raw,9913613,9917443000000,,,-1291005709998577920,0.0,51.79704385227524,-0.16441656792200643,17.473528071683486,7,22,0.0,15,372427358980906,27,24.8,-448.8647155761719,0.643500030040741,0,0.0,0.0,,,,,0,,1,,
Raw,9913613,9917443000000,,,-1291005709998577920,0.0,51.79704385227524,-0.16441656792200643,17.473528071683486,7,25,0.0,15,372427369059473,1509,16.9,520.8528442382812,25.93000030517578,0,0.0,0.0,,,,,0,,1,,
Raw,9913614,9917443000000,,,-1291005709998577920,0.0,51.79704385227524,-0.16441656792200643,17.473528071683486,7,26,0.0,15,372427369675749,61,18.5,-488.33160400390625,1.0099999904632568,0,0.0,0.0,,,,,0,,1,,
Raw,9913614,9917443000000,,,-1291005709998577920,0.0,51.79704385227524,-0.16441656792200643,17.473528071683486,7,31,0.0,15,372427370524751,40,21.5,-20.152099609375,0.8014999628067017,0,0.0,0.0,,,,,0,,1,,
Raw,9913615,9917443000000,,,-1291005709998577920,0.0,51.79704385227524,-0.16441656792200643,17.473528071683486,7,32,0.0,15,372427372900798,21,26.3,-135.65084838867188,0.5945000052452087,0,0.0,0.0,,,,,0,,1,,
Raw,9913615,9917443000000,,,-1291005709998577920,0.0,51.79704385227524,-0.16441656792200643,17.473528071683486,7,2,0.0,783,372413316637779,33,27.0,1.670743465423584,2.748500108718872,0,0.0,0.0,,,,,0,,5,,
Raw,9913616,9917443000000,,,-1291005709998577920,0.0,51.79704385227524,-0.16441656792200643,17.473528071683486,7,6,0.0,15,372413319636060,46,20.3,-127.389404296875,0.8149999976158142,0,0.0,0.0,,,,,0,,5,,
Raw,9913616,9917443000000,,,-1291005709998577920,0.0,51.79704385227524,-0.16441656792200643,17.473528071683486,7,8,0.0,15,372413304827728,670,16.6,263.48779296875,16.817501068115234,0,0.0,0.0,,,,,0,,5,,
Raw,9913616,9917443000000,,,-1291005709998577920,0.0,51.79704385227524,-0.16441656792200643,17.473528071683486,7,9,0.0,15,372413317725505,1030,15.0,-117.01927185058594,9.367000579833984,0,0.0,0.0,,,,,0,,5,,
Raw,9913617,9917443000000,,,-1291005709998577920,0.0,51.79704385227524,-0.16441656792200643,17.473528071683486,7,10,0.0,15,372413315507440,27,24.4,-159.3159637451172,0.5989999771118164,0,0.0,0.0,,,,,0,,5,,
Raw,9913618,9917443000000,,,-1291005709998577920,0.0,51.79704385227524,-0.16441656792200643,17.473528071683486,7,13,0.0,15,372413307956014,31,23.8,321.0420227050781,0.5870000123977661,0,0.0,0.0,,,,,0,,5,,
Raw,9913618,9917443000000,,,-1291005709998577920,0.0,51.79704385227524,-0.16441656792200643,17.473528071683486,7,16,0.0,15,372413319327977,70,17.4,-115.7806167602539,1.024999976158142,0,0.0,0.0,,,,,0,,5,,
Raw,9913618,9917443000000,,,-1291005709998577920,0.0,51.79704385227524,-0.16441656792200643,17.473528071683486,7,21,0.0,15,372413366954282,96,15.5,-214.90179443359375,1.9255000352859497,0,0.0,0.0,,,,,0,,5,,
Raw,9913619,9917443000000,,,-1291005709998577920,0.0,51.79704385227524,-0.16441656792200643,17.473528071683486,7,22,0.0,15,372413366322881,346,14.0,370.78985595703125,11.01550006866455,0,0.0,0.0,,,,,0,,5,,
Raw,9913619,9917443000000,,,-1291005709998577920,0.0,51.79704385227524,-0.16441656792200643,17.473528071683486,7,26,0.0,15,372413363412936,40,21.2,-237.57205200195312,0.7310000061988831,0,0.0,0.0,,,,,0,,5,,
Raw,9913621,9917443000000,,,-1291005709998577920,0.0,51.79704385227524,-0.16441656792200643,17.473528071683486,7,4,0.0,7183,372427356653163,304,14.8,313.64202880859375,10.025500297546387,0,0.0,0.0,,,,,0,,6,,
Raw,9913622,9917443000000,,,-1291005709998577920,0.0,51.79704385227524,-0.16441656792200643,17.473528071683486,7,25,0.0,7183,372427350473441,12,32.5,-453.5840148925781,0.3135000169277191,0,0.0,0.0,,,,,0,,6,,
Raw,9913622,9917443000000,,,-1291005709998577920,0.0,51.79704385227524,-0.16441656792200643,17.473528071683486,7,31,0.0,7183,372427360172093,70,17.1,337.105224609375,0.9404999613761902,0,0.0,0.0,,,,,0,,6,,
NMEA,$GPGSV,3,1,11,10,40,184,28,12,03,036,20,16,09,210,32,22,12,313,25*77,1606980409517
NMEA,$GPGSV,3,2,11,25,40,039,17,26,42,216,19,31,47,316,22,32,65,030,26*78,1606980409518
NMEA,$GPGSV,3,3,11,20,10,164,,23,14,164,,29,23,105,*40,1606980409518
NMEA,$GLGSV,2,1,06,74,22,243,33,73,57,298,12,71,35,334,15,70,85,077,*6A,1606980409518
NMEA,$GLGSV,2,2,06,80,35,015,,69,24,146,*63,1606980409518
NMEA,$GAGSV,2,1,05,04,37,120,15,25,15,224,33,31,53,026,17,09,74,018,*6B,1606980409519
NMEA,$GAGSV,2,2,05,24,68,244,*57,1606980409519
NMEA,$PQGSV,1,1,03,193,61,143,14,194,69,045,12,195,23,144,,0,5*6A,1606980409519
NMEA,$PQGSV,4,1,16,02,40,241,27,06,61,022,20,08,06,194,17,09,47,334,15,0,4*60,1606980409519
NMEA,$PQGSV,4,2,16,10,42,208,24,13,13,216,24,16,61,015,17,21,60,305,16,0,4*64,1606980409519
NMEA,$PQGSV,4,3,16,22,57,161,14,26,34,262,21,01,51,129,,03,59,202,,0,4*6C,1606980409519
NMEA,$PQGSV,4,4,16,04,37,115,,07,67,192,,19,07,147,,29,10,113,,0,4*61,1606980409520
NMEA,$GNGSA,A,3,10,16,22,26,31,32,,,,,,,1.6,1.3,0.9,1*3C,1606980409520
NMEA,$GNGSA,A,2,74,,,,,,,,,,,,1.6,1.3,0.9,2*3C,1606980409521
NMEA,$GNGSA,A,2,25,,,,,,,,,,,,1.6,1.3,0.9,3*39,1606980409521
NMEA,$PQGSA,A,2,13,26,,,,,,,,,,,1.6,1.3,0.9,4*37,1606980409521
NMEA,$GNVTG,,T,,M,0.0,N,0.0,K,A*3D,1606980409521
NMEA,$GNRMC,072650.00,A,2255.527218,N,12017.683605,E,0.0,,031220,2.8,W,A*19,1606980409521
NMEA,$GNGGA,072650.00,2255.527218,N,12017.683605,E,1,10,1.3,24.8,M,17.5,M,,*4A,1606980409521
Fix,gps,22.925449,120.294712,43.605042,0.900000,9.648001,1606980411000
Raw,9914610,9918443000000,,,-1291005709998577920,0.0,53.87689816416241,-3.2541185151944587,16.34117038624178,7,10,0.0,207,37610367241829,10,34.1,-430.1038818359375,0.23260000348091125,0,0.0,0.0,,,,,0,,3,,
Raw,9914611,9918443000000,,,-1291005709998577920,0.0,53.87689816416241,-3.2541185151944587,16.34117038624178,7,95,0.0,3,19495803,24,25.4,-557.8692016601562,0.8050000071525574,0,0.0,0.0,,,,,0,,3,,
Raw,9914611,9918443000000,,,-1291005709998577920,0.0,53.87689816416241,-3.2541185151944587,16.34117038624178,7,9,0.0,207,37610375139421,934,12.1,68.43704223632812,19.819000244140625,0,0.0,0.0,,,,,0,,3,,
Raw,9914611,9918443000000,,,-1291005709998577920,0.0,53.87689816416241,-3.2541185151944587,16.34117038624178,7,16,0.0,207,37610370582368,1925,11.9,557.42236328125,9.921500205993652,0,0.0,0.0,,,,,0,,3,,
Raw,9914611,9918443000000,,,-1291005709998577920,0.0,53.87689816416241,-3.2541185151944587,16.34117038624178,7,7,0.0,207,37610370659312,373,15.0,-648.2251586914062,11.971500396728516,0,0.0,0.0,,,,,0,,3,,
Raw,9914611,9918443000000,,,-1291005709998577920,0.0,53.87689816416241,-3.2541185151944587,16.34117038624178,7,10,0.0,15,372428368684210,19,27.5,570.171142578125,0.053300000727176666,0,0.0,0.0,,,,,0,,1,,
Raw,9914611,9918443000000,,,-1291005709998577920,0.0,53.87689816416241,-3.2541185151944587,16.34117038624178,7,12,0.0,15,372428357501376,1548,20.0,697.2740478515625,26.442001342773438,0,0.0,0.0,,,,,0,,1,,
Raw,9914612,9918443000000,,,-1291005709998577920,0.0,53.87689816416241,-3.2541185151944587,16.34117038624178,7,16,0.0,15,372428359441390,11,33.1,-732.519287109375,0.05140000209212303,0,0.0,0.0,,,,,0,,1,,
Raw,9914612,9918443000000,,,-1291005709998577920,0.0,53.87689816416241,-3.2541185151944587,16.34117038624178,7,22,0.0,15,372428358982446,19,27.0,-448.72198486328125,0.5534999966621399,0,0.0,0.0,,,,,0,,1,,
Raw,9914612,9918443000000,,,-1291005709998577920,0.0,53.87689816416241,-3.2541185151944587,16.34117038624178,7,25,0.0,15,372428369057736,1683,16.9,520.8528442382812,27.43000030517578,0,0.0,0.0,,,,,0,,1,,
Raw,9914612,9918443000000,,,-1291005709998577920,0.0,53.87689816416241,-3.2541185151944587,16.34117038624178,7,26,0.0,15,372428369677261,40,21.0,-488.89300537109375,0.8600000143051147,0,0.0,0.0,,,,,0,,1,,
Raw,9914612,9918443000000,,,-1291005709998577920,0.0,53.87689816416241,-3.2541185151944587,16.34117038624178,7,31,0.0,15,372428370524874,35,22.3,-19.28626251220703,0.8014999628067017,0,0.0,0.0,,,,,0,,1,,
Raw,9914613,9918443000000,,,-1291005709998577920,0.0,53.87689816416241,-3.2541185151944587,16.34117038624178,7,32,0.0,15,372428372901283,21,26.6,-135.22329711914062,0.12919999659061432,0,0.0,0.0,,,,,0,,1,,
Raw,9914613,9918443000000,,,-1291005709998577920,0.0,53.87689816416241,-3.2541185151944587,16.34117038624178,7,2,0.0,783,372414316637772,21,27.2,-0.12482567876577377,1.2335000038146973,0,0.0,0.0,,,,,0,,5,,
Raw,9914613,9918443000000,,,-1291005709998577920,0.0,53.87689816416241,-3.2541185151944587,16.34117038624178,7,6,0.0,15,372414319636539,46,20.5,-125.95870971679688,0.8149999976158142,0,0.0,0.0,,,,,0,,5,,
Raw,9914613,9918443000000,,,-1291005709998577920,0.0,53.87689816416241,-3.2541185151944587,16.34117038624178,7,8,0.0,15,372414304826849,783,16.6,263.48779296875,18.317501068115234,0,0.0,0.0,,,,,0,,5,,
Raw,9914613,9918443000000,,,-1291005709998577920,0.0,53.87689816416241,-3.2541185151944587,16.34117038624178,7,9,0.0,15,372414317725898,1194,14.7,-117.27851867675781,10.207000732421875,0,0.0,0.0,,,,,0,,5,,
Raw,9914614,9918443000000,,,-1291005709998577920,0.0,53.87689816416241,-3.2541185151944587,16.34117038624178,7,10,0.0,15,372414315507958,27,24.7,-158.85507202148438,0.5989999771118164,0,0.0,0.0,,,,,0,,5,,
Raw,9914614,9918443000000,,,-1291005709998577920,0.0,53.87689816416241,-3.2541185151944587,16.34117038624178,7,13,0.0,15,372414307954928,27,24.7,321.8293762207031,0.5870000123977661,0,0.0,0.0,,,,,0,,5,,
Raw,9914614,9918443000000,,,-1291005709998577920,0.0,53.87689816416241,-3.2541185151944587,16.34117038624178,7,16,0.0,15,372414319328329,53,19.2,-115.80941009521484,0.875,0,0.0,0.0,,,,,0,,5,,
Raw,9914614,9918443000000,,,-1291005709998577920,0.0,53.87689816416241,-3.2541185151944587,16.34117038624178,7,21,0.0,15,372414366954996,61,18.6,-216.2268829345703,0.9254999756813049,0,0.0,0.0,,,,,0,,5,,
Raw,9914614,9918443000000,,,-1291005709998577920,0.0,53.87689816416241,-3.2541185151944587,16.34117038624178,7,22,0.0,15,372414366321644,420,14.0,370.78985595703125,12.51550006866455,0,0.0,0.0,,,,,0,,5,,
Raw,9914614,9918443000000,,,-1291005709998577920,0.0,53.87689816416241,-3.2541185151944587,16.34117038624178,7,26,0.0,15,372414363413735,31,23.4,-236.93833923339844,0.6210000514984131,0,0.0,0.0,,,,,0,,5,,
Raw,9914615,9918443000000,,,-1291005709998577920,0.0,53.87689816416241,-3.2541185151944587,16.34117038624178,7,4,0.0,7183,372428356652008,47,20.5,316.63916015625,1.0204999446868896,0,0.0,0.0,,,,,0,,6,,
Raw,9914615,9918443000000,,,-1291005709998577920,0.0,53.87689816416241,-3.2541185151944587,16.34117038624178,7,25,0.0,7183,372428350474950,11,33.0,-453.53564453125,0.04990000277757645,0,0.0,0.0,,,,,0,,6,,
Raw,9914615,9918443000000,,,-1291005709998577920,0.0,53.87689816416241,-3.2541185151944587,16.34117038624178,7,31,0.0,7183,372428360170969,78,17.1,337.105224609375,2.440500020980835,0,0.0,0.0,,,,,0,,6,,
NMEA,$GPGSV,3,1,11,10,40,184,28,12,03,036,20,16,09,210,33,22,12,313,27*74,1606980410515
NMEA,$GPGSV,3,2,11,25,40,039,17,26,42,216,21,31,47,316,22,32,65,030,27*72,1606980410516
NMEA,$GPGSV,3,3,11,20,10,164,,23,14,164,,29,23,105,*40,1606980410516
NMEA,$GLGSV,2,1,06,74,22,243,34,73,57,298,12,80,35,015,12,71,35,334,15*6E,1606980410516
NMEA,$GLGSV,2,2,06,70,85,077,,69,24,146,*63,1606980410517
NMEA,$GAGSV,2,1,05,04,37,120,21,25,15,224,33,31,53,026,17,09,74,018,*6C,1606980410518
NMEA,$GAGSV,2,2,05,24,68,244,*57,1606980410518
NMEA,$PQGSV,1,1,03,193,61,143,14,194,69,045,12,195,23,144,13,0,5*68,1606980410519
NMEA,$PQGSV,4,1,16,02,40,241,27,06,61,022,21,08,06,194,17,09,47,334,15,0,4*61,1606980410519
NMEA,$PQGSV,4,2,16,10,42,208,25,13,13,216,25,16,61,015,19,21,60,305,19,0,4*65,1606980410519
NMEA,$PQGSV,4,3,16,22,57,161,14,26,34,262,23,01,51,129,,03,59,202,,0,4*6E,1606980410519
NMEA,$PQGSV,4,4,16,04,37,115,,07,67,192,,19,07,147,,29,10,113,,0,4*61,1606980410519
NMEA,$GNGSA,A,3,10,16,22,26,31,32,,,,,,,1.6,1.3,0.9,1*3C,1606980410520
NMEA,$GNGSA,A,2,74,,,,,,,,,,,,1.6,1.3,0.9,2*3C,1606980410521
NMEA,$GNGSA,A,2,25,,,,,,,,,,,,1.6,1.3,0.9,3*39,1606980410527
NMEA,$PQGSA,A,2,13,26,,,,,,,,,,,1.6,1.3,0.9,4*37,1606980410527
NMEA,$GNVTG,229.7,T,229.7,M,1.7,N,3.2,K,A*3A,1606980410529
NMEA,$GNRMC,072651.00,A,2255.526922,N,12017.682720,E,1.7,229.7,031220,2.8,W,A*3A,1606980410529
NMEA,$GNGGA,072651.00,2255.526922,N,12017.682720,E,1,10,1.3,26.1,M,17.5,M,,*44,1606980410529
Fix,gps,22.925444,120.294698,44.222046,1.120000,9.648001,1606980412000
NMEA,$GPGSV,3,1,11,10,40,184,27,12,03,036,20,16,09,210,33,22,12,313,26*7A,1606980411524
Raw,9915620,9919443000000,,,-1291005709998577920,0.0,51.04487354401499,-1.9817020974658028,15.109205624643035,7,10,0.0,207,37611367243256,11,33.2,-431.509033203125,0.23340000212192535,0,0.0,0.0,,,,,0,,3,,
Raw,9915620,9919443000000,,,-1291005709998577920,0.0,51.04487354401499,-1.9817020974658028,15.109205624643035,7,95,0.0,3,19497525,27,24.7,-559.7532348632812,0.8450000286102295,0,0.0,0.0,,,,,0,,3,,
Raw,9915621,9919443000000,,,-1291005709998577920,0.0,51.04487354401499,-1.9817020974658028,15.109205624643035,7,9,0.0,207,37611375139193,1065,12.1,68.43704223632812,21.319000244140625,0,0.0,0.0,,,,,0,,3,,
Raw,9915621,9919443000000,,,-1291005709998577920,0.0,51.04487354401499,-1.9817020974658028,15.109205624643035,7,16,0.0,207,37611370580517,383,11.9,557.3942260742188,11.046500205993652,0,0.0,0.0,,,,,0,,3,,
Raw,9915621,9919443000000,,,-1291005709998577920,0.0,51.04487354401499,-1.9817020974658028,15.109205624643035,7,7,0.0,207,37611370661475,453,15.0,-648.2251586914062,13.471500396728516,0,0.0,0.0,,,,,0,,3,,
Raw,9915621,9919443000000,,,-1291005709998577920,0.0,51.04487354401499,-1.9817020974658028,15.109205624643035,7,10,0.0,15,372429368682307,19,27.2,568.75927734375,0.5385000109672546,0,0.0,0.0,,,,,0,,1,,
Raw,9915621,9919443000000,,,-1291005709998577920,0.0,51.04487354401499,-1.9817020974658028,15.109205624643035,7,12,0.0,15,372429357499050,1726,20.0,697.2740478515625,27.942001342773438,0,0.0,0.0,,,,,0,,1,,
Raw,9915622,9919443000000,,,-1291005709998577920,0.0,51.04487354401499,-1.9817020974658028,15.109205624643035,7,16,0.0,15,372429359443829,12,32.7,-734.0055541992188,0.052400000393390656,0,0.0,0.0,,,,,0,,1,,
Raw,9915622,9919443000000,,,-1291005709998577920,0.0,51.04487354401499,-1.9817020974658028,15.109205624643035,7,22,0.0,15,372429358983912,21,26.0,-449.873291015625,0.6035000085830688,0,0.0,0.0,,,,,0,,1,,
Raw,9915622,9919443000000,,,-1291005709998577920,0.0,51.04487354401499,-1.9817020974658028,15.109205624643035,7,25,0.0,15,372429369055998,1868,16.9,520.8528442382812,28.930002212524414,0,0.0,0.0,,,,,0,,1,,
Raw,9915622,9919443000000,,,-1291005709998577920,0.0,51.04487354401499,-1.9817020974658028,15.109205624643035,7,26,0.0,15,372429369678989,40,21.4,-489.2735900878906,0.8600000143051147,0,0.0,0.0,,,,,0,,1,,
Raw,9915622,9919443000000,,,-1291005709998577920,0.0,51.04487354401499,-1.9817020974658028,15.109205624643035,7,31,0.0,15,372429370524925,35,22.3,-21.465126037597656,0.8014999628067017,0,0.0,0.0,,,,,0,,1,,
Raw,9915622,9919443000000,,,-1291005709998577920,0.0,51.04487354401499,-1.9817020974658028,15.109205624643035,7,32,0.0,15,372429372901779,19,27.0,-135.716552734375,0.059300001710653305,0,0.0,0.0,,,,,0,,1,,
Raw,9915623,9919443000000,,,-1291005709998577920,0.0,51.04487354401499,-1.9817020974658028,15.109205624643035,7,4,0.0,7183,372429356651005,46,20.5,314.81231689453125,0.750499963760376,0,0.0,0.0,,,,,0,,6,,
Raw,9915623,9919443000000,,,-1291005709998577920,0.0,51.04487354401499,-1.9817020974658028,15.109205624643035,7,25,0.0,7183,372429350476464,11,33.2,-454.4688415527344,0.29350000619888306,0,0.0,0.0,,,,,0,,6,,
Raw,9915623,9919443000000,,,-1291005709998577920,0.0,51.04487354401499,-1.9817020974658028,15.109205624643035,7,31,0.0,7183,372429360169835,64,18.0,336.2394104003906,1.6204999685287476,0,0.0,0.0,,,,,0,,6,,
NMEA,$GPGSV,3,2,11,25,40,039,17,26,42,216,21,31,47,316,22,32,65,030,27*72,1606980411525
NMEA,$GPGSV,3,3,11,20,10,164,,23,14,164,,29,23,105,*40,1606980411526
NMEA,$GLGSV,2,1,06,74,22,243,33,73,57,298,12,80,35,015,12,71,35,334,15*69,1606980411527
NMEA,$GLGSV,2,2,06,70,85,077,,69,24,146,*63,1606980411536
NMEA,$GAGSV,2,1,05,04,37,120,21,25,15,224,33,31,53,026,18,09,74,018,*63,1606980411537
NMEA,$GAGSV,2,2,05,24,68,244,*57,1606980411538
NMEA,$PQGSV,1,1,03,193,61,143,14,194,69,045,12,195,23,144,13,0,5*68,1606980411539
NMEA,$PQGSV,4,1,16,02,40,241,27,06,61,022,21,08,06,194,17,09,47,334,15,0,4*61,1606980411541
NMEA,$PQGSV,4,2,16,10,42,208,24,13,13,216,24,16,61,015,19,21,60,305,19,0,4*65,1606980411542
NMEA,$PQGSV,4,3,16,22,57,161,14,26,34,262,22,01,51,129,,03,59,202,,0,4*6F,1606980411543
NMEA,$PQGSV,4,4,16,04,37,115,,07,67,192,,19,07,147,,29,10,113,,0,4*61,1606980411544
NMEA,$GNGSA,A,3,10,16,22,26,31,32,,,,,,,1.6,1.3,0.9,1*3C,1606980411546
NMEA,$GNGSA,A,2,74,,,,,,,,,,,,1.6,1.3,0.9,2*3C,1606980411546
NMEA,$GNGSA,A,2,25,,,,,,,,,,,,1.6,1.3,0.9,3*39,1606980411547
NMEA,$PQGSA,A,2,13,26,,,,,,,,,,,1.6,1.3,0.9,4*37,1606980411547
NMEA,$GNVTG,249.9,T,249.9,M,2.2,N,4.0,K,A*39,1606980411547
NMEA,$GNRMC,072652.00,A,2255.526623,N,12017.681885,E,2.2,249.9,031220,2.8,W,A*3A,1606980411547
NMEA,$GNGGA,072652.00,2255.526623,N,12017.681885,E,1,10,1.3,26.8,M,17.5,M,,*43,1606980411547
Fix,gps,22.925442,120.294691,44.644897,0.000000,9.648001,1606980413000
NMEA,$GPGSV,3,1,11,10,40,184,27,12,03,036,20,16,09,210,33,22,12,313,26*7A,1606980412540
NMEA,$GPGSV,3,2,11,25,40,039,17,26,42,216,21,31,47,316,21,32,65,030,26*70,1606980412541
NMEA,$GPGSV,3,3,11,20,10,164,,23,14,164,,29,23,105,*40,1606980412547
NMEA,$GLGSV,2,1,06,74,22,243,34,73,57,298,12,80,35,015,12,71,35,334,15*6E,1606980412549
NMEA,$GLGSV,2,2,06,70,85,077,,69,24,146,*63,1606980412556
Raw,9916665,9920443000000,,,-1291005709998577920,0.0,54.38640801003203,-5.386323343475191,14.85675073937985,7,10,0.0,207,37612367244644,10,34.0,-429.69305419921875,0.23260000348091125,0,0.0,0.0,,,,,0,,3,,
Raw,9916666,9920443000000,,,-1291005709998577920,0.0,54.38640801003203,-5.386323343475191,14.85675073937985,7,95,0.0,3,19499536,24,25.8,-557.71923828125,0.8050000071525574,0,0.0,0.0,,,,,0,,3,,
Raw,9916666,9920443000000,,,-1291005709998577920,0.0,54.38640801003203,-5.386323343475191,14.85675073937985,7,9,0.0,207,37612375138965,1207,12.1,68.43704223632812,22.819000244140625,0,0.0,0.0,,,,,0,,3,,
Raw,9916666,9920443000000,,,-1291005709998577920,0.0,54.38640801003203,-5.386323343475191,14.85675073937985,7,16,0.0,207,37612370578658,456,11.9,557.3942260742188,12.546500205993652,0,0.0,0.0,,,,,0,,3,,
Raw,9916666,9920443000000,,,-1291005709998577920,0.0,54.38640801003203,-5.386323343475191,14.85675073937985,7,7,0.0,207,37612370663637,543,15.0,-648.2251586914062,14.971500396728516,0,0.0,0.0,,,,,0,,3,,
Raw,9916666,9920443000000,,,-1291005709998577920,0.0,54.38640801003203,-5.386323343475191,14.85675073937985,7,10,0.0,15,372430368680437,19,27.2,570.5401611328125,0.053300000727176666,0,0.0,0.0,,,,,0,,1,,
Raw,9916667,9920443000000,,,-1291005709998577920,0.0,54.38640801003203,-5.386323343475191,14.85675073937985,7,12,0.0,15,372430357496724,1915,20.0,697.2740478515625,29.442001342773438,0,0.0,0.0,,,,,0,,1,,
Raw,9916667,9920443000000,,,-1291005709998577920,0.0,54.38640801003203,-5.386323343475191,14.85675073937985,7,16,0.0,15,372430359446268,12,32.8,-732.2369995117188,0.052400000393390656,0,0.0,0.0,,,,,0,,1,,
Raw,9916667,9920443000000,,,-1291005709998577920,0.0,54.38640801003203,-5.386323343475191,14.85675073937985,7,22,0.0,15,372430358985386,21,26.3,-447.9466552734375,0.15320000052452087,0,0.0,0.0,,,,,0,,1,,
Raw,9916667,9920443000000,,,-1291005709998577920,0.0,54.38640801003203,-5.386323343475191,14.85675073937985,7,25,0.0,15,372430369054261,2062,16.9,520.8528442382812,30.430002212524414,0,0.0,0.0,,,,,0,,1,,
Raw,9916667,9920443000000,,,-1291005709998577920,0.0,54.38640801003203,-5.386323343475191,14.85675073937985,7,26,0.0,15,372430369680588,40,21.4,-487.8368835449219,0.8600000143051147,0,0.0,0.0,,,,,0,,1,,
Raw,9916667,9920443000000,,,-1291005709998577920,0.0,54.38640801003203,-5.386323343475191,14.85675073937985,7,31,0.0,15,372430370525065,40,21.2,-19.352867126464844,0.8614999651908875,0,0.0,0.0,,,,,0,,1,,
Raw,9916668,9920443000000,,,-1291005709998577920,0.0,54.38640801003203,-5.386323343475191,14.85675073937985,7,32,0.0,15,372430372902192,21,26.4,-135.0278778076172,0.12919999659061432,0,0.0,0.0,,,,,0,,1,,
Raw,9916668,9920443000000,,,-1291005709998577920,0.0,54.38640801003203,-5.386323343475191,14.85675073937985,7,2,0.0,783,372416316637758,21,27.1,2.6885528564453125,1.2335000038146973,0,0.0,0.0,,,,,0,,5,,
Raw,9916668,9920443000000,,,-1291005709998577920,0.0,54.38640801003203,-5.386323343475191,14.85675073937985,7,6,0.0,15,372416319637351,40,21.5,-127.11094665527344,0.7699999809265137,0,0.0,0.0,,,,,0,,5,,
Raw,9916668,9920443000000,,,-1291005709998577920,0.0,54.38640801003203,-5.386323343475191,14.85675073937985,7,8,0.0,15,372416304825091,1041,16.6,263.48779296875,21.317501068115234,0,0.0,0.0,,,,,0,,5,,
Raw,9916668,9920443000000,,,-1291005709998577920,0.0,54.38640801003203,-5.386323343475191,14.85675073937985,7,9,0.0,15,372416317726681,415,14.8,-117.8258285522461,12.367000579833984,0,0.0,0.0,,,,,0,,5,,
Raw,9916669,9920443000000,,,-1291005709998577920,0.0,54.38640801003203,-5.386323343475191,14.85675073937985,7,10,0.0,15,372416315509026,31,23.5,-158.17332458496094,0.6389999985694885,0,0.0,0.0,,,,,0,,5,,
Raw,9916669,9920443000000,,,-1291005709998577920,0.0,54.38640801003203,-5.386323343475191,14.85675073937985,7,13,0.0,15,372416307952786,27,24.3,322.175048828125,0.5870000123977661,0,0.0,0.0,,,,,0,,5,,
Raw,9916669,9920443000000,,,-1291005709998577920,0.0,54.38640801003203,-5.386323343475191,14.85675073937985,7,16,0.0,15,372416319329139,53,19.9,-115.83822631835938,0.8299999833106995,0,0.0,0.0,,,,,0,,5,,
Raw,9916669,9920443000000,,,-1291005709998577920,0.0,54.38640801003203,-5.386323343475191,14.85675073937985,7,21,0.0,15,372416366956438,87,18.6,-216.2268829345703,3.9255001544952393,0,0.0,0.0,,,,,0,,5,,
Raw,9916669,9920443000000,,,-1291005709998577920,0.0,54.38640801003203,-5.386323343475191,14.85675073937985,7,22,0.0,15,372416366319171,599,14.0,370.78985595703125,15.515501022338867,0,0.0,0.0,,,,,0,,5,,
Raw,9916670,9920443000000,,,-1291005709998577920,0.0,54.38640801003203,-5.386323343475191,14.85675073937985,7,26,0.0,15,372416363415325,40,21.6,-236.2181854248047,0.7310000061988831,0,0.0,0.0,,,,,0,,5,,
Raw,9916670,9920443000000,,,-1291005709998577920,0.0,54.38640801003203,-5.386323343475191,14.85675073937985,7,4,0.0,7183,372430356649875,40,21.4,316.7628479003906,0.6904999613761902,0,0.0,0.0,,,,,0,,6,,
Raw,9916670,9920443000000,,,-1291005709998577920,0.0,54.38640801003203,-5.386323343475191,14.85675073937985,7,25,0.0,7183,372430350477973,11,33.2,-452.7086486816406,0.29350000619888306,0,0.0,0.0,,,,,0,,6,,
Raw,9916670,9920443000000,,,-1291005709998577920,0.0,54.38640801003203,-5.386323343475191,14.85675073937985,7,31,0.0,7183,372430360168668,53,19.5,335.84930419921875,0.8104999661445618,0,0.0,0.0,,,,,0,,6,,
NMEA,$GAGSV,2,1,05,04,37,120,21,25,15,224,33,31,53,026,20,09,74,018,*68,1606980412556
NMEA,$GAGSV,2,2,05,24,68,244,*57,1606980412557
NMEA,$PQGSV,1,1,03,193,61,143,14,194,69,045,12,195,23,144,14,0,5*6F,1606980412558
NMEA,$PQGSV,4,1,16,02,40,241,27,06,61,022,22,08,06,194,17,09,47,334,15,0,4*62,1606980412559
NMEA,$PQGSV,4,2,16,10,42,208,24,13,13,216,24,16,61,015,20,21,60,305,19,0,4*6F,1606980412559
NMEA,$PQGSV,4,3,16,22,57,161,14,26,34,262,22,01,51,129,,03,59,202,,0,4*6F,1606980412560
NMEA,$PQGSV,4,4,16,04,37,115,,07,67,192,,19,07,147,,29,10,113,,0,4*61,1606980412561
NMEA,$GNGSA,A,3,10,16,22,26,31,32,,,,,,,1.6,1.3,0.9,1*3C,1606980412563
NMEA,$GNGSA,A,2,74,,,,,,,,,,,,1.6,1.3,0.9,2*3C,1606980412564
NMEA,$GNGSA,A,2,25,,,,,,,,,,,,1.6,1.3,0.9,3*39,1606980412564
NMEA,$PQGSA,A,2,13,26,,,,,,,,,,,1.6,1.3,0.9,4*37,1606980412566
NMEA,$GNVTG,,T,,M,0.0,N,0.0,K,A*3D,1606980412566
NMEA,$GNRMC,072653.00,A,2255.526501,N,12017.681471,E,0.0,,031220,2.8,W,A*17,1606980412568
NMEA,$GNGGA,072653.00,2255.526501,N,12017.681471,E,1,10,1.3,27.2,M,17.5,M,,*4D,1606980412569
Fix,gps,22.925439,120.294688,45.251770,0.000000,9.648001,1606980414000
Raw,9917609,9921443000000,,,-1291005709998577920,0.0,54.43082409328781,-2.6198321969025793,12.50381668441407,7,10,0.0,207,37613367246102,11,33.2,-431.53546142578125,0.23340000212192535,0,0.0,0.0,,,,,0,,3,,
Raw,9917609,9921443000000,,,-1291005709998577920,0.0,54.43082409328781,-2.6198321969025793,12.50381668441407,7,95,0.0,3,19501317,27,24.7,-559.6876220703125,0.8450000286102295,0,0.0,0.0,,,,,0,,3,,
Raw,9917611,9921443000000,,,-1291005709998577920,0.0,54.43082409328781,-2.6198321969025793,12.50381668441407,7,9,0.0,207,37613375138737,1358,12.1,68.43704223632812,24.319000244140625,0,0.0,0.0,,,,,0,,3,,
Raw,9917611,9921443000000,,,-1291005709998577920,0.0,54.43082409328781,-2.6198321969025793,12.50381668441407,7,16,0.0,207,37613370576799,538,11.9,557.3942260742188,14.046500205993652,0,0.0,0.0,,,,,0,,3,,
Raw,9917612,9921443000000,,,-1291005709998577920,0.0,54.43082409328781,-2.6198321969025793,12.50381668441407,7,7,0.0,207,37613370665799,643,15.0,-648.2251586914062,16.471500396728516,0,0.0,0.0,,,,,0,,3,,
Raw,9917612,9921443000000,,,-1291005709998577920,0.0,54.43082409328781,-2.6198321969025793,12.50381668441407,7,10,0.0,15,372431368678552,21,26.2,568.435791015625,0.5885000228881836,0,0.0,0.0,,,,,0,,1,,
Raw,9917612,9921443000000,,,-1291005709998577920,0.0,54.43082409328781,-2.6198321969025793,12.50381668441407,7,12,0.0,15,372431357494398,2113,20.0,697.2740478515625,30.942001342773438,0,0.0,0.0,,,,,0,,1,,
Raw,9917613,9921443000000,,,-1291005709998577920,0.0,54.43082409328781,-2.6198321969025793,12.50381668441407,7,16,0.0,15,372431359448710,12,32.3,-734.1167602539062,0.052400000393390656,0,0.0,0.0,,,,,0,,1,,
Raw,9917613,9921443000000,,,-1291005709998577920,0.0,54.43082409328781,-2.6198321969025793,12.50381668441407,7,22,0.0,15,372431358986906,21,26.2,-449.7743835449219,0.13819999992847443,0,0.0,0.0,,,,,0,,1,,
Raw,9917614,9921443000000,,,-1291005709998577920,0.0,54.43082409328781,-2.6198321969025793,12.50381668441407,7,25,0.0,15,372431369052524,2266,16.9,520.8528442382812,31.930002212524414,0,0.0,0.0,,,,,0,,1,,
Raw,9917614,9921443000000,,,-1291005709998577920,0.0,54.43082409328781,-2.6198321969025793,12.50381668441407,7,26,0.0,15,372431369682191,31,23.1,-490.0918273925781,0.7400000095367432,0,0.0,0.0,,,,,0,,1,,
Raw,9917615,9921443000000,,,-1291005709998577920,0.0,54.43082409328781,-2.6198321969025793,12.50381668441407,7,31,0.0,15,372431370525096,40,21.7,-20.38996696472168,0.8014999628067017,0,0.0,0.0,,,,,0,,1,,
Raw,9917615,9921443000000,,,-1291005709998577920,0.0,54.43082409328781,-2.6198321969025793,12.50381668441407,7,32,0.0,15,372431372902652,21,26.6,-136.8938446044922,0.12919999659061432,0,0.0,0.0,,,,,0,,1,,
Raw,9917615,9921443000000,,,-1291005709998577920,0.0,54.43082409328781,-2.6198321969025793,12.50381668441407,7,2,0.0,783,372417316637744,19,27.3,-2.3620858192443848,0.48350000381469727,0,0.0,0.0,,,,,0,,5,,
Raw,9917616,9921443000000,,,-1291005709998577920,0.0,54.43082409328781,-2.6198321969025793,12.50381668441407,7,6,0.0,15,372417319637804,53,19.7,-128.9833221435547,0.875,0,0.0,0.0,,,,,0,,5,,
Raw,9917616,9921443000000,,,-1291005709998577920,0.0,54.43082409328781,-2.6198321969025793,12.50381668441407,7,8,0.0,15,372417304824212,1184,16.6,263.48779296875,22.817501068115234,0,0.0,0.0,,,,,0,,5,,
Raw,9917617,9921443000000,,,-1291005709998577920,0.0,54.43082409328781,-2.6198321969025793,12.50381668441407,7,9,0.0,15,372417317727074,498,14.8,-117.8258285522461,13.867000579833984,0,0.0,0.0,,,,,0,,5,,
Raw,9917617,9921443000000,,,-1291005709998577920,0.0,54.43082409328781,-2.6198321969025793,12.50381668441407,7,10,0.0,15,372417315509581,31,23.2,-159.97850036621094,0.6389999985694885,0,0.0,0.0,,,,,0,,5,,
Raw,9917618,9921443000000,,,-1291005709998577920,0.0,54.43082409328781,-2.6198321969025793,12.50381668441407,7,13,0.0,15,372417307951737,31,23.8,320.2834777832031,0.5870000123977661,0,0.0,0.0,,,,,0,,5,,
Raw,9917618,9921443000000,,,-1291005709998577920,0.0,54.43082409328781,-2.6198321969025793,12.50381668441407,7,16,0.0,15,372417319329484,53,19.5,-118.61319732666016,0.875,0,0.0,0.0,,,,,0,,5,,
Raw,9917618,9921443000000,,,-1291005709998577920,0.0,54.43082409328781,-2.6198321969025793,12.50381668441407,7,21,0.0,15,372417366957160,115,18.6,-216.2268829345703,5.425500392913818,0,0.0,0.0,,,,,0,,5,,
Raw,9917619,9921443000000,,,-1291005709998577920,0.0,54.43082409328781,-2.6198321969025793,12.50381668441407,7,22,0.0,15,372417366317934,703,14.0,370.78985595703125,17.015501022338867,0,0.0,0.0,,,,,0,,5,,
Raw,9917619,9921443000000,,,-1291005709998577920,0.0,54.43082409328781,-2.6198321969025793,12.50381668441407,7,26,0.0,15,372417363416112,40,21.5,-237.7928924560547,0.7310000061988831,0,0.0,0.0,,,,,0,,5,,
Raw,9917620,9921443000000,,,-1291005709998577920,0.0,54.43082409328781,-2.6198321969025793,12.50381668441407,7,4,0.0,7183,372431356648866,46,20.5,315.4212951660156,0.750499963760376,0,0.0,0.0,,,,,0,,6,,
Raw,9917620,9921443000000,,,-1291005709998577920,0.0,54.43082409328781,-2.6198321969025793,12.50381668441407,7,25,0.0,7183,372431350479488,12,32.2,-454.4403381347656,0.3135000169277191,0,0.0,0.0,,,,,0,,6,,
Raw,9917621,9921443000000,,,-1291005709998577920,0.0,54.43082409328781,-2.6198321969025793,12.50381668441407,7,31,0.0,7183,372431360167527,61,18.0,334.5458068847656,0.8704999685287476,0,0.0,0.0,,,,,0,,6,,
NMEA,$GPGSV,3,1,11,10,40,184,26,12,03,036,20,16,09,210,32,22,12,313,26*7A,1606980413515
NMEA,$GPGSV,3,2,11,25,40,039,17,26,42,216,23,31,47,316,22,32,65,030,27*70,1606980413516
NMEA,$GPGSV,3,3,11,20,10,164,,23,14,164,,29,23,105,*40,1606980413516
NMEA,$GLGSV,2,1,06,74,22,243,33,73,57,298,12,80,35,015,12,71,35,334,15*69,1606980413516
NMEA,$GLGSV,2,2,06,70,85,077,,69,24,146,*63,1606980413517
NMEA,$GAGSV,2,1,05,04,37,120,21,25,15,224,32,31,53,026,18,09,74,018,*62,1606980413518
NMEA,$GAGSV,2,2,05,24,68,244,*57,1606980413519
NMEA,$PQGSV,1,1,03,193,61,143,14,194,69,045,12,195,23,144,14,0,5*6F,1606980413519
NMEA,$PQGSV,4,1,16,02,40,241,27,06,61,022,20,08,06,194,17,09,47,334,15,0,4*60,1606980413520
NMEA,$PQGSV,4,2,16,10,42,208,23,13,13,216,24,16,61,015,20,21,60,305,19,0,4*68,1606980413520
NMEA,$PQGSV,4,3,16,22,57,161,14,26,34,262,22,01,51,129,,03,59,202,,0,4*6F,1606980413520
NMEA,$PQGSV,4,4,16,04,37,115,,07,67,192,,19,07,147,,29,10,113,,0,4*61,1606980413520
NMEA,$GNGSA,A,3,10,16,22,26,31,32,,,,,,,1.6,1.3,0.9,1*3C,1606980413521
NMEA,$GNGSA,A,2,74,,,,,,,,,,,,1.6,1.3,0.9,2*3C,1606980413521
NMEA,$GNGSA,A,2,25,,,,,,,,,,,,1.6,1.3,0.9,3*39,1606980413522
NMEA,$PQGSA,A,2,13,26,,,,,,,,,,,1.6,1.3,0.9,4*37,1606980413522
NMEA,$GNVTG,,T,,M,0.0,N,0.0,K,A*3D,1606980413524
NMEA,$GNRMC,072654.00,A,2255.526349,N,12017.681304,E,0.0,,031220,2.8,W,A*1F,1606980413526
NMEA,$GNGGA,072654.00,2255.526349,N,12017.681304,E,1,10,1.3,27.8,M,17.5,M,,*4F,1606980413526
Fix,gps,22.925436,120.294687,45.815369,0.000000,9.648001,1606980415000
NMEA,$GPGSV,3,1,11,10,40,184,28,12,03,036,20,16,09,210,33,22,12,313,29*7A,1606980414519
NMEA,$GPGSV,3,2,11,25,40,039,17,26,42,216,26,31,47,316,21,32,65,030,27*76,1606980414519
Raw,9918601,9922443000000,,,-1291005709998577920,0.0,56.018561735982075,-8.602287961743773,14.221620431486766,7,10,0.0,207,37614367247539,11,33.6,-432.3661804199219,0.23340000212192535,0,0.0,0.0,,,,,0,,3,,
Raw,9918601,9922443000000,,,-1291005709998577920,0.0,56.018561735982075,-8.602287961743773,14.221620431486766,7,95,0.0,3,19503146,24,25.4,-560.7655029296875,0.8050000071525574,0,0.0,0.0,,,,,0,,3,,
Raw,9918601,9922443000000,,,-1291005709998577920,0.0,56.018561735982075,-8.602287961743773,14.221620431486766,7,9,0.0,207,37614375138508,1519,12.1,68.43704223632812,25.819002151489258,0,0.0,0.0,,,,,0,,3,,
Raw,9918601,9922443000000,,,-1291005709998577920,0.0,56.018561735982075,-8.602287961743773,14.221620431486766,7,16,0.0,207,37614370574940,630,11.9,557.3942260742188,15.546501159667969,0,0.0,0.0,,,,,0,,3,,
Raw,9918602,9922443000000,,,-1291005709998577920,0.0,56.018561735982075,-8.602287961743773,14.221620431486766,7,7,0.0,207,37614370667961,753,15.0,-648.2251586914062,17.971500396728516,0,0.0,0.0,,,,,0,,3,,
Raw,9918602,9922443000000,,,-1291005709998577920,0.0,56.018561735982075,-8.602287961743773,14.221620431486766,7,10,0.0,15,372432368676646,19,27.8,567.8553466796875,0.5084999799728394,0,0.0,0.0,,,,,0,,1,,
Raw,9918602,9922443000000,,,-1291005709998577920,0.0,56.018561735982075,-8.602287961743773,14.221620431486766,7,12,0.0,15,372432357492073,2321,20.0,697.2740478515625,32.44200134277344,0,0.0,0.0,,,,,0,,1,,
Raw,9918602,9922443000000,,,-1291005709998577920,0.0,56.018561735982075,-8.602287961743773,14.221620431486766,7,16,0.0,15,372432359451165,11,33.1,-735.0204467773438,0.05140000209212303,0,0.0,0.0,,,,,0,,1,,
Raw,9918602,9922443000000,,,-1291005709998577920,0.0,56.018561735982075,-8.602287961743773,14.221620431486766,7,22,0.0,15,372432358988442,17,28.5,-450.8128662109375,0.07530000060796738,0,0.0,0.0,,,,,0,,1,,
Raw,9918603,9922443000000,,,-1291005709998577920,0.0,56.018561735982075,-8.602287961743773,14.221620431486766,7,25,0.0,15,372432369050786,2480,16.9,520.8528442382812,33.43000030517578,0,0.0,0.0,,,,,0,,1,,
Raw,9918603,9922443000000,,,-1291005709998577920,0.0,56.018561735982075,-8.602287961743773,14.221620431486766,7,26,0.0,15,372432369683846,21,26.1,-490.65313720703125,0.12470000237226486,0,0.0,0.0,,,,,0,,1,,
Raw,9918603,9922443000000,,,-1291005709998577920,0.0,56.018561735982075,-8.602287961743773,14.221620431486766,7,31,0.0,15,372432370525186,40,21.4,-22.426109313964844,0.8614999651908875,0,0.0,0.0,,,,,0,,1,,
Raw,9918603,9922443000000,,,-1291005709998577920,0.0,56.018561735982075,-8.602287961743773,14.221620431486766,7,32,0.0,15,372432372903103,19,27.2,-137.9296417236328,0.059300001710653305,0,0.0,0.0,,,,,0,,1,,
Raw,9918603,9922443000000,,,-1291005709998577920,0.0,56.018561735982075,-8.602287961743773,14.221620431486766,7,2,0.0,783,372418316637752,26,27.3,-2.3620858192443848,1.9835001230239868,0,0.0,0.0,,,,,0,,5,,
Raw,9918603,9922443000000,,,-1291005709998577920,0.0,56.018561735982075,-8.602287961743773,14.221620431486766,7,6,0.0,15,372418319638230,53,19.7,-129.23297119140625,0.875,0,0.0,0.0,,,,,0,,5,,
Raw,9918603,9922443000000,,,-1291005709998577920,0.0,56.018561735982075,-8.602287961743773,14.221620431486766,7,8,0.0,15,372418304823333,1338,16.6,263.48779296875,24.317501068115234,0,0.0,0.0,,,,,0,,5,,
Raw,9918604,9922443000000,,,-1291005709998577920,0.0,56.018561735982075,-8.602287961743773,14.221620431486766,7,9,0.0,15,372418317727467,592,14.8,-117.8258285522461,15.367000579833984,0,0.0,0.0,,,,,0,,5,,
Raw,9918604,9922443000000,,,-1291005709998577920,0.0,56.018561735982075,-8.602287961743773,14.221620431486766,7,10,0.0,15,372418315510083,31,23.6,-161.5148162841797,0.6389999985694885,0,0.0,0.0,,,,,0,,5,,
Raw,9918604,9922443000000,,,-1291005709998577920,0.0,56.018561735982075,-8.602287961743773,14.221620431486766,7,13,0.0,15,372418307950629,40,21.4,319.1312255859375,0.7369999885559082,0,0.0,0.0,,,,,0,,5,,
Raw,9918604,9922443000000,,,-1291005709998577920,0.0,56.018561735982075,-8.602287961743773,14.221620431486766,7,16,0.0,15,372418319329955,70,17.3,-118.83403015136719,1.040000081062317,0,0.0,0.0,,,,,0,,5,,
Raw,9918604,9922443000000,,,-1291005709998577920,0.0,56.018561735982075,-8.602287961743773,14.221620431486766,7,21,0.0,15,372418366957875,124,14.3,-216.6109619140625,3.515500068664551,0,0.0,0.0,,,,,0,,5,,
Raw,9918604,9922443000000,,,-1291005709998577920,0.0,56.018561735982075,-8.602287961743773,14.221620431486766,7,22,0.0,15,372418366316697,817,14.0,370.78985595703125,18.515501022338867,0,0.0,0.0,,,,,0,,5,,
Raw,9918605,9922443000000,,,-1291005709998577920,0.0,56.018561735982075,-8.602287961743773,14.221620431486766,7,26,0.0,15,372418363416875,27,24.3,-239.40603637695312,0.581000030040741,0,0.0,0.0,,,,,0,,5,,
Raw,9918605,9922443000000,,,-1291005709998577920,0.0,56.018561735982075,-8.602287961743773,14.221620431486766,7,4,0.0,7183,372432356647810,53,19.9,314.14630126953125,0.8104999661445618,0,0.0,0.0,,,,,0,,6,,
Raw,9918605,9922443000000,,,-1291005709998577920,0.0,56.018561735982075,-8.602287961743773,14.221620431486766,7,9,0.0,7183,372432369412248,365,11.2,-115.23233032226562,10.397000312805176,0,0.0,0.0,,,,,0,,6,,
Raw,9918605,9922443000000,,,-1291005709998577920,0.0,56.018561735982075,-8.602287961743773,14.221620431486766,7,25,0.0,7183,372432350481007,11,33.5,-453.91766357421875,0.04990000277757645,0,0.0,0.0,,,,,0,,6,,
Raw,9918605,9922443000000,,,-1291005709998577920,0.0,56.018561735982075,-8.602287961743773,14.221620431486766,7,31,0.0,7183,372432360166411,69,18.0,334.5458068847656,2.370500087738037,0,0.0,0.0,,,,,0,,6,,
NMEA,$GPGSV,3,3,11,20,10,164,,23,14,164,,29,23,105,*40,1606980414519
NMEA,$GLGSV,2,1,06,74,22,243,34,73,57,298,12,80,35,015,12,71,35,334,15*6E,1606980414520
NMEA,$GLGSV,2,2,06,70,85,077,,69,24,146,*63,1606980414521
NMEA,$GAGSV,2,1,05,04,37,120,20,09,74,018,11,25,15,224,34,31,53,026,18*65,1606980414522
NMEA,$GAGSV,2,2,05,24,68,244,*57,1606980414522
NMEA,$PQGSV,1,1,03,193,61,143,14,194,69,045,14,195,23,144,15,0,5*68,1606980414523
NMEA,$PQGSV,4,1,16,02,40,241,27,06,61,022,20,08,06,194,17,09,47,334,15,0,4*60,1606980414523
NMEA,$PQGSV,4,2,16,10,42,208,24,13,13,216,21,16,61,015,17,21,60,305,14,0,4*63,1606980414527
NMEA,$PQGSV,4,3,16,22,57,161,14,26,34,262,24,01,51,129,,03,59,202,,0,4*69,1606980414527
NMEA,$PQGSV,4,4,16,04,37,115,,07,67,192,,19,07,147,,29,10,113,,0,4*61,1606980414528
NMEA,$GNGSA,A,3,10,16,22,26,31,32,,,,,,,1.6,1.3,0.9,1*3C,1606980414528
NMEA,$GNGSA,A,2,74,,,,,,,,,,,,1.6,1.3,0.9,2*3C,1606980414532
NMEA,$GNGSA,A,2,25,,,,,,,,,,,,1.6,1.3,0.9,3*39,1606980414532
NMEA,$PQGSA,A,2,13,26,,,,,,,,,,,1.6,1.3,0.9,4*37,1606980414532
NMEA,$GNVTG,,T,,M,0.0,N,0.0,K,A*3D,1606980414533
NMEA,$GNRMC,072655.00,A,2255.526143,N,12017.681210,E,0.0,,031220,2.8,W,A*12,1606980414533
NMEA,$GNGGA,072655.00,2255.526143,N,12017.681210,E,1,10,1.3,28.3,M,17.5,M,,*46,1606980414534
Fix,gps,22.925431,120.294685,46.439392,0.000000,9.648001,1606980416000
NMEA,$GPGSV,3,1,11,10,40,184,27,12,03,036,20,16,09,210,34,22,12,313,29*72,1606980415517
NMEA,$GPGSV,3,2,11,25,40,039,17,26,42,216,29,31,47,316,21,32,65,030,27*79,1606980415517
NMEA,$GPGSV,3,3,11,20,10,164,,23,14,164,,29,23,105,*40,1606980415517
NMEA,$GLGSV,2,1,06,74,22,243,31,73,57,298,12,80,35,015,12,71,35,334,15*6B,1606980415518
NMEA,$GLGSV,2,2,06,70,85,077,,69,24,146,*63,1606980415519
NMEA,$GAGSV,2,1,05,04,37,120,18,09,74,018,11,25,15,224,35,31,53,026,18*6F,1606980415519
NMEA,$GAGSV,2,2,05,24,68,244,*57,1606980415519
NMEA,$PQGSV,1,1,03,193,61,143,14,194,69,045,14,195,23,144,15,0,5*68,1606980415520
NMEA,$PQGSV,4,1,16,02,40,241,27,06,61,022,20,08,06,194,17,09,47,334,15,0,4*60,1606980415521
NMEA,$PQGSV,4,2,16,10,42,208,22,13,13,216,23,16,61,015,22,21,60,305,14,0,4*61,1606980415521
NMEA,$PQGSV,4,3,16,22,57,161,14,26,34,262,21,01,51,129,,03,59,202,,0,4*6C,1606980415522
Raw,9919619,9923443000000,,,-1291005709998577920,0.0,54.71408076118678,-11.255846937445016,16.519419399458616,7,10,0.0,207,37615367249001,14,30.6,-434.0830078125,0.23629999160766602,0,0.0,0.0,,,,,0,,3,,
Raw,9919619,9923443000000,,,-1291005709998577920,0.0,54.71408076118678,-11.255846937445016,16.519419399458616,7,95,0.0,3,19505125,21,26.3,-562.3214721679688,0.7699999809265137,0,0.0,0.0,,,,,0,,3,,
Raw,9919620,9923443000000,,,-1291005709998577920,0.0,54.71408076118678,-11.255846937445016,16.519419399458616,7,9,0.0,207,37615375138280,1691,12.1,68.43704223632812,27.319002151489258,0,0.0,0.0,,,,,0,,3,,
Raw,9919621,9923443000000,,,-1291005709998577920,0.0,54.71408076118678,-11.255846937445016,16.519419399458616,7,16,0.0,207,37615370573080,733,11.9,557.3942260742188,17.04650115966797,0,0.0,0.0,,,,,0,,3,,
Raw,9919621,9923443000000,,,-1291005709998577920,0.0,54.71408076118678,-11.255846937445016,16.519419399458616,7,7,0.0,207,37615370670124,873,15.0,-648.2251586914062,19.471500396728516,0,0.0,0.0,,,,,0,,3,,
Raw,9919622,9923443000000,,,-1291005709998577920,0.0,54.71408076118678,-11.255846937445016,16.519419399458616,7,10,0.0,15,372433368674751,21,26.7,566.0834350585938,0.12319999933242798,0,0.0,0.0,,,,,0,,1,,
Raw,9919623,9923443000000,,,-1291005709998577920,0.0,54.71408076118678,-11.255846937445016,16.519419399458616,7,12,0.0,15,372433357489747,2540,20.0,697.2740478515625,33.94200134277344,0,0.0,0.0,,,,,0,,1,,
Raw,9919623,9923443000000,,,-1291005709998577920,0.0,54.71408076118678,-11.255846937445016,16.519419399458616,7,16,0.0,15,372433359453621,11,33.5,-736.82763671875,0.06640000641345978,0,0.0,0.0,,,,,0,,1,,
Raw,9919624,9923443000000,,,-1291005709998577920,0.0,54.71408076118678,-11.255846937445016,16.519419399458616,7,22,0.0,15,372433358989935,16,29.1,-452.3908996582031,0.06870000064373016,0,0.0,0.0,,,,,0,,1,,
Raw,9919624,9923443000000,,,-1291005709998577920,0.0,54.71408076118678,-11.255846937445016,16.519419399458616,7,25,0.0,15,372433369049049,2704,16.9,520.8528442382812,34.93000030517578,0,0.0,0.0,,,,,0,,1,,
Raw,9919625,9923443000000,,,-1291005709998577920,0.0,54.71408076118678,-11.255846937445016,16.519419399458616,7,26,0.0,15,372433369685480,16,29.2,-492.34027099609375,0.04020000249147415,0,0.0,0.0,,,,,0,,1,,
Raw,9919626,9923443000000,,,-1291005709998577920,0.0,54.71408076118678,-11.255846937445016,16.519419399458616,7,31,0.0,15,372433370525243,40,21.0,-23.111167907714844,0.8614999651908875,0,0.0,0.0,,,,,0,,1,,
Raw,9919626,9923443000000,,,-1291005709998577920,0.0,54.71408076118678,-11.255846937445016,16.519419399458616,7,32,0.0,15,372433372903564,21,26.6,-139.49371337890625,0.12919999659061432,0,0.0,0.0,,,,,0,,1,,
Raw,9919627,9923443000000,,,-1291005709998577920,0.0,54.71408076118678,-11.255846937445016,16.519419399458616,7,2,0.0,783,372419316637767,21,27.0,-4.906609058380127,1.2484999895095825,0,0.0,0.0,,,,,0,,5,,
Raw,9919627,9923443000000,,,-1291005709998577920,0.0,54.71408076118678,-11.255846937445016,16.519419399458616,7,6,0.0,15,372419319638686,46,20.3,-131.09576416015625,0.8299999833106995,0,0.0,0.0,,,,,0,,5,,
Raw,9919628,9923443000000,,,-1291005709998577920,0.0,54.71408076118678,-11.255846937445016,16.519419399458616,7,8,0.0,15,372419304822454,1502,16.6,263.48779296875,25.817501068115234,0,0.0,0.0,,,,,0,,5,,
Raw,9919628,9923443000000,,,-1291005709998577920,0.0,54.71408076118678,-11.255846937445016,16.519419399458616,7,9,0.0,15,372419317727860,696,14.8,-117.8258285522461,16.867000579833984,0,0.0,0.0,,,,,0,,5,,
Raw,9919629,9923443000000,,,-1291005709998577920,0.0,54.71408076118678,-11.255846937445016,16.519419399458616,7,10,0.0,15,372419315510671,40,21.7,-163.18556213378906,0.7489999532699585,0,0.0,0.0,,,,,0,,5,,
Raw,9919629,9923443000000,,,-1291005709998577920,0.0,54.71408076118678,-11.255846937445016,16.519419399458616,7,13,0.0,15,372419307949624,35,22.6,317.3068542480469,0.6769999861717224,0,0.0,0.0,,,,,0,,5,,
Raw,9919630,9923443000000,,,-1291005709998577920,0.0,54.71408076118678,-11.255846937445016,16.519419399458616,7,16,0.0,15,372419319330322,40,21.6,-120.07269287109375,0.7699999809265137,0,0.0,0.0,,,,,0,,5,,
Raw,9919630,9923443000000,,,-1291005709998577920,0.0,54.71408076118678,-11.255846937445016,16.519419399458616,7,21,0.0,15,372419366958597,148,14.3,-216.6109619140625,5.015500068664551,0,0.0,0.0,,,,,0,,5,,
Raw,9919631,9923443000000,,,-1291005709998577920,0.0,54.71408076118678,-11.255846937445016,16.519419399458616,7,22,0.0,15,372419366315460,942,14.0,370.78985595703125,20.015501022338867,0,0.0,0.0,,,,,0,,5,,
Raw,9919631,9923443000000,,,-1291005709998577920,0.0,54.71408076118678,-11.255846937445016,16.519419399458616,7,26,0.0,15,372419363417677,40,21.0,-240.66390991210938,0.7310000061988831,0,0.0,0.0,,,,,0,,5,,
Raw,9919632,9923443000000,,,-1291005709998577920,0.0,54.71408076118678,-11.255846937445016,16.519419399458616,7,4,0.0,7183,372433356646746,61,18.4,313.23291015625,0.8704999685287476,0,0.0,0.0,,,,,0,,6,,
Raw,9919633,9923443000000,,,-1291005709998577920,0.0,54.71408076118678,-11.255846937445016,16.519419399458616,7,9,0.0,7183,372433369412633,435,11.2,-115.23233032226562,11.897000312805176,0,0.0,0.0,,,,,0,,6,,
Raw,9919633,9923443000000,,,-1291005709998577920,0.0,54.71408076118678,-11.255846937445016,16.519419399458616,7,25,0.0,7183,372433350482532,10,34.5,-457.3137512207031,0.273499995470047,0,0.0,0.0,,,,,0,,6,,
Raw,9919634,9923443000000,,,-1291005709998577920,0.0,54.71408076118678,-11.255846937445016,16.519419399458616,7,31,0.0,7183,372433360165341,73,17.5,332.58575439453125,1.690500020980835,0,0.0,0.0,,,,,0,,6,,
NMEA,$PQGSV,4,4,16,04,37,115,,07,67,192,,19,07,147,,29,10,113,,0,4*61,1606980415522
NMEA,$GNGSA,A,3,10,16,22,26,31,32,,,,,,,1.6,1.3,0.9,1*3C,1606980415523
NMEA,$GNGSA,A,2,74,,,,,,,,,,,,1.6,1.3,0.9,2*3C,1606980415523
NMEA,$GNGSA,A,2,25,,,,,,,,,,,,1.6,1.3,0.9,3*39,1606980415523
NMEA,$PQGSA,A,2,13,26,,,,,,,,,,,1.6,1.3,0.9,4*37,1606980415524
NMEA,$GNVTG,,T,,M,0.0,N,0.0,K,A*3D,1606980415524
NMEA,$GNRMC,072656.00,A,2255.525861,N,12017.681104,E,0.0,,031220,2.8,W,A*1D,1606980415524
NMEA,$GNGGA,072656.00,2255.525861,N,12017.681104,E,1,10,1.3,29.0,M,17.5,M,,*4B,1606980415524
Raw,9920625,9924443000000,,,-1291005709998577920,0.0,47.70205123350024,-18.421241111990444,13.303656384359792,7,10,0.0,207,37616367250456,13,31.6,-434.2383117675781,0.23569999635219574,0,0.0,0.0,,,,,0,,3,,
Raw,9920626,9924443000000,,,-1291005709998577920,0.0,47.70205123350024,-18.421241111990444,13.303656384359792,7,95,0.0,3,19506976,19,27.5,-562.78076171875,0.7400000095367432,0,0.0,0.0,,,,,0,,3,,
Raw,9920626,9924443000000,,,-1291005709998577920,0.0,47.70205123350024,-18.421241111990444,13.303656384359792,7,9,0.0,207,37616375138052,1872,12.1,68.43704223632812,28.819002151489258,0,0.0,0.0,,,,,0,,3,,
Raw,9920627,9924443000000,,,-1291005709998577920,0.0,47.70205123350024,-18.421241111990444,13.303656384359792,7,16,0.0,207,37616370571221,845,11.9,557.3942260742188,18.54650115966797,0,0.0,0.0,,,,,0,,3,,
Raw,9920627,9924443000000,,,-1291005709998577920,0.0,47.70205123350024,-18.421241111990444,13.303656384359792,7,7,0.0,207,37616370672286,1003,15.0,-648.2251586914062,20.971500396728516,0,0.0,0.0,,,,,0,,3,,
Raw,9920628,9924443000000,,,-1291005709998577920,0.0,47.70205123350024,-18.421241111990444,13.303656384359792,7,10,0.0,15,372434368672868,21,26.4,565.8876342773438,0.12319999933242798,0,0.0,0.0,,,,,0,,1,,
Raw,9920628,9924443000000,,,-1291005709998577920,0.0,47.70205123350024,-18.421241111990444,13.303656384359792,7,12,0.0,15,372434357487421,2768,20.0,697.2740478515625,35.44200134277344,0,0.0,0.0,,,,,0,,1,,
Raw,9920629,9924443000000,,,-1291005709998577920,0.0,47.70205123350024,-18.421241111990444,13.303656384359792,7,16,0.0,15,372434359456081,12,32.6,-737.0562133789062,0.052400000393390656,0,0.0,0.0,,,,,0,,1,,
Raw,9920629,9924443000000,,,-1291005709998577920,0.0,47.70205123350024,-18.421241111990444,13.303656384359792,7,22,0.0,15,372434358991442,17,28.0,-452.5718078613281,0.07530000060796738,0,0.0,0.0,,,,,0,,1,,
Raw,9920630,9924443000000,,,-1291005709998577920,0.0,47.70205123350024,-18.421241111990444,13.303656384359792,7,25,0.0,15,372434369047311,2938,16.9,520.8528442382812,36.43000030517578,0,0.0,0.0,,,,,0,,1,,
Raw,9920630,9924443000000,,,-1291005709998577920,0.0,47.70205123350024,-18.421241111990444,13.303656384359792,7,26,0.0,15,372434369687106,19,27.2,-492.4112243652344,0.05480000376701355,0,0.0,0.0,,,,,0,,1,,
Raw,9920631,9924443000000,,,-1291005709998577920,0.0,47.70205123350024,-18.421241111990444,13.303656384359792,7,31,0.0,15,372434370525284,61,18.5,-23.37757682800293,1.0115000009536743,0,0.0,0.0,,,,,0,,1,,
Raw,9920631,9924443000000,,,-1291005709998577920,0.0,47.70205123350024,-18.421241111990444,13.303656384359792,7,32,0.0,15,372434372904065,24,25.0,-139.75482177734375,0.39980000257492065,0,0.0,0.0,,,,,0,,1,,
Raw,9920631,9924443000000,,,-1291005709998577920,0.0,47.70205123350024,-18.421241111990444,13.303656384359792,7,2,0.0,783,372420316637783,33,27.0,-4.906609058380127,2.748500108718872,0,0.0,0.0,,,,,0,,5,,
Raw,9920632,9924443000000,,,-1291005709998577920,0.0,47.70205123350024,-18.421241111990444,13.303656384359792,7,6,0.0,15,372420319639112,53,19.1,-131.71029663085938,0.8899999856948853,0,0.0,0.0,,,,,0,,5,,
Raw,9920632,9924443000000,,,-1291005709998577920,0.0,47.70205123350024,-18.421241111990444,13.303656384359792,7,8,0.0,15,372420304821575,1675,16.6,263.48779296875,27.317501068115234,0,0.0,0.0,,,,,0,,5,,
Raw,9920633,9924443000000,,,-1291005709998577920,0.0,47.70205123350024,-18.421241111990444,13.303656384359792,7,9,0.0,15,372420317728253,809,14.8,-117.8258285522461,18.367000579833984,0,0.0,0.0,,,,,0,,5,,
Raw,9920633,9924443000000,,,-1291005709998577920,0.0,47.70205123350024,-18.421241111990444,13.303656384359792,7,10,0.0,15,372420315511229,40,21.0,-163.37759399414062,0.7489999532699585,0,0.0,0.0,,,,,0,,5,,
Raw,9920634,9924443000000,,,-1291005709998577920,0.0,47.70205123350024,-18.421241111990444,13.303656384359792,7,13,0.0,15,372420307948565,40,21.0,317.02838134765625,0.7369999885559082,0,0.0,0.0,,,,,0,,5,,
Raw,9920634,9924443000000,,,-1291005709998577920,0.0,47.70205123350024,-18.421241111990444,13.303656384359792,7,16,0.0,15,372420319330724,46,20.0,-121.4073715209961,0.8299999833106995,0,0.0,0.0,,,,,0,,5,,
Raw,9920635,9924443000000,,,-1291005709998577920,0.0,47.70205123350024,-18.421241111990444,13.303656384359792,7,21,0.0,15,372420366959320,183,14.3,-216.6109619140625,6.515500068664551,0,0.0,0.0,,,,,0,,5,,
Raw,9920636,9924443000000,,,-1291005709998577920,0.0,47.70205123350024,-18.421241111990444,13.303656384359792,7,22,0.0,15,372420366314223,1076,14.0,370.78985595703125,21.515501022338867,0,0.0,0.0,,,,,0,,5,,
Raw,9920636,9924443000000,,,-1291005709998577920,0.0,47.70205123350024,-18.421241111990444,13.303656384359792,7,26,0.0,15,372420363418459,46,20.7,-240.45263671875,0.7910000085830688,0,0.0,0.0,,,,,0,,5,,
Raw,9920637,9924443000000,,,-1291005709998577920,0.0,47.70205123350024,-18.421241111990444,13.303656384359792,7,4,0.0,7183,372434356645701,69,18.4,313.23291015625,2.370500087738037,0,0.0,0.0,,,,,0,,6,,
Raw,9920637,9924443000000,,,-1291005709998577920,0.0,47.70205123350024,-18.421241111990444,13.303656384359792,7,9,0.0,7183,372434369413017,514,11.2,-115.23233032226562,13.397000312805176,0,0.0,0.0,,,,,0,,6,,
Raw,9920638,9924443000000,,,-1291005709998577920,0.0,47.70205123350024,-18.421241111990444,13.303656384359792,7,25,0.0,7183,372434350484054,11,33.4,-457.16046142578125,0.04990000277757645,0,0.0,0.0,,,,,0,,6,,
Raw,9920638,9924443000000,,,-1291005709998577920,0.0,47.70205123350024,-18.421241111990444,13.303656384359792,7,31,0.0,7183,372434360164231,86,17.5,332.58575439453125,3.190500020980835,0,0.0,0.0,,,,,0,,6,,
Fix,gps,22.925428,120.294686,46.555603,0.190000,9.648001,1606980417000
NMEA,$GPGSV,3,1,11,10,40,184,26,12,03,036,20,16,09,210,33,22,12,313,28*75,1606980416519
NMEA,$GPGSV,3,2,11,25,40,039,17,26,42,216,27,31,47,316,19,32,65,030,25*7E,1606980416519
NMEA,$GPGSV,3,3,11,20,10,164,,23,14,164,,29,23,105,*40,1606980416519
NMEA,$GLGSV,2,1,06,74,22,243,32,73,57,298,12,80,35,015,12,71,35,334,15*68,1606980416519
NMEA,$GLGSV,2,2,06,70,85,077,,69,24,146,*63,1606980416522
NMEA,$GAGSV,2,1,05,04,37,120,18,09,74,018,11,25,15,224,33,31,53,026,18*69,1606980416522
NMEA,$GAGSV,2,2,05,24,68,244,*57,1606980416522
NMEA,$PQGSV,1,1,03,193,61,143,14,194,69,045,16,195,23,144,15,0,5*6A,1606980416523
NMEA,$PQGSV,4,1,16,02,40,241,27,06,61,022,19,08,06,194,17,09,47,334,15,0,4*6A,1606980416523
NMEA,$PQGSV,4,2,16,10,42,208,21,13,13,216,21,16,61,015,20,21,60,305,14,0,4*62,1606980416523
NMEA,$PQGSV,4,3,16,22,57,161,14,26,34,262,21,01,51,129,,03,59,202,,0,4*6C,1606980416524
NMEA,$PQGSV,4,4,16,04,37,115,,07,67,192,,19,07,147,,29,10,113,,0,4*61,1606980416524
NMEA,$GNGSA,A,3,10,16,22,26,31,32,,,,,,,1.6,1.3,0.9,1*3C,1606980416525
