# 
# Header Description:
# 
# Version: v2.0.0.1 Platform: 8.0.0 Manufacturer: Sony Model: G8142
# 
# Raw,ElapsedRealtimeMillis,TimeNanos,LeapSecond,TimeUncertaintyNanos,FullBiasNanos,BiasNanos,BiasUncertaintyNanos,DriftNanosPerSecond,DriftUncertaintyNanosPerSecond,HardwareClockDiscontinuityCount,Svid,TimeOffsetNanos,State,ReceivedSvTimeNanos,ReceivedSvTimeUncertaintyNanos,Cn0DbHz,PseudorangeRateMetersPerSecond,PseudorangeRateUncertaintyMetersPerSecond,AccumulatedDeltaRangeState,AccumulatedDeltaRangeMeters,AccumulatedDeltaRangeUncertaintyMeters,CarrierFrequencyHz,CarrierCycles,CarrierPhase,CarrierPhaseUncertainty,MultipathIndicator,SnrInDb,ConstellationType,AgcDb,CarrierFrequencyHz
# 
# Fix,Provider,Latitude,Longitude,Altitude,Speed,Accuracy,(UTC)TimeInMs
# 
# Nav,Svid,Type,Status,MessageId,Sub-messageId,Data(Bytes)
# 
Fix,gps,22.925469,120.294585,59.511841,0.000000,9.648001,1606980871000
Raw,10374705,10378470000000,,,-1291005709979056128,0.0,46.161025238689035,-3.522522318674233,15.166112592750256,55,10,0.0,207,38070375347838,16,29.9,-387.9544982910156,0.2492000013589859,0,0.0,0.0,,,,,0,,3,,
Raw,10374705,10378470000000,,,-1291005709979056128,0.0,46.161025238689035,-3.522522318674233,15.166112592750256,55,11,0.0,3,7808249,31,23.6,-528.7369995117188,0.8769999742507935,0,0.0,0.0,,,,,0,,3,,
Raw,10374706,10378470000000,,,-1291005709979056128,0.0,46.161025238689035,-3.522522318674233,15.166112592750256,55,9,0.0,207,38070382480227,469,14.2,113.63414001464844,13.559500694274902,0,0.0,0.0,,,,,0,,3,,
Raw,10374706,10378470000000,,,-1291005709979056128,0.0,46.161025238689035,-3.522522318674233,15.166112592750256,55,5,0.0,207,38070374219190,1118,14.1,717.4441528320312,22.11250114440918,0,0.0,0.0,,,,,0,,3,,
Raw,10374706,10378470000000,,,-1291005709979056128,0.0,46.161025238689035,-3.522522318674233,15.166112592750256,55,10,0.0,15,372888375265101,35,22.3,598.835205078125,0.8089999556541443,0,0.0,0.0,,,,,0,,1,,
Raw,10374706,10378470000000,,,-1291005709979056128,0.0,46.161025238689035,-3.522522318674233,15.166112592750256,55,16,0.0,15,372888368033484,17,28.3,-718.5584106445312,0.5084999799728394,0,0.0,0.0,,,,,0,,1,,
Raw,10374706,10378470000000,,,-1291005709979056128,0.0,46.161025238689035,-3.522522318674233,15.166112592750256,55,22,0.0,15,372888367120926,17,28.0,-411.5959167480469,0.043800000101327896,0,0.0,0.0,,,,,0,,1,,
Raw,10374706,10378470000000,,,-1291005709979056128,0.0,46.161025238689035,-3.522522318674233,15.166112592750256,55,25,0.0,15,372888375709255,1108,13.3,558.9495849609375,21.869001388549805,0,0.0,0.0,,,,,0,,1,,
Raw,10374707,10378470000000,,,-1291005709979056128,0.0,46.161025238689035,-3.522522318674233,15.166112592750256,55,26,0.0,15,372888377872613,16,29.6,-445.7050476074219,0.05220000073313713,0,0.0,0.0,,,,,0,,1,,
Raw,10374707,10378470000000,,,-1291005709979056128,0.0,46.161025238689035,-3.522522318674233,15.166112592750256,55,31,0.0,15,372888378020581,572,19.6,-4.41481351852417,2.743499994277954,0,0.0,0.0,,,,,0,,1,,
Raw,10374707,10378470000000,,,-1291005709979056128,0.0,46.161025238689035,-3.522522318674233,15.166112592750256,55,32,0.0,15,372888380560927,21,26.5,-100.17059326171875,0.5264999866485596,0,0.0,0.0,,,,,0,,1,,
Raw,10374707,10378470000000,,,-1291005709979056128,0.0,46.161025238689035,-3.522522318674233,15.166112592750256,55,1,0.0,783,372874325074050,1215,20.6,7.307102203369141,23.315000534057617,0,0.0,0.0,,,,,0,,5,,
Raw,10374707,10378470000000,,,-1291005709979056128,0.0,46.161025238689035,-3.522522318674233,15.166112592750256,55,2,0.0,783,372874324111768,21,27.4,0.18243750929832458,1.2335000038146973,0,0.0,0.0,,,,,0,,5,,
Raw,10374707,10378470000000,,,-1291005709979056128,0.0,46.161025238689035,-3.522522318674233,15.166112592750256,55,5,0.0,783,372874315950173,21,27.0,5.511533737182617,1.2050000429153442,0,0.0,0.0,,,,,0,,5,,
Raw,10374707,10378470000000,,,-1291005709979056128,0.0,46.161025238689035,-3.522522318674233,15.166112592750256,55,6,0.0,15,372874327308977,31,23.0,-125.7858657836914,0.6270000338554382,0,0.0,0.0,,,,,0,,5,,
Raw,10374708,10378470000000,,,-1291005709979056128,0.0,46.161025238689035,-3.522522318674233,15.166112592750256,55,9,0.0,15,372874325391945,1937,12.8,-121.72423553466797,29.114002227783203,0,0.0,0.0,,,,,0,,5,,
Raw,10374708,10378470000000,,,-1291005709979056128,0.0,46.161025238689035,-3.522522318674233,15.166112592750256,55,10,0.0,15,372874323220520,148,14.6,-145.08583068847656,5.011000156402588,0,0.0,0.0,,,,,0,,5,,
Raw,10374708,10378470000000,,,-1291005709979056128,0.0,46.161025238689035,-3.522522318674233,15.166112592750256,55,13,0.0,15,372874314943974,21,26.8,315.8953857421875,0.47749999165534973,0,0.0,0.0,,,,,0,,5,,
Raw,10374708,10378470000000,,,-1291005709979056128,0.0,46.161025238689035,-3.522522318674233,15.166112592750256,55,16,0.0,15,372874326984405,46,20.3,-115.87663269042969,0.7954999804496765,0,0.0,0.0,,,,,0,,5,,
Raw,10374708,10378470000000,,,-1291005709979056128,0.0,46.161025238689035,-3.522522318674233,15.166112592750256,55,21,0.0,15,372874374729921,474,16.3,-168.1113739013672,13.847500801086426,0,0.0,0.0,,,,,0,,5,,
Raw,10374708,10378470000000,,,-1291005709979056128,0.0,46.161025238689035,-3.522522318674233,15.166112592750256,55,22,0.0,15,372874373205229,70,17.6,406.7972717285156,1.0160000324249268,0,0.0,0.0,,,,,0,,5,,
Raw,10374708,10378470000000,,,-1291005709979056128,0.0,46.161025238689035,-3.522522318674233,15.166112592750256,55,26,0.0,15,372874371237206,14,30.5,-213.0945587158203,0.04230000078678131,0,0.0,0.0,,,,,0,,5,,
Raw,10374709,10378470000000,,,-1291005709979056128,0.0,46.161025238689035,-3.522522318674233,15.166112592750256,55,25,0.0,7183,372888358632290,16,29.2,-431.8049011230469,0.3935000002384186,0,0.0,0.0,,,,,0,,6,,
Raw,10374709,10378470000000,,,-1291005709979056128,0.0,46.161025238689035,-3.522522318674233,15.166112592750256,55,31,0.0,7183,372888367118503,573,20.0,358.6084289550781,15.755001068115234,0,0.0,0.0,,,,,0,,6,,
NMEA,$GPGSV,3,1,11,10,36,182,22,16,12,212,28,22,14,310,28,25,37,037,13*73,1606980870514
NMEA,$GPGSV,3,2,11,26,46,219,30,31,48,322,20,32,67,040,27,12,00,000,*7A,1606980870514
NMEA,$GPGSV,3,3,11,20,07,164,,23,11,164,,29,24,102,*43,1606980870515
NMEA,$GLGSV,2,1,07,74,24,247,30,75,00,000,24,73,56,306,14,69,21,147,14*6E,1606980870515
NMEA,$GLGSV,2,2,07,70,83,130,,80,31,018,,71,39,333,*50,1606980870515
NMEA,$GAGSV,2,1,06,25,17,227,29,31,50,026,20,04,35,125,,05,30,323,*61,1606980870515
NMEA,$GAGSV,2,2,06,09,77,026,,24,69,254,*69,1606980870516
NMEA,$PQGSV,1,1,03,193,61,146,18,194,68,043,21,195,25,144,16,0,5*65,1606980870516
NMEA,$PQGSV,4,1,16,01,51,129,21,02,40,241,27,05,00,000,27,06,63,023,23,0,4*62,1606980870516
NMEA,$PQGSV,4,2,16,09,48,336,13,10,42,210,15,13,11,215,27,16,61,016,20,0,4*6F,1606980870516
NMEA,$PQGSV,4,3,16,21,63,299,16,22,54,163,18,26,35,267,31,03,59,202,,0,4*68,1606980870516
NMEA,$PQGSV,4,4,16,04,37,115,,07,69,195,,08,05,192,,19,04,149,,0,4*6B,1606980870516
NMEA,$GNGSA,A,3,10,16,22,26,31,32,,,,,,,1.6,1.3,0.9,1*3C,1606980870517
NMEA,$GNGSA,A,2,74,,,,,,,,,,,,1.6,1.3,0.9,2*3C,1606980870517
NMEA,$GNGSA,A,2,25,,,,,,,,,,,,1.6,1.3,0.9,3*39,1606980870517
NMEA,$PQGSA,A,2,13,26,,,,,,,,,,,1.6,1.3,0.9,4*37,1606980870517
NMEA,$GNVTG,,T,,M,0.0,N,0.0,K,A*3D,1606980870517
NMEA,$GNRMC,073431.00,A,2255.528162,N,12017.675078,E,0.0,,031220,2.8,W,A*19,1606980870517
NMEA,$GNGGA,073431.00,2255.528162,N,12017.675078,E,1,10,1.3,42.0,M,17.5,M,,*42,1606980870517
Fix,gps,22.925468,120.294583,59.669922,0.000000,9.648001,1606980872000
Raw,10375600,10379470000000,,,-1291005709979056128,0.0,46.41118721337989,3.6601003776386323,14.260447531896665,55,10,0.0,207,38071375349190,16,29.0,-388.17132568359375,0.2492000013589859,0,0.0,0.0,,,,,0,,3,,
Raw,10375600,10379470000000,,,-1291005709979056128,0.0,46.41118721337989,3.6601003776386323,14.260447531896665,55,11,0.0,3,7810202,27,24.3,-529.3556518554688,0.8270000219345093,0,0.0,0.0,,,,,0,,3,,
Raw,10375600,10379470000000,,,-1291005709979056128,0.0,46.41118721337989,3.6601003776386323,14.260447531896665,55,9,0.0,207,38071382479848,559,14.2,113.63414001464844,15.059500694274902,0,0.0,0.0,,,,,0,,3,,
Raw,10375600,10379470000000,,,-1291005709979056128,0.0,46.41118721337989,3.6601003776386323,14.260447531896665,55,5,0.0,207,38071374216797,1265,14.1,717.4441528320312,23.61250114440918,0,0.0,0.0,,,,,0,,3,,
Raw,10375601,10379470000000,,,-1291005709979056128,0.0,46.41118721337989,3.6601003776386323,14.260447531896665,55,10,0.0,15,372889375263134,40,21.9,598.7685546875,0.8089999556541443,0,0.0,0.0,,,,,0,,1,,
Raw,10375601,10379470000000,,,-1291005709979056128,0.0,46.41118721337989,3.6601003776386323,14.260447531896665,55,16,0.0,15,372889368035885,21,26.8,-718.8753051757812,0.12319999933242798,0,0.0,0.0,,,,,0,,1,,
Raw,10375601,10379470000000,,,-1291005709979056128,0.0,46.41118721337989,3.6601003776386323,14.260447531896665,55,22,0.0,15,372889367122295,24,25.6,-411.7890930175781,0.392300009727478,0,0.0,0.0,,,,,0,,1,,
Raw,10375601,10379470000000,,,-1291005709979056128,0.0,46.41118721337989,3.6601003776386323,14.260447531896665,55,25,0.0,15,372889375707391,1254,13.3,558.9495849609375,23.369001388549805,0,0.0,0.0,,,,,0,,1,,
Raw,10375601,10379470000000,,,-1291005709979056128,0.0,46.41118721337989,3.6601003776386323,14.260447531896665,55,26,0.0,15,372889377874089,17,28.8,-445.900146484375,0.058800000697374344,0,0.0,0.0,,,,,0,,1,,
Raw,10375602,10379470000000,,,-1291005709979056128,0.0,46.41118721337989,3.6601003776386323,14.260447531896665,55,31,0.0,15,372889378020604,581,19.9,-3.9200496673583984,3.493499994277954,0,0.0,0.0,,,,,0,,1,,
Raw,10375602,10379470000000,,,-1291005709979056128,0.0,46.41118721337989,3.6601003776386323,14.260447531896665,55,32,0.0,15,372889380561228,24,25.6,-100.49482727050781,0.38179999589920044,0,0.0,0.0,,,,,0,,1,,
Raw,10375602,10379470000000,,,-1291005709979056128,0.0,46.41118721337989,3.6601003776386323,14.260447531896665,55,1,0.0,783,372875325074025,1373,20.6,7.307102203369141,24.815000534057617,0,0.0,0.0,,,,,0,,5,,
Raw,10375602,10379470000000,,,-1291005709979056128,0.0,46.41118721337989,3.6601003776386323,14.260447531896665,55,2,0.0,783,372875324111743,17,28.0,4.8874053955078125,0.44350001215934753,0,0.0,0.0,,,,,0,,5,,
Raw,10375602,10379470000000,,,-1291005709979056128,0.0,46.41118721337989,3.6601003776386323,14.260447531896665,55,5,0.0,783,372875315950149,17,28.0,9.851625442504883,0.4150000214576721,0,0.0,0.0,,,,,0,,5,,
Raw,10375603,10379470000000,,,-1291005709979056128,0.0,46.41118721337989,3.6601003776386323,14.260447531896665,55,6,0.0,15,372875327309389,40,21.6,-126.44840240478516,0.7369999885559082,0,0.0,0.0,,,,,0,,5,,
Raw,10375604,10379470000000,,,-1291005709979056128,0.0,46.41118721337989,3.6601003776386323,14.260447531896665,55,9,0.0,15,372875325392351,2132,12.8,-121.72423553466797,30.614002227783203,0,0.0,0.0,,,,,0,,5,,
Raw,10375604,10379470000000,,,-1291005709979056128,0.0,46.41118721337989,3.6601003776386323,14.260447531896665,55,10,0.0,15,372875323220997,115,14.3,-146.6605682373047,2.761000156402588,0,0.0,0.0,,,,,0,,5,,
Raw,10375604,10379470000000,,,-1291005709979056128,0.0,46.41118721337989,3.6601003776386323,14.260447531896665,55,13,0.0,15,372875314942897,21,26.5,315.38525390625,0.13220000267028809,0,0.0,0.0,,,,,0,,5,,
Raw,10375605,10379470000000,,,-1291005709979056128,0.0,46.41118721337989,3.6601003776386323,14.260447531896665,55,16,0.0,15,372875326984797,70,17.8,-115.3773193359375,0.9254999756813049,0,0.0,0.0,,,,,0,,5,,
Raw,10375605,10379470000000,,,-1291005709979056128,0.0,46.41118721337989,3.6601003776386323,14.260447531896665,55,21,0.0,15,372875374730482,568,16.3,-168.1113739013672,15.347500801086426,0,0.0,0.0,,,,,0,,5,,
Raw,10375606,10379470000000,,,-1291005709979056128,0.0,46.41118721337989,3.6601003776386323,14.260447531896665,55,22,0.0,15,372875373203872,78,17.6,406.7972717285156,2.5160000324249268,0,0.0,0.0,,,,,0,,5,,
Raw,10375606,10379470000000,,,-1291005709979056128,0.0,46.41118721337989,3.6601003776386323,14.260447531896665,55,26,0.0,15,372875371237912,14,30.7,-213.341552734375,0.04230000078678131,0,0.0,0.0,,,,,0,,5,,
Raw,10375606,10379470000000,,,-1291005709979056128,0.0,46.41118721337989,3.6601003776386323,14.260447531896665,55,25,0.0,7183,372889358633733,16,29.1,-431.9476318359375,0.3935000002384186,0,0.0,0.0,,,,,0,,6,,
Raw,10375607,10379470000000,,,-1291005709979056128,0.0,46.41118721337989,3.6601003776386323,14.260447531896665,55,31,0.0,7183,372889367117307,681,20.0,358.6084289550781,17.255001068115234,0,0.0,0.0,,,,,0,,6,,
NMEA,$GPGSV,3,1,11,10,36,182,22,16,12,212,27,22,14,310,26,25,37,037,13*72,1606980871516
NMEA,$GPGSV,3,2,11,26,46,219,29,31,48,322,20,32,67,040,26,12,00,000,*73,1606980871516
NMEA,$GPGSV,3,3,11,20,07,164,,23,11,164,,29,24,102,*43,1606980871516
NMEA,$GLGSV,2,1,07,74,24,247,29,75,00,000,24,73,56,306,14,69,21,147,14*66,1606980871518
NMEA,$GLGSV,2,2,07,70,83,130,,80,31,018,,71,39,333,*50,1606980871519
NMEA,$GAGSV,2,1,06,25,17,227,29,31,50,026,20,04,35,125,,05,30,323,*61,1606980871519
NMEA,$GAGSV,2,2,06,09,77,026,,24,69,254,*69,1606980871520
NMEA,$PQGSV,1,1,03,193,61,146,18,194,68,043,20,195,25,144,17,0,5*65,1606980871520
NMEA,$PQGSV,4,1,16,01,51,129,21,02,40,241,28,05,00,000,28,06,63,023,22,0,4*63,1606980871521
NMEA,$PQGSV,4,2,16,09,48,336,13,10,42,210,14,13,11,215,27,16,61,016,18,0,4*65,1606980871521
NMEA,$PQGSV,4,3,16,21,63,299,16,22,54,163,18,26,35,267,31,03,59,202,,0,4*68,1606980871523
NMEA,$PQGSV,4,4,16,04,37,115,,07,69,195,,08,05,192,,19,04,149,,0,4*6B,1606980871523
NMEA,$GNGSA,A,3,10,16,22,26,31,32,,,,,,,1.6,1.3,0.9,1*3C,1606980871525
NMEA,$GNGSA,A,2,74,,,,,,,,,,,,1.6,1.3,0.9,2*3C,1606980871526
NMEA,$GNGSA,A,2,25,,,,,,,,,,,,1.6,1.3,0.9,3*39,1606980871526
NMEA,$PQGSA,A,2,13,26,,,,,,,,,,,1.6,1.3,0.9,4*37,1606980871527
NMEA,$GNVTG,,T,,M,0.0,N,0.0,K,A*3D,1606980871527
NMEA,$GNRMC,073432.00,A,2255.528065,N,12017.674983,E,0.0,,031220,2.8,W,A*10,1606980871527
NMEA,$GNGGA,073432.00,2255.528065,N,12017.674983,E,1,10,1.3,42.2,M,17.5,M,,*49,1606980871528
Fix,gps,22.925468,120.294581,59.673157,0.000000,9.648001,1606980873000
NMEA,$GPGSV,3,1,11,10,36,182,21,16,12,212,27,22,14,310,23,25,37,037,13*74,1606980872515
Raw,10376603,10380470000000,,,-1291005709979056128,0.0,43.705818825401366,3.018129678172064,11.801915565753,55,10,0.0,207,38072375350430,16,29.3,-386.86346435546875,0.6389999985694885,0,0.0,0.0,,,,,0,,3,,
Raw,10376604,10380470000000,,,-1291005709979056128,0.0,43.705818825401366,3.018129678172064,11.801915565753,55,11,0.0,3,7811885,24,25.7,-528.1746215820312,0.7870000004768372,0,0.0,0.0,,,,,0,,3,,
Raw,10376604,10380470000000,,,-1291005709979056128,0.0,43.705818825401366,3.018129678172064,11.801915565753,55,9,0.0,207,38072382479469,659,14.2,113.63414001464844,16.55950164794922,0,0.0,0.0,,,,,0,,3,,
Raw,10376604,10380470000000,,,-1291005709979056128,0.0,43.705818825401366,3.018129678172064,11.801915565753,55,5,0.0,207,38072374214404,1423,14.1,717.4441528320312,25.11250114440918,0,0.0,0.0,,,,,0,,3,,
Raw,10376604,10380470000000,,,-1291005709979056128,0.0,43.705818825401366,3.018129678172064,11.801915565753,55,10,0.0,15,372890375261083,40,21.0,599.9103393554688,0.8689999580383301,0,0.0,0.0,,,,,0,,1,,
Raw,10376604,10380470000000,,,-1291005709979056128,0.0,43.705818825401366,3.018129678172064,11.801915565753,55,16,0.0,15,372890368038257,21,26.5,-717.5337524414062,0.12319999933242798,0,0.0,0.0,,,,,0,,1,,
Raw,10376604,10380470000000,,,-1291005709979056128,0.0,43.705818825401366,3.018129678172064,11.801915565753,55,22,0.0,15,372890367123739,31,23.0,-410.48248291015625,0.7369999885559082,0,0.0,0.0,,,,,0,,1,,
Raw,10376605,10380470000000,,,-1291005709979056128,0.0,43.705818825401366,3.018129678172064,11.801915565753,55,25,0.0,15,372890375705526,1410,13.3,558.9495849609375,24.869001388549805,0,0.0,0.0,,,,,0,,1,,
Raw,10376605,10380470000000,,,-1291005709979056128,0.0,43.705818825401366,3.018129678172064,11.801915565753,55,26,0.0,15,372890377875612,17,28.7,-444.4213562011719,0.4819999933242798,0,0.0,0.0,,,,,0,,1,,
Raw,10376605,10380470000000,,,-1291005709979056128,0.0,43.705818825401366,3.018129678172064,11.801915565753,55,31,0.0,15,372890378020604,593,19.6,-3.87247633934021,4.243500232696533,0,0.0,0.0,,,,,0,,1,,
Raw,10376605,10380470000000,,,-1291005709979056128,0.0,43.705818825401366,3.018129678172064,11.801915565753,55,32,0.0,15,372890380561531,21,26.1,-99.16488647460938,0.1112000048160553,0,0.0,0.0,,,,,0,,1,,
Raw,10376605,10380470000000,,,-1291005709979056128,0.0,43.705818825401366,3.018129678172064,11.801915565753,55,1,0.0,783,372876325074001,1541,20.6,7.307102203369141,26.315000534057617,0,0.0,0.0,,,,,0,,5,,
Raw,10376606,10380470000000,,,-1291005709979056128,0.0,43.705818825401366,3.018129678172064,11.801915565753,55,2,0.0,783,372876324111724,17,28.5,5.434717655181885,0.44350001215934753,0,0.0,0.0,,,,,0,,5,,
Raw,10376606,10380470000000,,,-1291005709979056128,0.0,43.705818825401366,3.018129678172064,11.801915565753,55,5,0.0,783,372876315950126,17,28.5,7.53754997253418,0.4150000214576721,0,0.0,0.0,,,,,0,,5,,
Raw,10376606,10380470000000,,,-1291005709979056128,0.0,43.705818825401366,3.018129678172064,11.801915565753,55,6,0.0,15,372876327309842,46,20.6,-125.3921890258789,0.796999990940094,0,0.0,0.0,,,,,0,,5,,
Raw,10376606,10380470000000,,,-1291005709979056128,0.0,43.705818825401366,3.018129678172064,11.801915565753,55,9,0.0,15,372876325392757,2337,12.8,-121.72423553466797,32.1140022277832,0,0.0,0.0,,,,,0,,5,,
Raw,10376607,10380470000000,,,-1291005709979056128,0.0,43.705818825401366,3.018129678172064,11.801915565753,55,10,0.0,15,372876323221486,135,14.3,-146.6605682373047,4.261000156402588,0,0.0,0.0,,,,,0,,5,,
Raw,10376607,10380470000000,,,-1291005709979056128,0.0,43.705818825401366,3.018129678172064,11.801915565753,55,13,0.0,15,372876314941856,19,27.6,316.510009765625,0.062300004065036774,0,0.0,0.0,,,,,0,,5,,
Raw,10376607,10380470000000,,,-1291005709979056128,0.0,43.705818825401366,3.018129678172064,11.801915565753,55,16,0.0,15,372876326985190,70,17.1,-113.46653747558594,1.005500078201294,0,0.0,0.0,,,,,0,,5,,
Raw,10376607,10380470000000,,,-1291005709979056128,0.0,43.705818825401366,3.018129678172064,11.801915565753,55,21,0.0,15,372876374731043,672,16.3,-168.1113739013672,16.84749984741211,0,0.0,0.0,,,,,0,,5,,
Raw,10376607,10380470000000,,,-1291005709979056128,0.0,43.705818825401366,3.018129678172064,11.801915565753,55,22,0.0,15,372876373202478,84,16.3,409.32257080078125,1.8459999561309814,0,0.0,0.0,,,,,0,,5,,
Raw,10376607,10380470000000,,,-1291005709979056128,0.0,43.705818825401366,3.018129678172064,11.801915565753,55,26,0.0,15,372876371238619,14,30.3,-212.14193725585938,0.04230000078678131,0,0.0,0.0,,,,,0,,5,,
Raw,10376608,10380470000000,,,-1291005709979056128,0.0,43.705818825401366,3.018129678172064,11.801915565753,55,25,0.0,7183,372890358635157,16,29.8,-431.3736877441406,0.053700003772974014,0,0.0,0.0,,,,,0,,6,,
Raw,10376608,10380470000000,,,-1291005709979056128,0.0,43.705818825401366,3.018129678172064,11.801915565753,55,31,0.0,7183,372890367116111,798,20.0,358.6084289550781,18.755001068115234,0,0.0,0.0,,,,,0,,6,,
NMEA,$GPGSV,3,2,11,26,46,219,29,31,48,322,20,32,67,040,26,12,00,000,*73,1606980872515
NMEA,$GPGSV,3,3,11,20,07,164,,23,11,164,,29,24,102,*43,1606980872515
NMEA,$GLGSV,2,1,07,74,24,247,29,75,00,000,26,73,56,306,14,69,21,147,14*64,1606980872515
NMEA,$GLGSV,2,2,07,70,83,130,,80,31,018,,71,39,333,*50,1606980872516
NMEA,$GAGSV,2,1,06,25,17,227,30,31,50,026,20,04,35,125,,05,30,323,*69,1606980872516
NMEA,$GAGSV,2,2,06,09,77,026,,24,69,254,*69,1606980872516
NMEA,$PQGSV,1,1,03,193,61,146,18,194,68,043,21,195,25,144,17,0,5*64,1606980872516
NMEA,$PQGSV,4,1,16,01,51,129,21,02,40,241,29,05,00,000,29,06,63,023,21,0,4*60,1606980872518
NMEA,$PQGSV,4,2,16,09,48,336,13,10,42,210,14,13,11,215,28,16,61,016,17,0,4*65,1606980872518
NMEA,$PQGSV,4,3,16,21,63,299,16,22,54,163,16,26,35,267,30,03,59,202,,0,4*67,1606980872518
NMEA,$PQGSV,4,4,16,04,37,115,,07,69,195,,08,05,192,,19,04,149,,0,4*6B,1606980872519
NMEA,$GNGSA,A,3,10,16,22,26,31,32,,,,,,,1.6,1.3,0.9,1*3C,1606980872520
NMEA,$GNGSA,A,2,74,,,,,,,,,,,,1.6,1.3,0.9,2*3C,1606980872520
NMEA,$GNGSA,A,2,25,,,,,,,,,,,,1.6,1.3,0.9,3*39,1606980872521
NMEA,$PQGSA,A,2,13,26,,,,,,,,,,,1.6,1.3,0.9,4*37,1606980872521
NMEA,$GNVTG,,T,,M,0.0,N,0.0,K,A*3D,1606980872521
NMEA,$GNRMC,073433.00,A,2255.528063,N,12017.674852,E,0.0,,031220,2.8,W,A*1A,1606980872522
NMEA,$GNGGA,073433.00,2255.528063,N,12017.674852,E,1,10,1.3,42.2,M,17.5,M,,*43,1606980872525
Raw,10377679,10381470000000,,,-1291005709979056128,0.0,43.991676648147404,6.64488540846398,13.58043805210707,55,10,0.0,207,38073375351697,17,28.4,-386.41558837890625,0.2558000087738037,0,0.0,0.0,,,,,0,,3,,
Raw,10377679,10381470000000,,,-1291005709979056128,0.0,43.991676648147404,6.64488540846398,13.58043805210707,55,11,0.0,3,7813655,27,24.4,-527.3310546875,0.8270000219345093,0,0.0,0.0,,,,,0,,3,,
Raw,10377679,10381470000000,,,-1291005709979056128,0.0,43.991676648147404,6.64488540846398,13.58043805210707,55,9,0.0,207,38073382479172,268,12.1,110.60041046142578,8.549500465393066,0,0.0,0.0,,,,,0,,3,,
Raw,10377679,10381470000000,,,-1291005709979056128,0.0,43.991676648147404,6.64488540846398,13.58043805210707,55,5,0.0,207,38073374212011,1590,14.1,717.4441528320312,26.61250114440918,0,0.0,0.0,,,,,0,,3,,
Raw,10377680,10381470000000,,,-1291005709979056128,0.0,43.991676648147404,6.64488540846398,13.58043805210707,55,7,0.0,207,38073379116690,1032,15.0,-616.1128540039062,5.100000381469727,0,0.0,0.0,,,,,0,,3,,
Raw,10377680,10381470000000,,,-1291005709979056128,0.0,43.991676648147404,6.64488540846398,13.58043805210707,55,10,0.0,15,372891375259243,40,21.0,600.3480224609375,0.8689999580383301,0,0.0,0.0,,,,,0,,1,,
Raw,10377680,10381470000000,,,-1291005709979056128,0.0,43.991676648147404,6.64488540846398,13.58043805210707,55,16,0.0,15,372891368040663,24,25.9,-717.1114501953125,0.3937999904155731,0,0.0,0.0,,,,,0,,1,,
Raw,10377680,10381470000000,,,-1291005709979056128,0.0,43.991676648147404,6.64488540846398,13.58043805210707,55,22,0.0,15,372891367125075,27,24.1,-409.50244140625,0.6769999861717224,0,0.0,0.0,,,,,0,,1,,
Raw,10377680,10381470000000,,,-1291005709979056128,0.0,43.991676648147404,6.64488540846398,13.58043805210707,55,25,0.0,15,372891375703662,1575,13.3,558.9495849609375,26.369001388549805,0,0.0,0.0,,,,,0,,1,,
Raw,10377680,10381470000000,,,-1291005709979056128,0.0,43.991676648147404,6.64488540846398,13.58043805210707,55,26,0.0,15,372891377877071,17,28.7,-444.1206970214844,0.058800000697374344,0,0.0,0.0,,,,,0,,1,,
Raw,10377680,10381470000000,,,-1291005709979056128,0.0,43.991676648147404,6.64488540846398,13.58043805210707,55,31,0.0,15,372891378020625,46,20.1,-1.198850154876709,0.9164999723434448,0,0.0,0.0,,,,,0,,1,,
Raw,10377681,10381470000000,,,-1291005709979056128,0.0,43.991676648147404,6.64488540846398,13.58043805210707,55,32,0.0,15,372891380561918,24,25.1,-98.76268005371094,0.38179999589920044,0,0.0,0.0,,,,,0,,1,,
Raw,10377681,10381470000000,,,-1291005709979056128,0.0,43.991676648147404,6.64488540846398,13.58043805210707,55,1,0.0,783,372877325073976,1719,20.6,7.307102203369141,27.815000534057617,0,0.0,0.0,,,,,0,,5,,
Raw,10377681,10381470000000,,,-1291005709979056128,0.0,43.991676648147404,6.64488540846398,13.58043805210707,55,2,0.0,783,372877324111725,16,29.0,6.00123405456543,0.41350001096725464,0,0.0,0.0,,,,,0,,5,,
Raw,10377681,10381470000000,,,-1291005709979056128,0.0,43.991676648147404,6.64488540846398,13.58043805210707,55,5,0.0,783,372877315950107,17,28.0,7.527948379516602,0.4150000214576721,0,0.0,0.0,,,,,0,,5,,
Raw,10377681,10381470000000,,,-1291005709979056128,0.0,43.991676648147404,6.64488540846398,13.58043805210707,55,6,0.0,15,372877327310227,53,19.9,-123.79826354980469,0.796999990940094,0,0.0,0.0,,,,,0,,5,,
Raw,10377681,10381470000000,,,-1291005709979056128,0.0,43.991676648147404,6.64488540846398,13.58043805210707,55,9,0.0,15,372877325393163,2552,12.8,-121.72423553466797,33.6140022277832,0,0.0,0.0,,,,,0,,5,,
Raw,10377681,10381470000000,,,-1291005709979056128,0.0,43.991676648147404,6.64488540846398,13.58043805210707,55,10,0.0,15,372877323221975,164,14.3,-146.6605682373047,5.761000156402588,0,0.0,0.0,,,,,0,,5,,
Raw,10377682,10381470000000,,,-1291005709979056128,0.0,43.991676648147404,6.64488540846398,13.58043805210707,55,13,0.0,15,372877314940801,19,27.1,316.7152099609375,0.062300004065036774,0,0.0,0.0,,,,,0,,5,,
Raw,10377682,10381470000000,,,-1291005709979056128,0.0,43.991676648147404,6.64488540846398,13.58043805210707,55,16,0.0,15,372877326985475,80,16.8,-117.08647918701172,1.005500078201294,0,0.0,0.0,,,,,0,,5,,
Raw,10377682,10381470000000,,,-1291005709979056128,0.0,43.991676648147404,6.64488540846398,13.58043805210707,55,21,0.0,15,372877374731603,786,16.3,-168.1113739013672,18.34749984741211,0,0.0,0.0,,,,,0,,5,,
Raw,10377682,10381470000000,,,-1291005709979056128,0.0,43.991676648147404,6.64488540846398,13.58043805210707,55,22,0.0,15,372877373201112,97,16.3,409.32257080078125,3.3459999561309814,0,0.0,0.0,,,,,0,,5,,
Raw,10377682,10381470000000,,,-1291005709979056128,0.0,43.991676648147404,6.64488540846398,13.58043805210707,55,26,0.0,15,372877371239323,13,31.4,-211.65956115722656,0.04170000180602074,0,0.0,0.0,,,,,0,,5,,
Raw,10377683,10381470000000,,,-1291005709979056128,0.0,43.991676648147404,6.64488540846398,13.58043805210707,55,25,0.0,7183,372891358636613,16,29.3,-431.2867126464844,0.053700003772974014,0,0.0,0.0,,,,,0,,6,,
Raw,10377683,10381470000000,,,-1291005709979056128,0.0,43.991676648147404,6.64488540846398,13.58043805210707,55,31,0.0,7183,372891367114915,926,20.0,358.6084289550781,20.255001068115234,0,0.0,0.0,,,,,0,,6,,
Fix,gps,22.925468,120.294582,59.407349,0.000000,9.648001,1606980874000
NMEA,$GPGSV,3,1,11,10,36,182,21,16,12,212,26,22,14,310,24,25,37,037,13*72,1606980873531
NMEA,$GPGSV,3,2,11,26,46,219,29,31,48,322,20,32,67,040,25,12,00,000,*70,1606980873531
NMEA,$GPGSV,3,3,11,20,07,164,,23,11,164,,29,24,102,*43,1606980873532
NMEA,$GLGSV,2,1,07,74,24,247,28,75,00,000,24,73,56,306,12,69,21,147,14*61,1606980873533
NMEA,$GLGSV,2,2,07,71,39,333,15,70,83,130,,80,31,018,*54,1606980873541
NMEA,$GAGSV,2,1,06,25,17,227,29,31,50,026,20,04,35,125,,05,30,323,*61,1606980873542
NMEA,$GAGSV,2,2,06,09,77,026,,24,69,254,*69,1606980873543
NMEA,$PQGSV,1,1,03,193,61,146,18,194,68,043,20,195,25,144,17,0,5*65,1606980873544
NMEA,$PQGSV,4,1,16,01,51,129,21,02,40,241,29,05,00,000,28,06,63,023,20,0,4*60,1606980873544
NMEA,$PQGSV,4,2,16,09,48,336,13,10,42,210,14,13,11,215,27,16,61,016,17,0,4*6A,1606980873545
NMEA,$PQGSV,4,3,16,21,63,299,16,22,54,163,16,26,35,267,31,03,59,202,,0,4*66,1606980873546
NMEA,$PQGSV,4,4,16,04,37,115,,07,69,195,,08,05,192,,19,04,149,,0,4*6B,1606980873546
NMEA,$GNGSA,A,3,10,16,22,26,31,32,,,,,,,1.6,1.3,0.9,1*3C,1606980873547
NMEA,$GNGSA,A,2,74,,,,,,,,,,,,1.6,1.3,0.9,2*3C,1606980873547
NMEA,$GNGSA,A,2,25,,,,,,,,,,,,1.6,1.3,0.9,3*39,1606980873547
NMEA,$PQGSA,A,2,13,26,,,,,,,,,,,1.6,1.3,0.9,4*37,1606980873547
NMEA,$GNVTG,,T,,M,0.0,N,0.0,K,A*3D,1606980873547
NMEA,$GNRMC,073434.00,A,2255.528075,N,12017.674930,E,0.0,,031220,2.8,W,A*1F,1606980873548
NMEA,$GNGGA,073434.00,2255.528075,N,12017.674930,E,1,10,1.3,41.9,M,17.5,M,,*4E,1606980873548
Fix,gps,22.925468,120.294583,59.475342,0.000000,9.648001,1606980875000
Raw,10378625,10382470000000,,,-1291005709979056128,0.0,49.43898966303095,7.780351441002325,17.43751148646855,55,10,0.0,207,38074375353040,16,29.4,-385.41851806640625,0.2492000013589859,0,0.0,0.0,,,,,0,,3,,
Raw,10378626,10382470000000,,,-1291005709979056128,0.0,49.43898966303095,7.780351441002325,17.43751148646855,55,11,0.0,3,7815358,24,25.0,-526.1312866210938,0.7870000004768372,0,0.0,0.0,,,,,0,,3,,
Raw,10378626,10382470000000,,,-1291005709979056128,0.0,49.43898966303095,7.780351441002325,17.43751148646855,55,9,0.0,207,38074382478803,324,12.1,110.60041046142578,10.049500465393066,0,0.0,0.0,,,,,0,,3,,
Raw,10378626,10382470000000,,,-1291005709979056128,0.0,49.43898966303095,7.780351441002325,17.43751148646855,55,5,0.0,207,38074374209617,1767,14.1,717.4441528320312,28.11250114440918,0,0.0,0.0,,,,,0,,3,,
Raw,10378627,10382470000000,,,-1291005709979056128,0.0,49.43898966303095,7.780351441002325,17.43751148646855,55,7,0.0,207,38074379118731,1048,15.2,-615.6084594726562,5.850000381469727,0,0.0,0.0,,,,,0,,3,,
Raw,10378627,10382470000000,,,-1291005709979056128,0.0,49.43898966303095,7.780351441002325,17.43751148646855,55,10,0.0,15,372892375257125,70,17.9,600.7761840820312,1.0989999771118164,0,0.0,0.0,,,,,0,,1,,
Raw,10378627,10382470000000,,,-1291005709979056128,0.0,49.43898966303095,7.780351441002325,17.43751148646855,55,16,0.0,15,372892368043053,19,27.1,-716.1759033203125,0.053300000727176666,0,0.0,0.0,,,,,0,,1,,
Raw,10378627,10382470000000,,,-1291005709979056128,0.0,49.43898966303095,7.780351441002325,17.43751148646855,55,22,0.0,15,372892367126404,24,25.0,-408.8915710449219,0.392300009727478,0,0.0,0.0,,,,,0,,1,,
Raw,10378627,10382470000000,,,-1291005709979056128,0.0,49.43898966303095,7.780351441002325,17.43751148646855,55,25,0.0,15,372892375701797,1751,13.3,558.9495849609375,27.869001388549805,0,0.0,0.0,,,,,0,,1,,
Raw,10378628,10382470000000,,,-1291005709979056128,0.0,49.43898966303095,7.780351441002325,17.43751148646855,55,26,0.0,15,372892377878543,17,28.6,-443.13360595703125,0.058800000697374344,0,0.0,0.0,,,,,0,,1,,
Raw,10378628,10382470000000,,,-1291005709979056128,0.0,49.43898966303095,7.780351441002325,17.43751148646855,55,31,0.0,15,372892378020554,46,20.2,-0.9514683485031128,0.9434999823570251,0,0.0,0.0,,,,,0,,1,,
Raw,10378628,10382470000000,,,-1291005709979056128,0.0,49.43898966303095,7.780351441002325,17.43751148646855,55,32,0.0,15,372892380562226,21,26.1,-97.7651596069336,0.1112000048160553,0,0.0,0.0,,,,,0,,1,,
Raw,10378628,10382470000000,,,-1291005709979056128,0.0,49.43898966303095,7.780351441002325,17.43751148646855,55,1,0.0,783,372878325073952,1907,20.6,7.307102203369141,29.315000534057617,0,0.0,0.0,,,,,0,,5,,
Raw,10378628,10382470000000,,,-1291005709979056128,0.0,49.43898966303095,7.780351441002325,17.43751148646855,55,2,0.0,783,372878324111698,19,27.9,7.566356182098389,0.44350001215934753,0,0.0,0.0,,,,,0,,5,,
Raw,10378628,10382470000000,,,-1291005709979056128,0.0,49.43898966303095,7.780351441002325,17.43751148646855,55,5,0.0,783,372878315950093,19,27.8,5.818796634674072,0.4150000214576721,0,0.0,0.0,,,,,0,,5,,
Raw,10378629,10382470000000,,,-1291005709979056128,0.0,49.43898966303095,7.780351441002325,17.43751148646855,55,6,0.0,15,372878327310637,46,20.4,-123.779052734375,0.796999990940094,0,0.0,0.0,,,,,0,,5,,
Raw,10378629,10382470000000,,,-1291005709979056128,0.0,49.43898966303095,7.780351441002325,17.43751148646855,55,9,0.0,15,372878325393569,2776,12.8,-121.72423553466797,35.1140022277832,0,0.0,0.0,,,,,0,,5,,
Raw,10378629,10382470000000,,,-1291005709979056128,0.0,49.43898966303095,7.780351441002325,17.43751148646855,55,10,0.0,15,372878323222464,203,14.3,-146.6605682373047,7.261000156402588,0,0.0,0.0,,,,,0,,5,,
Raw,10378629,10382470000000,,,-1291005709979056128,0.0,49.43898966303095,7.780351441002325,17.43751148646855,55,13,0.0,15,372878314939741,19,27.0,317.8106384277344,0.062300004065036774,0,0.0,0.0,,,,,0,,5,,
Raw,10378629,10382470000000,,,-1291005709979056128,0.0,49.43898966303095,7.780351441002325,17.43751148646855,55,16,0.0,15,372878326985980,80,16.6,-113.06324768066406,1.0855000019073486,0,0.0,0.0,,,,,0,,5,,
Raw,10378629,10382470000000,,,-1291005709979056128,0.0,49.43898966303095,7.780351441002325,17.43751148646855,55,21,0.0,15,372878374732252,341,11.1,-169.16758728027344,9.867500305175781,0,0.0,0.0,,,,,0,,5,,
Raw,10378630,10382470000000,,,-1291005709979056128,0.0,49.43898966303095,7.780351441002325,17.43751148646855,55,22,0.0,15,372878373199747,121,16.3,409.32257080078125,4.8460001945495605,0,0.0,0.0,,,,,0,,5,,
Raw,10378630,10382470000000,,,-1291005709979056128,0.0,49.43898966303095,7.780351441002325,17.43751148646855,55,26,0.0,15,372878371240034,14,30.8,-210.71018981933594,0.04230000078678131,0,0.0,0.0,,,,,0,,5,,
Raw,10378630,10382470000000,,,-1291005709979056128,0.0,49.43898966303095,7.780351441002325,17.43751148646855,55,25,0.0,7183,372892358638044,17,28.6,-430.3887634277344,0.06030000001192093,0,0.0,0.0,,,,,0,,6,,
Raw,10378630,10382470000000,,,-1291005709979056128,0.0,49.43898966303095,7.780351441002325,17.43751148646855,55,31,0.0,7183,372892367113718,1064,20.0,358.6084289550781,21.755001068115234,0,0.0,0.0,,,,,0,,6,,
NMEA,$GPGSV,3,1,11,10,36,182,18,16,12,212,27,22,14,310,25,25,37,037,13*78,1606980874527
NMEA,$GPGSV,3,2,11,26,46,219,29,31,48,322,20,32,67,040,26,12,00,000,*73,1606980874528
NMEA,$GPGSV,3,3,11,20,07,164,,23,11,164,,29,24,102,*43,1606980874528
NMEA,$GLGSV,2,1,07,74,24,247,29,75,00,000,25,73,56,306,12,69,21,147,14*61,1606980874528
NMEA,$GLGSV,2,2,07,71,39,333,15,70,83,130,,80,31,018,*54,1606980874528
NMEA,$GAGSV,2,1,06,25,17,227,29,31,50,026,20,04,35,125,,05,30,323,*61,1606980874528
NMEA,$GAGSV,2,2,06,09,77,026,,24,69,254,*69,1606980874532
NMEA,$PQGSV,1,1,03,193,61,146,20,194,68,043,18,195,25,144,17,0,5*65,1606980874532
NMEA,$PQGSV,4,1,16,01,51,129,21,02,40,241,28,05,00,000,28,06,63,023,20,0,4*61,1606980874532
NMEA,$PQGSV,4,2,16,09,48,336,13,10,42,210,14,13,11,215,27,16,61,016,17,0,4*6A,1606980874533
NMEA,$PQGSV,4,3,16,21,63,299,11,22,54,163,16,26,35,267,31,03,59,202,,0,4*61,1606980874533
NMEA,$PQGSV,4,4,16,04,37,115,,07,69,195,,08,05,192,,19,04,149,,0,4*6B,1606980874533
NMEA,$GNGSA,A,3,10,16,22,26,31,32,,,,,,,1.6,1.3,0.9,1*3C,1606980874534
NMEA,$GNGSA,A,2,74,,,,,,,,,,,,1.6,1.3,0.9,2*3C,1606980874534
NMEA,$GNGSA,A,2,25,,,,,,,,,,,,1.6,1.3,0.9,3*39,1606980874534
NMEA,$PQGSA,A,2,13,26,,,,,,,,,,,1.6,1.3,0.9,4*37,1606980874534
NMEA,$GNVTG,,T,,M,0.0,N,0.0,K,A*3D,1606980874535
NMEA,$GNRMC,073435.00,A,2255.528054,N,12017.674966,E,0.0,,031220,2.8,W,A*1E,1606980874535
NMEA,$GNGGA,073435.00,2255.528054,N,12017.674966,E,1,10,1.3,42.0,M,17.5,M,,*45,1606980874535
Fix,gps,22.925467,120.294583,59.675537,0.000000,9.648001,1606980876000
NMEA,$GPGSV,3,1,11,10,36,182,20,16,12,212,28,22,14,310,26,25,37,037,13*7F,1606980875514
NMEA,$GPGSV,3,2,11,26,46,219,28,31,48,322,19,32,67,040,26,12,00,000,*78,1606980875514
NMEA,$GPGSV,3,3,11,20,07,164,,23,11,164,,29,24,102,*43,1606980875515
NMEA,$GLGSV,2,1,07,74,24,247,30,75,00,000,25,73,56,306,12,69,21,147,14*69,1606980875517
Raw,10379610,10383470000000,,,-1291005709979056128,0.0,42.12416388327256,11.694260268381175,11.474579616762501,55,10,0.0,207,38075375354332,14,30.0,-385.2076110839844,0.2483000010251999,0,0.0,0.0,,,,,0,,3,,
Raw,10379611,10383470000000,,,-1291005709979056128,0.0,42.12416388327256,11.694260268381175,11.474579616762501,55,11,0.0,3,7817137,27,24.9,-525.89697265625,0.8270000219345093,0,0.0,0.0,,,,,0,,3,,
Raw,10379611,10383470000000,,,-1291005709979056128,0.0,42.12416388327256,11.694260268381175,11.474579616762501,55,9,0.0,207,38075382478434,390,12.1,110.60041046142578,11.549500465393066,0,0.0,0.0,,,,,0,,3,,
Raw,10379612,10383470000000,,,-1291005709979056128,0.0,42.12416388327256,11.694260268381175,11.474579616762501,55,5,0.0,207,38075374207224,1955,14.1,717.4441528320312,29.61250114440918,0,0.0,0.0,,,,,0,,3,,
Raw,10379612,10383470000000,,,-1291005709979056128,0.0,42.12416388327256,11.694260268381175,11.474579616762501,55,7,0.0,207,38075379120781,1229,14.1,-615.74853515625,7.075000286102295,0,0.0,0.0,,,,,0,,3,,
Raw,10379613,10383470000000,,,-1291005709979056128,0.0,42.12416388327256,11.694260268381175,11.474579616762501,55,10,0.0,15,372893375255269,53,19.9,602.0225830078125,0.9389999508857727,0,0.0,0.0,,,,,0,,1,,
Raw,10379613,10383470000000,,,-1291005709979056128,0.0,42.12416388327256,11.694260268381175,11.474579616762501,55,16,0.0,15,372893368045456,19,27.9,-715.9451293945312,0.053300000727176666,0,0.0,0.0,,,,,0,,1,,
Raw,10379613,10383470000000,,,-1291005709979056128,0.0,42.12416388327256,11.694260268381175,11.474579616762501,55,22,0.0,15,372893367127777,24,25.6,-408.79095458984375,0.392300009727478,0,0.0,0.0,,,,,0,,1,,
Raw,10379614,10383470000000,,,-1291005709979056128,0.0,42.12416388327256,11.694260268381175,11.474579616762501,55,25,0.0,15,372893375699933,1937,13.3,558.9495849609375,29.369001388549805,0,0.0,0.0,,,,,0,,1,,
Raw,10379614,10383470000000,,,-1291005709979056128,0.0,42.12416388327256,11.694260268381175,11.474579616762501,55,26,0.0,15,372893377880045,17,28.2,-442.7667236328125,0.058800000697374344,0,0.0,0.0,,,,,0,,1,,
Raw,10379615,10383470000000,,,-1291005709979056128,0.0,42.12416388327256,11.694260268381175,11.474579616762501,55,31,0.0,15,372893378020604,53,19.4,-1.2273942232131958,1.0234999656677246,0,0.0,0.0,,,,,0,,1,,
Raw,10379615,10383470000000,,,-1291005709979056128,0.0,42.12416388327256,11.694260268381175,11.474579616762501,55,32,0.0,15,372893380562523,24,25.6,-97.64434814453125,0.38179999589920044,0,0.0,0.0,,,,,0,,1,,
Raw,10379615,10383470000000,,,-1291005709979056128,0.0,42.12416388327256,11.694260268381175,11.474579616762501,55,1,0.0,783,372879325073928,2105,20.6,7.307102203369141,30.815000534057617,0,0.0,0.0,,,,,0,,5,,
Raw,10379616,10383470000000,,,-1291005709979056128,0.0,42.12416388327256,11.694260268381175,11.474579616762501,55,2,0.0,783,372879324111671,17,28.2,4.897006988525391,0.44350001215934753,0,0.0,0.0,,,,,0,,5,,
Raw,10379616,10383470000000,,,-1291005709979056128,0.0,42.12416388327256,11.694260268381175,11.474579616762501,55,5,0.0,783,372879315950050,17,28.5,8.564961433410645,0.4150000214576721,0,0.0,0.0,,,,,0,,5,,
Raw,10379617,10383470000000,,,-1291005709979056128,0.0,42.12416388327256,11.694260268381175,11.474579616762501,55,6,0.0,15,372879327311033,46,20.7,-123.16453552246094,0.796999990940094,0,0.0,0.0,,,,,0,,5,,
Raw,10379617,10383470000000,,,-1291005709979056128,0.0,42.12416388327256,11.694260268381175,11.474579616762501,55,9,0.0,15,372879325394047,259,11.9,-122.91487121582031,7.484000205993652,0,0.0,0.0,,,,,0,,5,,
Raw,10379617,10383470000000,,,-1291005709979056128,0.0,42.12416388327256,11.694260268381175,11.474579616762501,55,10,0.0,15,372879323222954,253,14.3,-146.6605682373047,8.761000633239746,0,0.0,0.0,,,,,0,,5,,
Raw,10379618,10383470000000,,,-1291005709979056128,0.0,42.12416388327256,11.694260268381175,11.474579616762501,55,13,0.0,15,372879314938661,19,27.0,318.269287109375,0.062300004065036774,0,0.0,0.0,,,,,0,,5,,
Raw,10379618,10383470000000,,,-1291005709979056128,0.0,42.12416388327256,11.694260268381175,11.474579616762501,55,16,0.0,15,372879326986348,80,16.5,-115.15648651123047,1.0855000019073486,0,0.0,0.0,,,,,0,,5,,
Raw,10379619,10383470000000,,,-1291005709979056128,0.0,42.12416388327256,11.694260268381175,11.474579616762501,55,21,0.0,15,372879374732817,406,11.1,-169.16758728027344,11.367500305175781,0,0.0,0.0,,,,,0,,5,,
Raw,10379619,10383470000000,,,-1291005709979056128,0.0,42.12416388327256,11.694260268381175,11.474579616762501,55,22,0.0,15,372879373198356,89,16.6,408.47760009765625,2.5959999561309814,0,0.0,0.0,,,,,0,,5,,
Raw,10379619,10383470000000,,,-1291005709979056128,0.0,42.12416388327256,11.694260268381175,11.474579616762501,55,26,0.0,15,372879371240738,16,29.5,-210.4438934326172,0.04320000112056732,0,0.0,0.0,,,,,0,,5,,
Raw,10379620,10383470000000,,,-1291005709979056128,0.0,42.12416388327256,11.694260268381175,11.474579616762501,55,25,0.0,7183,372893358639466,16,29.3,-430.08831787109375,0.053700003772974014,0,0.0,0.0,,,,,0,,6,,
Raw,10379620,10383470000000,,,-1291005709979056128,0.0,42.12416388327256,11.694260268381175,11.474579616762501,55,31,0.0,7183,372893367112522,1212,20.0,358.6084289550781,23.255001068115234,0,0.0,0.0,,,,,0,,6,,
NMEA,$GLGSV,2,2,07,71,39,333,14,70,83,130,,80,31,018,*55,1606980875518
NMEA,$GAGSV,2,1,06,25,17,227,29,31,50,026,20,04,35,125,,05,30,323,*61,1606980875518
NMEA,$GAGSV,2,2,06,09,77,026,,24,69,254,*69,1606980875519
NMEA,$PQGSV,1,1,03,193,61,146,18,194,68,043,16,195,25,144,17,0,5*60,1606980875519
NMEA,$PQGSV,4,1,16,01,51,129,21,02,40,241,28,05,00,000,29,06,63,023,21,0,4*61,1606980875519
NMEA,$PQGSV,4,2,16,09,48,336,12,10,42,210,14,13,11,215,27,16,61,016,17,0,4*6B,1606980875519
NMEA,$PQGSV,4,3,16,21,63,299,11,22,54,163,17,26,35,267,30,03,59,202,,0,4*61,1606980875519
NMEA,$PQGSV,4,4,16,04,37,115,,07,69,195,,08,05,192,,19,04,149,,0,4*6B,1606980875520
NMEA,$GNGSA,A,3,10,16,22,26,31,32,,,,,,,1.6,1.3,0.9,1*3C,1606980875520
NMEA,$GNGSA,A,2,74,,,,,,,,,,,,1.6,1.3,0.9,2*3C,1606980875521
NMEA,$GNGSA,A,2,25,,,,,,,,,,,,1.6,1.3,0.9,3*39,1606980875521
NMEA,$PQGSA,A,2,13,26,,,,,,,,,,,1.6,1.3,0.9,4*37,1606980875521
NMEA,$GNVTG,,T,,M,0.0,N,0.0,K,A*3D,1606980875521
NMEA,$GNRMC,073436.00,A,2255.527997,N,12017.674952,E,0.0,,031220,2.8,W,A*13,1606980875522
NMEA,$GNGGA,073436.00,2255.527997,N,12017.674952,E,1,10,1.3,42.2,M,17.5,M,,*4A,1606980875522
Raw,10380635,10384470000000,,,-1291005709979056128,0.0,44.300322770141065,12.420845249696837,13.935469584477493,55,10,0.0,207,38076375355615,16,29.2,-388.9833068847656,0.6389999985694885,0,0.0,0.0,,,,,0,,3,,
Raw,10380636,10384470000000,,,-1291005709979056128,0.0,44.300322770141065,12.420845249696837,13.935469584477493,55,11,0.0,3,7818968,31,23.2,-530.1055297851562,0.8769999742507935,0,0.0,0.0,,,,,0,,3,,
Raw,10380636,10384470000000,,,-1291005709979056128,0.0,44.300322770141065,12.420845249696837,13.935469584477493,55,9,0.0,207,38076382478065,466,12.1,110.60041046142578,13.049500465393066,0,0.0,0.0,,,,,0,,3,,
Raw,10380637,10384470000000,,,-1291005709979056128,0.0,44.300322770141065,12.420845249696837,13.935469584477493,55,5,0.0,207,38076374204831,2152,14.1,717.4441528320312,31.11250114440918,0,0.0,0.0,,,,,0,,3,,
Raw,10380638,10384470000000,,,-1291005709979056128,0.0,44.300322770141065,12.420845249696837,13.935469584477493,55,7,0.0,207,38076379122770,1416,13.9,-615.6271362304688,7.570000171661377,0,0.0,0.0,,,,,0,,3,,
Raw,10380639,10384470000000,,,-1291005709979056128,0.0,44.300322770141065,12.420845249696837,13.935469584477493,55,10,0.0,15,372894375253146,46,20.2,597.3128051757812,0.9389999508857727,0,0.0,0.0,,,,,0,,1,,
Raw,10380639,10384470000000,,,-1291005709979056128,0.0,44.300322770141065,12.420845249696837,13.935469584477493,55,16,0.0,15,372894368047830,17,28.4,-720.5850219726562,0.5084999799728394,0,0.0,0.0,,,,,0,,1,,
Raw,10380640,10384470000000,,,-1291005709979056128,0.0,44.300322770141065,12.420845249696837,13.935469584477493,55,22,0.0,15,372894367129170,19,27.9,-413.02288818359375,0.5069999694824219,0,0.0,0.0,,,,,0,,1,,
Raw,10380641,10384470000000,,,-1291005709979056128,0.0,44.300322770141065,12.420845249696837,13.935469584477493,55,25,0.0,15,372894375698069,2132,13.3,558.9495849609375,30.869001388549805,0,0.0,0.0,,,,,0,,1,,
Raw,10380641,10384470000000,,,-1291005709979056128,0.0,44.300322770141065,12.420845249696837,13.935469584477493,55,26,0.0,15,372894377881495,19,27.5,-446.99029541015625,0.5220000147819519,0,0.0,0.0,,,,,0,,1,,
Raw,10380642,10384470000000,,,-1291005709979056128,0.0,44.300322770141065,12.420845249696837,13.935469584477493,55,32,0.0,15,372894380562846,24,25.8,-101.8261489868164,0.5764999985694885,0,0.0,0.0,,,,,0,,1,,
Raw,10380643,10384470000000,,,-1291005709979056128,0.0,44.300322770141065,12.420845249696837,13.935469584477493,55,1,0.0,783,372880325073903,2313,20.6,7.307102203369141,32.31500244140625,0,0.0,0.0,,,,,0,,5,,
Raw,10380643,10384470000000,,,-1291005709979056128,0.0,44.300322770141065,12.420845249696837,13.935469584477493,55,2,0.0,783,372880324111658,19,27.5,5.338697910308838,0.48350000381469727,0,0.0,0.0,,,,,0,,5,,
Raw,10380644,10384470000000,,,-1291005709979056128,0.0,44.300322770141065,12.420845249696837,13.935469584477493,55,5,0.0,783,372880315950027,17,28.0,-0.09601974487304688,0.4150000214576721,0,0.0,0.0,,,,,0,,5,,
Raw,10380645,10384470000000,,,-1291005709979056128,0.0,44.300322770141065,12.420845249696837,13.935469584477493,55,6,0.0,15,372880327311521,40,21.3,-127.1685562133789,0.7369999885559082,0,0.0,0.0,,,,,0,,5,,
Raw,10380645,10384470000000,,,-1291005709979056128,0.0,44.300322770141065,12.420845249696837,13.935469584477493,55,9,0.0,15,372880325394457,309,11.9,-122.91487121582031,8.984000205993652,0,0.0,0.0,,,,,0,,5,,
Raw,10380646,10384470000000,,,-1291005709979056128,0.0,44.300322770141065,12.420845249696837,13.935469584477493,55,10,0.0,15,372880323223443,312,14.3,-146.6605682373047,10.261000633239746,0,0.0,0.0,,,,,0,,5,,
Raw,10380646,10384470000000,,,-1291005709979056128,0.0,44.300322770141065,12.420845249696837,13.935469584477493,55,13,0.0,15,372880314937610,21,26.6,313.70611572265625,0.5174999833106995,0,0.0,0.0,,,,,0,,5,,
Raw,10380647,10384470000000,,,-1291005709979056128,0.0,44.300322770141065,12.420845249696837,13.935469584477493,55,16,0.0,15,372880326986757,46,20.0,-117.42254638671875,0.7954999804496765,0,0.0,0.0,,,,,0,,5,,
Raw,10380648,10384470000000,,,-1291005709979056128,0.0,44.300322770141065,12.420845249696837,13.935469584477493,55,21,0.0,15,372880374733381,482,11.1,-169.16758728027344,12.867500305175781,0,0.0,0.0,,,,,0,,5,,
Raw,10380648,10384470000000,,,-1291005709979056128,0.0,44.300322770141065,12.420845249696837,13.935469584477493,55,22,0.0,15,372880373196971,53,19.0,406.9125061035156,0.8659999966621399,0,0.0,0.0,,,,,0,,5,,
Raw,10380649,10384470000000,,,-1291005709979056128,0.0,44.300322770141065,12.420845249696837,13.935469584477493,55,26,0.0,15,372880371241448,16,29.6,-214.27767944335938,0.40299999713897705,0,0.0,0.0,,,,,0,,5,,
Raw,10380650,10384470000000,,,-1291005709979056128,0.0,44.300322770141065,12.420845249696837,13.935469584477493,55,25,0.0,7183,372894358640888,17,28.9,-433.35577392578125,0.41350001096725464,0,0.0,0.0,,,,,0,,6,,
Raw,10380650,10384470000000,,,-1291005709979056128,0.0,44.300322770141065,12.420845249696837,13.935469584477493,55,31,0.0,7183,372894367111326,1370,20.0,358.6084289550781,24.755001068115234,0,0.0,0.0,,,,,0,,6,,
Fix,gps,22.925467,120.294581,59.701538,0.000000,9.648001,1606980877000
NMEA,$GPGSV,3,1,11,10,36,182,20,16,12,212,28,22,14,310,28,25,37,037,13*71,1606980876514
NMEA,$GPGSV,3,2,11,26,46,219,28,32,67,040,26,12,00,000,,20,07,164,*7B,1606980876515
NMEA,$GPGSV,3,3,11,23,11,164,,29,24,102,,31,48,322,*48,1606980876515
NMEA,$GLGSV,2,1,07,74,24,247,29,75,00,000,23,73,56,306,12,69,21,147,14*67,1606980876516
NMEA,$GLGSV,2,2,07,71,39,333,14,70,83,130,,80,31,018,*55,1606980876516
NMEA,$GAGSV,2,1,06,25,17,227,29,31,50,026,20,04,35,125,,05,30,323,*61,1606980876517
NMEA,$GAGSV,2,2,06,09,77,026,,24,69,254,*69,1606980876517
NMEA,$PQGSV,1,1,03,193,61,146,18,194,68,043,21,195,25,144,19,0,5*6A,1606980876517
NMEA,$PQGSV,4,1,16,01,51,129,21,02,40,241,28,05,00,000,28,06,63,023,21,0,4*60,1606980876518
NMEA,$PQGSV,4,2,16,09,48,336,12,10,42,210,14,13,11,215,27,16,61,016,20,0,4*6F,1606980876519
NMEA,$PQGSV,4,3,16,21,63,299,11,22,54,163,19,26,35,267,30,03,59,202,,0,4*6F,1606980876519
NMEA,$PQGSV,4,4,16,04,37,115,,07,69,195,,08,05,192,,19,04,149,,0,4*6B,1606980876519
NMEA,$GNGSA,A,3,10,16,22,26,31,32,,,,,,,1.6,1.3,0.9,1*3C,1606980876521
NMEA,$GNGSA,A,2,74,,,,,,,,,,,,1.6,1.3,0.9,2*3C,1606980876521
NMEA,$GNGSA,A,2,25,,,,,,,,,,,,1.6,1.3,0.9,3*39,1606980876521
NMEA,$PQGSA,A,2,13,26,,,,,,,,,,,1.6,1.3,0.9,4*37,1606980876521
NMEA,$GNVTG,,T,,M,0.0,N,0.0,K,A*3D,1606980876522
NMEA,$GNRMC,073437.00,A,2255.528002,N,12017.674874,E,0.0,,031220,2.8,W,A*1D,1606980876523
NMEA,$GNGGA,073437.00,2255.528002,N,12017.674874,E,1,10,1.3,42.2,M,17.5,M,,*44,1606980876523
Fix,gps,22.925465,120.294580,60.051270,0.000000,9.648001,1606980878000
Raw,10381607,10385470000000,,,-1291005709979056128,0.0,49.82009340892546,4.47786327536277,20.629687328345117,55,10,0.0,207,38077375356861,16,29.2,-389.7162170410156,0.2492000013589859,0,0.0,0.0,,,,,0,,3,,
Raw,10381607,10385470000000,,,-1291005709979056128,0.0,49.82009340892546,4.47786327536277,20.629687328345117,55,11,0.0,3,7820661,40,21.7,-530.4710693359375,0.996999979019165,0,0.0,0.0,,,,,0,,3,,
Raw,10381608,10385470000000,,,-1291005709979056128,0.0,49.82009340892546,4.47786327536277,20.629687328345117,55,9,0.0,207,38077382477696,552,12.1,110.60041046142578,14.549500465393066,0,0.0,0.0,,,,,0,,3,,
Raw,10381608,10385470000000,,,-1291005709979056128,0.0,49.82009340892546,4.47786327536277,20.629687328345117,55,5,0.0,207,38077374202438,2360,14.1,717.4441528320312,32.61250305175781,0,0.0,0.0,,,,,0,,3,,
Raw,10381609,10385470000000,,,-1291005709979056128,0.0,49.82009340892546,4.47786327536277,20.629687328345117,55,7,0.0,207,38077379124786,1642,12.6,-615.6644287109375,8.440000534057617,0,0.0,0.0,,,,,0,,3,,
Raw,10381609,10385470000000,,,-1291005709979056128,0.0,49.82009340892546,4.47786327536277,20.629687328345117,55,10,0.0,15,372895375251179,40,21.1,596.8941650390625,0.8840000033378601,0,0.0,0.0,,,,,0,,1,,
Raw,10381610,10385470000000,,,-1291005709979056128,0.0,49.82009340892546,4.47786327536277,20.629687328345117,55,16,0.0,15,372895368050233,16,29.4,-720.667236328125,0.038700003176927567,0,0.0,0.0,,,,,0,,1,,
Raw,10381610,10385470000000,,,-1291005709979056128,0.0,49.82009340892546,4.47786327536277,20.629687328345117,55,22,0.0,15,372895367130507,17,28.9,-413.42010498046875,0.043800000101327896,0,0.0,0.0,,,,,0,,1,,
Raw,10381611,10385470000000,,,-1291005709979056128,0.0,49.82009340892546,4.47786327536277,20.629687328345117,55,25,0.0,15,372895375696204,2338,13.3,558.9495849609375,32.36900329589844,0,0.0,0.0,,,,,0,,1,,
Raw,10381611,10385470000000,,,-1291005709979056128,0.0,49.82009340892546,4.47786327536277,20.629687328345117,55,26,0.0,15,372895377883045,17,28.5,-447.4024353027344,0.07380000501871109,0,0.0,0.0,,,,,0,,1,,
Raw,10381612,10385470000000,,,-1291005709979056128,0.0,49.82009340892546,4.47786327536277,20.629687328345117,55,32,0.0,15,372895380563184,19,27.1,-102.16661071777344,0.04130000248551369,0,0.0,0.0,,,,,0,,1,,
Raw,10381613,10385470000000,,,-1291005709979056128,0.0,49.82009340892546,4.47786327536277,20.629687328345117,55,1,0.0,783,372881325073879,2531,20.6,7.307102203369141,33.81500244140625,0,0.0,0.0,,,,,0,,5,,
Raw,10381613,10385470000000,,,-1291005709979056128,0.0,49.82009340892546,4.47786327536277,20.629687328345117,55,2,0.0,783,372881324111658,19,27.7,-0.8737797141075134,0.4984999895095825,0,0.0,0.0,,,,,0,,5,,
Raw,10381614,10385470000000,,,-1291005709979056128,0.0,49.82009340892546,4.47786327536277,20.629687328345117,55,5,0.0,783,372881315950010,19,27.5,4.503326416015625,0.45500001311302185,0,0.0,0.0,,,,,0,,5,,
Raw,10381614,10385470000000,,,-1291005709979056128,0.0,49.82009340892546,4.47786327536277,20.629687328345117,55,6,0.0,15,372881327311898,35,22.0,-128.19595336914062,0.6769999861717224,0,0.0,0.0,,,,,0,,5,,
Raw,10381614,10385470000000,,,-1291005709979056128,0.0,49.82009340892546,4.47786327536277,20.629687328345117,55,9,0.0,15,372881325394867,369,11.9,-122.91487121582031,10.484000205993652,0,0.0,0.0,,,,,0,,5,,
Raw,10381615,10385470000000,,,-1291005709979056128,0.0,49.82009340892546,4.47786327536277,20.629687328345117,55,10,0.0,15,372881323223990,183,12.7,-146.86219787597656,5.2310004234313965,0,0.0,0.0,,,,,0,,5,,
Raw,10381615,10385470000000,,,-1291005709979056128,0.0,49.82009340892546,4.47786327536277,20.629687328345117,55,13,0.0,15,372881314936589,17,28.8,313.2207336425781,0.05430000275373459,0,0.0,0.0,,,,,0,,5,,
Raw,10381616,10385470000000,,,-1291005709979056128,0.0,49.82009340892546,4.47786327536277,20.629687328345117,55,16,0.0,15,372881326987075,80,16.4,-116.70240020751953,1.0855000019073486,0,0.0,0.0,,,,,0,,5,,
Raw,10381617,10385470000000,,,-1291005709979056128,0.0,49.82009340892546,4.47786327536277,20.629687328345117,55,21,0.0,15,372881374733945,567,11.1,-169.16758728027344,14.367500305175781,0,0.0,0.0,,,,,0,,5,,
Raw,10381618,10385470000000,,,-1291005709979056128,0.0,49.82009340892546,4.47786327536277,20.629687328345117,55,22,0.0,15,372881373195618,53,19.0,405.60662841796875,0.8659999966621399,0,0.0,0.0,,,,,0,,5,,
Raw,10381618,10385470000000,,,-1291005709979056128,0.0,49.82009340892546,4.47786327536277,20.629687328345117,55,26,0.0,15,372881371242161,17,28.2,-215.1543426513672,0.049800001084804535,0,0.0,0.0,,,,,0,,5,,
Raw,10381619,10385470000000,,,-1291005709979056128,0.0,49.82009340892546,4.47786327536277,20.629687328345117,55,25,0.0,7183,372895358642358,14,30.0,-433.8124694824219,0.37849998474121094,0,0.0,0.0,,,,,0,,6,,
Raw,10381619,10385470000000,,,-1291005709979056128,0.0,49.82009340892546,4.47786327536277,20.629687328345117,55,31,0.0,7183,372895367110130,1537,20.0,358.6084289550781,26.255001068115234,0,0.0,0.0,,,,,0,,6,,
NMEA,$GPGSV,3,1,11,10,36,182,21,16,12,212,29,22,14,310,29,25,37,037,13*70,1606980877514
NMEA,$GPGSV,3,2,11,26,46,219,29,32,67,040,27,12,00,000,,20,07,164,*7B,1606980877514
NMEA,$GPGSV,3,3,11,23,11,164,,29,24,102,,31,48,322,*48,1606980877514
NMEA,$GLGSV,2,1,07,74,24,247,29,75,00,000,22,73,56,306,12,69,21,147,14*66,1606980877514
NMEA,$GLGSV,2,2,07,71,39,333,13,70,83,130,,80,31,018,*52,1606980877515
NMEA,$GAGSV,2,1,06,25,17,227,30,31,50,026,20,04,35,125,,05,30,323,*69,1606980877515
NMEA,$GAGSV,2,2,06,09,77,026,,24,69,254,*69,1606980877515
NMEA,$PQGSV,1,1,03,193,61,146,19,194,68,043,22,195,25,144,19,0,5*68,1606980877515
NMEA,$PQGSV,4,1,16,01,51,129,21,02,40,241,28,05,00,000,28,06,63,023,22,0,4*63,1606980877515
NMEA,$PQGSV,4,2,16,09,48,336,12,10,42,210,13,13,11,215,29,16,61,016,16,0,4*63,1606980877516
NMEA,$PQGSV,4,3,16,21,63,299,11,22,54,163,19,26,35,267,28,03,59,202,,0,4*66,1606980877516
NMEA,$PQGSV,4,4,16,04,37,115,,07,69,195,,08,05,192,,19,04,149,,0,4*6B,1606980877517
NMEA,$GNGSA,A,3,10,16,22,26,31,32,,,,,,,1.6,1.3,0.9,1*3C,1606980877518
NMEA,$GNGSA,A,2,74,,,,,,,,,,,,1.6,1.3,0.9,2*3C,1606980877519
NMEA,$GNGSA,A,2,25,,,,,,,,,,,,1.6,1.3,0.9,3*39,1606980877519
NMEA,$PQGSA,A,2,13,26,,,,,,,,,,,1.6,1.3,0.9,4*37,1606980877519
NMEA,$GNVTG,,T,,M,0.0,N,0.0,K,A*3D,1606980877519
NMEA,$GNRMC,073438.00,A,2255.527913,N,12017.674797,E,0.0,,031220,2.8,W,A*16,1606980877520
NMEA,$GNGGA,073438.00,2255.527913,N,12017.674797,E,1,10,1.3,42.6,M,17.5,M,,*4B,1606980877520
Fix,gps,22.925465,120.294580,60.037231,0.000000,9.648001,1606980879000
Raw,10382584,10386470000000,,,-1291005709979056128,0.0,43.763873691204935,-3.4242616494852385,15.069463953640547,55,10,0.0,207,38078375358180,17,28.6,-391.3906555175781,0.2558000087738037,0,0.0,0.0,,,,,0,,3,,
Raw,10382584,10386470000000,,,-1291005709979056128,0.0,43.763873691204935,-3.4242616494852385,15.069463953640547,55,11,0.0,3,7822505,35,22.3,-532.28955078125,0.9369999766349792,0,0.0,0.0,,,,,0,,3,,
Raw,10382584,10386470000000,,,-1291005709979056128,0.0,43.763873691204935,-3.4242616494852385,15.069463953640547,55,9,0.0,207,38078382477434,153,13.1,109.83260345458984,4.679500102996826,0,0.0,0.0,,,,,0,,3,,
Raw,10382585,10386470000000,,,-1291005709979056128,0.0,43.763873691204935,-3.4242616494852385,15.069463953640547,55,5,0.0,207,38078374200045,2577,14.1,717.4441528320312,34.11250305175781,0,0.0,0.0,,,,,0,,3,,
Raw,10382585,10386470000000,,,-1291005709979056128,0.0,43.763873691204935,-3.4242616494852385,15.069463953640547,55,7,0.0,207,38078379126909,1466,13.9,-616.0755004882812,9.070000648498535,0,0.0,0.0,,,,,0,,3,,
Raw,10382585,10386470000000,,,-1291005709979056128,0.0,43.763873691204935,-3.4242616494852385,15.069463953640547,55,10,0.0,15,372896375249138,35,22.5,594.3917846679688,0.7489999532699585,0,0.0,0.0,,,,,0,,1,,
Raw,10382585,10386470000000,,,-1291005709979056128,0.0,43.763873691204935,-3.4242616494852385,15.069463953640547,55,16,0.0,15,372896368052650,17,28.3,-722.4819946289062,0.04529999941587448,0,0.0,0.0,,,,,0,,1,,
Raw,10382585,10386470000000,,,-1291005709979056128,0.0,43.763873691204935,-3.4242616494852385,15.069463953640547,55,22,0.0,15,372896367131916,16,29.5,-415.1145324707031,0.03720000013709068,0,0.0,0.0,,,,,0,,1,,
Raw,10382585,10386470000000,,,-1291005709979056128,0.0,43.763873691204935,-3.4242616494852385,15.069463953640547,55,25,0.0,15,372896375694340,2554,13.3,558.9495849609375,33.86900329589844,0,0.0,0.0,,,,,0,,1,,
Raw,10382586,10386470000000,,,-1291005709979056128,0.0,43.763873691204935,-3.4242616494852385,15.069463953640547,55,26,0.0,15,372896377884496,16,29.1,-449.1081237792969,0.05220000073313713,0,0.0,0.0,,,,,0,,1,,
Raw,10382586,10386470000000,,,-1291005709979056128,0.0,43.763873691204935,-3.4242616494852385,15.069463953640547,55,32,0.0,15,372896380563558,19,27.6,-103.82042694091797,0.04130000248551369,0,0.0,0.0,,,,,0,,1,,
Raw,10382586,10386470000000,,,-1291005709979056128,0.0,43.763873691204935,-3.4242616494852385,15.069463953640547,55,1,0.0,783,372882325073855,2759,20.6,7.307102203369141,35.31500244140625,0,0.0,0.0,,,,,0,,5,,
Raw,10382586,10386470000000,,,-1291005709979056128,0.0,43.763873691204935,-3.4242616494852385,15.069463953640547,55,2,0.0,783,372882324111642,19,27.8,5.636359214782715,0.44350001215934753,0,0.0,0.0,,,,,0,,5,,
Raw,10382586,10386470000000,,,-1291005709979056128,0.0,43.763873691204935,-3.4242616494852385,15.069463953640547,55,5,0.0,783,372882315949995,26,27.5,4.503326416015625,1.9550000429153442,0,0.0,0.0,,,,,0,,5,,
Raw,10382586,10386470000000,,,-1291005709979056128,0.0,43.763873691204935,-3.4242616494852385,15.069463953640547,55,6,0.0,15,372882327312342,31,23.1,-129.97232055664062,0.6270000338554382,0,0.0,0.0,,,,,0,,5,,
Raw,10382587,10386470000000,,,-1291005709979056128,0.0,43.763873691204935,-3.4242616494852385,15.069463953640547,55,9,0.0,15,372882325395277,439,11.9,-122.91487121582031,11.984000205993652,0,0.0,0.0,,,,,0,,5,,
Raw,10382587,10386470000000,,,-1291005709979056128,0.0,43.763873691204935,-3.4242616494852385,15.069463953640547,55,10,0.0,15,372882323224526,80,16.1,-151.01025390625,1.0809999704360962,0,0.0,0.0,,,,,0,,5,,
Raw,10382587,10386470000000,,,-1291005709979056128,0.0,43.763873691204935,-3.4242616494852385,15.069463953640547,55,13,0.0,15,372882314935536,17,28.3,311.4143371582031,0.05430000275373459,0,0.0,0.0,,,,,0,,5,,
Raw,10382587,10386470000000,,,-1291005709979056128,0.0,43.763873691204935,-3.4242616494852385,15.069463953640547,55,16,0.0,15,372882326987438,70,17.7,-116.70240020751953,1.005500078201294,0,0.0,0.0,,,,,0,,5,,
Raw,10382588,10386470000000,,,-1291005709979056128,0.0,43.763873691204935,-3.4242616494852385,15.069463953640547,55,21,0.0,15,372882374734509,663,11.1,-169.16758728027344,15.867500305175781,0,0.0,0.0,,,,,0,,5,,
Raw,10382588,10386470000000,,,-1291005709979056128,0.0,43.763873691204935,-3.4242616494852385,15.069463953640547,55,22,0.0,15,372882373194265,61,19.0,405.60662841796875,2.366000175476074,0,0.0,0.0,,,,,0,,5,,
Raw,10382588,10386470000000,,,-1291005709979056128,0.0,43.763873691204935,-3.4242616494852385,15.069463953640547,55,26,0.0,15,372882371242886,17,28.2,-216.84976196289062,0.049800001084804535,0,0.0,0.0,,,,,0,,5,,
Raw,10382588,10386470000000,,,-1291005709979056128,0.0,43.763873691204935,-3.4242616494852385,15.069463953640547,55,25,0.0,7183,372896358643787,13,31.4,-435.7344665527344,0.3334999978542328,0,0.0,0.0,,,,,0,,6,,
Raw,10382588,10386470000000,,,-1291005709979056128,0.0,43.763873691204935,-3.4242616494852385,15.069463953640547,55,31,0.0,7183,372896367108934,1715,20.0,358.6084289550781,27.755001068115234,0,0.0,0.0,,,,,0,,6,,
NMEA,$GPGSV,3,1,11,10,36,182,23,16,12,212,28,22,14,310,30,25,37,037,13*7B,1606980878512
NMEA,$GPGSV,3,2,11,26,46,219,29,32,67,040,28,12,00,000,,20,07,164,*74,1606980878512
NMEA,$GPGSV,3,3,11,23,11,164,,29,24,102,,31,48,322,*48,1606980878512
NMEA,$GLGSV,2,1,07,74,24,247,29,75,00,000,22,73,56,306,13,69,21,147,14*67,1606980878512
NMEA,$GLGSV,2,2,07,71,39,333,14,70,83,130,,80,31,018,*55,1606980878512
NMEA,$GAGSV,2,1,06,25,17,227,31,31,50,026,20,04,35,125,,05,30,323,*68,1606980878512
NMEA,$GAGSV,2,2,06,09,77,026,,24,69,254,*69,1606980878512
NMEA,$PQGSV,1,1,03,193,61,146,18,194,68,043,21,195,25,144,19,0,5*6A,1606980878513
NMEA,$PQGSV,4,1,16,01,51,129,21,02,40,241,28,05,00,000,28,06,63,023,23,0,4*62,1606980878513
NMEA,$PQGSV,4,2,16,09,48,336,12,10,42,210,16,13,11,215,28,16,61,016,18,0,4*69,1606980878513
NMEA,$PQGSV,4,3,16,21,63,299,11,22,54,163,19,26,35,267,28,03,59,202,,0,4*66,1606980878513
NMEA,$PQGSV,4,4,16,04,37,115,,07,69,195,,08,05,192,,19,04,149,,0,4*6B,1606980878514
NMEA,$GNGSA,A,3,10,16,22,26,31,32,,,,,,,1.6,1.3,0.9,1*3C,1606980878514
NMEA,$GNGSA,A,2,74,,,,,,,,,,,,1.6,1.3,0.9,2*3C,1606980878515
NMEA,$GNGSA,A,2,25,,,,,,,,,,,,1.6,1.3,0.9,3*39,1606980878515
NMEA,$PQGSA,A,2,13,26,,,,,,,,,,,1.6,1.3,0.9,4*37,1606980878519
NMEA,$GNVTG,,T,,M,0.0,N,0.0,K,A*3D,1606980878520
NMEA,$GNRMC,073439.00,A,2255.527874,N,12017.674771,E,0.0,,031220,2.8,W,A*1F,1606980878520
NMEA,$GNGGA,073439.00,2255.527874,N,12017.674771,E,1,10,1.3,42.6,M,17.5,M,,*42,1606980878520
Fix,gps,22.925464,120.294579,59.959106,0.000000,9.648001,1606980880000
