# 
# Header Description:
# 
# Version: v2.0.0.1 Platform: 8.0.0 Manufacturer: Sony Model: G8142
# 
# Raw,ElapsedRealtimeMillis,TimeNanos,LeapSecond,TimeUncertaintyNanos,FullBiasNanos,BiasNanos,BiasUncertaintyNanos,DriftNanosPerSecond,DriftUncertaintyNanosPerSecond,HardwareClockDiscontinuityCount,Svid,TimeOffsetNanos,State,ReceivedSvTimeNanos,ReceivedSvTimeUncertaintyNanos,Cn0DbHz,PseudorangeRateMetersPerSecond,PseudorangeRateUncertaintyMetersPerSecond,AccumulatedDeltaRangeState,AccumulatedDeltaRangeMeters,AccumulatedDeltaRangeUncertaintyMeters,CarrierFrequencyHz,CarrierCycles,CarrierPhase,CarrierPhaseUncertainty,MultipathIndicator,SnrInDb,ConstellationType,AgcDb,CarrierFrequencyHz
# 
# Fix,Provider,Latitude,Longitude,Altitude,Speed,Accuracy,(UTC)TimeInMs
# 
# Nav,Svid,Type,Status,MessageId,Sub-messageId,Data(Bytes)
# 
Raw,11624869,11628499000000,,,-1291005709935689216,0.0,74.62625217158347,-16.073011926264453,19.70376651706262,161,10,0.0,207,39320362379113,17,28.6,-287.21209716796875,0.2363000065088272,0,0.0,0.0,,,,,0,,3,,
Raw,11624869,11628499000000,,,-1291005709935689216,0.0,74.62625217158347,-16.073011926264453,19.70376651706262,161,11,0.0,207,39320355490398,14,30.9,-456.4823913574219,0.2483000010251999,0,0.0,0.0,,,,,0,,3,,
Raw,11624869,11628499000000,,,-1291005709935689216,0.0,74.62625217158347,-16.073011926264453,19.70376651706262,161,6,0.0,207,39320370324892,613,12.1,261.8721618652344,15.506501197814941,0,0.0,0.0,,,,,0,,3,,
Raw,11624869,11628499000000,,,-1291005709935689216,0.0,74.62625217158347,-16.073011926264453,19.70376651706262,161,9,0.0,207,39320367453867,70,18.6,197.38034057617188,2.707000255584717,0,0.0,0.0,,,,,0,,3,,
Raw,11624869,11628499000000,,,-1291005709935689216,0.0,74.62625217158347,-16.073011926264453,19.70376651706262,161,7,0.0,207,39320367076740,35,22.5,-499.8432312011719,0.9369999766349792,0,0.0,0.0,,,,,0,,3,,
Raw,11624870,11628499000000,,,-1291005709935689216,0.0,74.62625217158347,-16.073011926264453,19.70376651706262,161,3,0.0,15,374138350850397,405,15.3,-509.7872314453125,12.546500205993652,0,0.0,0.0,,,,,0,,1,,
Raw,11624870,11628499000000,,,-1291005709935689216,0.0,74.62625217158347,-16.073011926264453,19.70376651706262,161,10,0.0,15,374138358294731,1178,15.8,640.7092895507812,9.833500862121582,0,0.0,0.0,,,,,0,,1,,
Raw,11624870,11628499000000,,,-1291005709935689216,0.0,74.62625217158347,-16.073011926264453,19.70376651706262,161,16,0.0,15,374138356571894,17,28.6,-674.4388427734375,0.4805000126361847,0,0.0,0.0,,,,,0,,1,,
Raw,11624870,11628499000000,,,-1291005709935689216,0.0,74.62625217158347,-16.073011926264453,19.70376651706262,161,22,0.0,15,374138354261470,40,21.2,-313.3946533203125,0.8675000071525574,0,0.0,0.0,,,,,0,,1,,
Raw,11624870,11628499000000,,,-1291005709935689216,0.0,74.62625217158347,-16.073011926264453,19.70376651706262,161,25,0.0,15,374138358884998,121,15.5,614.11572265625,4.2835001945495605,0,0.0,0.0,,,,,0,,1,,
Raw,11624870,11628499000000,,,-1291005709935689216,0.0,74.62625217158347,-16.073011926264453,19.70376651706262,161,26,0.0,15,374138365123905,354,16.7,-333.737060546875,11.67400074005127,0,0.0,0.0,,,,,0,,1,,
Raw,11624871,11628499000000,,,-1291005709935689216,0.0,74.62625217158347,-16.073011926264453,19.70376651706262,161,31,0.0,15,374138363606061,301,13.9,21.408037185668945,9.731000900268555,0,0.0,0.0,,,,,0,,1,,
Raw,11624871,11628499000000,,,-1291005709935689216,0.0,74.62625217158347,-16.073011926264453,19.70376651706262,161,32,0.0,15,374138366410762,53,19.3,-5.185502529144287,1.005500078201294,0,0.0,0.0,,,,,0,,1,,
Raw,11624871,11628499000000,,,-1291005709935689216,0.0,74.62625217158347,-16.073011926264453,19.70376651706262,161,2,0.0,783,374124309733043,38,23.4,-5.338697910308838,2.115000009536743,0,0.0,0.0,,,,,0,,5,,
Raw,11624871,11628499000000,,,-1291005709935689216,0.0,74.62625217158347,-16.073011926264453,19.70376651706262,161,5,0.0,783,374124301562038,13,31.4,-0.2592533230781555,0.33500000834465027,0,0.0,0.0,,,,,0,,5,,
Raw,11624871,11628499000000,,,-1291005709935689216,0.0,74.62625217158347,-16.073011926264453,19.70376651706262,161,6,0.0,15,374124313473409,97,16.0,-132.632080078125,3.3459999561309814,0,0.0,0.0,,,,,0,,5,,
Raw,11624871,11628499000000,,,-1291005709935689216,0.0,74.62625217158347,-16.073011926264453,19.70376651706262,161,7,0.0,15,374124313417988,519,12.0,-60.30039978027344,13.81100082397461,0,0.0,0.0,,,,,0,,5,,
Raw,11624871,11628499000000,,,-1291005709935689216,0.0,74.62625217158347,-16.073011926264453,19.70376651706262,161,9,0.0,15,374124311577349,1391,13.8,-138.51808166503906,24.523000717163086,0,0.0,0.0,,,,,0,,5,,
Raw,11624872,11628499000000,,,-1291005709935689216,0.0,74.62625217158347,-16.073011926264453,19.70376651706262,161,10,0.0,15,374124309412158,61,18.9,-123.79826354980469,0.8600000143051147,0,0.0,0.0,,,,,0,,5,,
Raw,11624872,11628499000000,,,-1291005709935689216,0.0,74.62625217158347,-16.073011926264453,19.70376651706262,161,13,0.0,15,374124299322125,40,21.4,281.79876708984375,0.7249999642372131,0,0.0,0.0,,,,,0,,5,,
Raw,11624872,11628499000000,,,-1291005709935689216,0.0,74.62625217158347,-16.073011926264453,19.70376651706262,161,21,0.0,15,374124360817006,35,22.8,-49.96867752075195,0.6165000200271606,0,0.0,0.0,,,,,0,,5,,
Raw,11624872,11628499000000,,,-1291005709935689216,0.0,74.62625217158347,-16.073011926264453,19.70376651706262,161,24,0.0,15,374124344160123,14,30.7,-375.1505432128906,0.03180000185966492,0,0.0,0.0,,,,,0,,5,,
Raw,11624872,11628499000000,,,-1291005709935689216,0.0,74.62625217158347,-16.073011926264453,19.70376651706262,161,26,0.0,15,374124357651776,21,26.9,-167.2279815673828,0.4819999933242798,0,0.0,0.0,,,,,0,,5,,
Raw,11624872,11628499000000,,,-1291005709935689216,0.0,74.62625217158347,-16.073011926264453,19.70376651706262,161,5,0.0,7183,374138350329681,220,13.5,-420.1589050292969,7.2835001945495605,0,0.0,0.0,,,,,0,,6,,
Raw,11624873,11628499000000,,,-1291005709935689216,0.0,74.62625217158347,-16.073011926264453,19.70376651706262,161,24,0.0,7183,374138355796917,35,22.7,-1.5413788557052612,0.6389999985694885,0,0.0,0.0,,,,,0,,6,,
Raw,11624873,11628499000000,,,-1291005709935689216,0.0,74.62625217158347,-16.073011926264453,19.70376651706262,161,25,0.0,7183,374138345955511,14,30.3,-381.95745849609375,0.3619999885559082,0,0.0,0.0,,,,,0,,6,,
Fix,gps,22.925467,120.294569,50.166565,0.000000,10.720000,1606982121000
NMEA,$GPGSV,3,1,11,03,04,320,15,10,27,180,16,16,20,216,29,22,18,303,21*72,1606982120512
NMEA,$GPGSV,3,2,11,25,28,036,16,26,54,229,17,31,48,336,14,32,68,067,19*76,1606982120512
NMEA,$GPGSV,3,3,11,20,00,000,,23,04,163,,29,27,091,*4C,1606982120512
NMEA,$GLGSV,3,1,10,74,29,258,29,75,00,000,31,70,72,163,12,73,52,324,19*61,1606982120512
NMEA,$GLGSV,3,2,10,71,49,330,23,82,01,070,,80,23,025,,69,11,153,*65,1606982120514
NMEA,$GLGSV,3,3,10,83,01,112,,72,02,331,*6A,1606982120514
NMEA,$GAGSV,2,1,06,05,38,323,14,24,71,282,23,25,23,233,30,04,29,132,*65,1606982120515
NMEA,$GAGSV,2,2,06,09,81,075,,31,42,028,*62,1606982120515
NMEA,$PQGSV,1,1,03,193,58,153,19,194,67,039,17,195,28,142,14,0,5*64,1606982120515
NMEA,$PQGSV,4,1,16,02,40,240,23,05,00,000,31,06,66,029,16,07,73,206,12,0,4*61,1606982120515
NMEA,$PQGSV,4,2,16,09,50,337,14,10,45,216,19,13,08,213,21,21,66,279,23,0,4*6E,1606982120516
NMEA,$PQGSV,4,3,16,24,01,250,31,26,39,278,27,01,51,129,,03,59,202,,0,4*6F,1606982120516
NMEA,$PQGSV,4,4,16,04,37,115,,08,02,191,,16,64,021,,22,45,165,,0,4*6F,1606982120516
NMEA,$GNGSA,A,3,10,16,22,25,31,32,,,,,,,1.3,0.9,0.9,1*31,1606982120517
NMEA,$GNGSA,A,2,74,,,,,,,,,,,,1.3,0.9,0.9,2*32,1606982120518
NMEA,$GNGSA,A,2,05,25,,,,,,,,,,,1.3,0.9,0.9,3*32,1606982120518
NMEA,$PQGSA,A,2,13,26,,,,,,,,,,,1.3,0.9,0.9,4*39,1606982120518
NMEA,$GNVTG,,T,,M,0.0,N,0.0,K,A*3D,1606982120518
NMEA,$GNRMC,075521.00,A,2255.528041,N,12017.674122,E,0.0,,031220,2.8,W,A*10,1606982120518
NMEA,$GNGGA,075521.00,2255.528041,N,12017.674122,E,1,11,0.9,32.7,M,17.5,M,,*41,1606982120519
Raw,11625583,11629499000000,,,-1291005709935689472,0.0,74.81356442440301,-17.688318554107525,17.255993877481682,161,10,0.0,207,39321362379965,19,27.8,-287.02490234375,0.2443000078201294,0,0.0,0.0,,,,,0,,3,,
Raw,11625583,11629499000000,,,-1291005709935689472,0.0,74.81356442440301,-17.688318554107525,17.255993877481682,161,11,0.0,207,39321355491946,14,30.8,-456.4183654785156,0.2483000010251999,0,0.0,0.0,,,,,0,,3,,
Raw,11625584,11629499000000,,,-1291005709935689472,0.0,74.81356442440301,-17.688318554107525,17.255993877481682,161,6,0.0,207,39321370324018,715,12.1,261.8721618652344,17.006500244140625,0,0.0,0.0,,,,,0,,3,,
Raw,11625584,11629499000000,,,-1291005709935689472,0.0,74.81356442440301,-17.688318554107525,17.255993877481682,161,9,0.0,207,39321367453337,96,15.9,195.39529418945312,2.2170000076293945,0,0.0,0.0,,,,,0,,3,,
Raw,11625584,11629499000000,,,-1291005709935689472,0.0,74.81356442440301,-17.688318554107525,17.255993877481682,161,7,0.0,207,39321367078525,40,21.2,-500.2542724609375,0.996999979019165,0,0.0,0.0,,,,,0,,3,,
Raw,11625584,11629499000000,,,-1291005709935689472,0.0,74.81356442440301,-17.688318554107525,17.255993877481682,161,3,0.0,15,374139350852097,489,15.3,-509.7872314453125,14.046500205993652,0,0.0,0.0,,,,,0,,1,,
Raw,11625584,11629499000000,,,-1291005709935689472,0.0,74.81356442440301,-17.688318554107525,17.255993877481682,161,10,0.0,15,374139358292593,329,15.9,640.7188110351562,10.958500862121582,0,0.0,0.0,,,,,0,,1,,
Raw,11625584,11629499000000,,,-1291005709935689472,0.0,74.81356442440301,-17.688318554107525,17.255993877481682,161,16,0.0,15,374139356574151,19,27.8,-674.3580932617188,0.06530000269412994,0,0.0,0.0,,,,,0,,1,,
Raw,11625585,11629499000000,,,-1291005709935689472,0.0,74.81356442440301,-17.688318554107525,17.255993877481682,161,22,0.0,15,374139354262456,46,20.7,-312.63348388671875,0.8675000071525574,0,0.0,0.0,,,,,0,,1,,
Raw,11625585,11629499000000,,,-1291005709935689472,0.0,74.81356442440301,-17.688318554107525,17.255993877481682,161,25,0.0,15,374139358882985,84,16.0,614.7532348632812,2.0334999561309814,0,0.0,0.0,,,,,0,,1,,
Raw,11625585,11629499000000,,,-1291005709935689472,0.0,74.81356442440301,-17.688318554107525,17.255993877481682,161,26,0.0,15,374139365125019,433,16.7,-333.737060546875,13.17400074005127,0,0.0,0.0,,,,,0,,1,,
Raw,11625585,11629499000000,,,-1291005709935689472,0.0,74.81356442440301,-17.688318554107525,17.255993877481682,161,31,0.0,15,374139363605989,366,13.9,21.408037185668945,11.231000900268555,0,0.0,0.0,,,,,0,,1,,
Raw,11625585,11629499000000,,,-1291005709935689472,0.0,74.81356442440301,-17.688318554107525,17.255993877481682,161,32,0.0,15,374139366410764,70,17.5,-3.425286054611206,1.0855000019073486,0,0.0,0.0,,,,,0,,1,,
Raw,11625585,11629499000000,,,-1291005709935689472,0.0,74.81356442440301,-17.688318554107525,17.255993877481682,161,2,0.0,783,374125309733061,55,23.4,-5.338697910308838,3.6150002479553223,0,0.0,0.0,,,,,0,,5,,
Raw,11625586,11629499000000,,,-1291005709935689472,0.0,74.81356442440301,-17.688318554107525,17.255993877481682,161,5,0.0,783,374125301562044,12,32.0,1.4306942224502563,0.3050000071525574,0,0.0,0.0,,,,,0,,5,,
Raw,11625586,11629499000000,,,-1291005709935689472,0.0,74.81356442440301,-17.688318554107525,17.255993877481682,161,6,0.0,15,374125313473884,84,16.0,-132.44003295898438,1.8459999561309814,0,0.0,0.0,,,,,0,,5,,
Raw,11625586,11629499000000,,,-1291005709935689472,0.0,74.81356442440301,-17.688318554107525,17.255993877481682,161,7,0.0,15,374125313418189,611,12.0,-60.30039978027344,15.31100082397461,0,0.0,0.0,,,,,0,,5,,
Raw,11625586,11629499000000,,,-1291005709935689472,0.0,74.81356442440301,-17.688318554107525,17.255993877481682,161,9,0.0,15,374125311577811,1556,13.8,-138.51808166503906,26.023000717163086,0,0.0,0.0,,,,,0,,5,,
Raw,11625586,11629499000000,,,-1291005709935689472,0.0,74.81356442440301,-17.688318554107525,17.255993877481682,161,10,0.0,15,374125309412561,46,20.0,-124.66243743896484,0.800000011920929,0,0.0,0.0,,,,,0,,5,,
Raw,11625587,11629499000000,,,-1291005709935689472,0.0,74.81356442440301,-17.688318554107525,17.255993877481682,161,13,0.0,15,374125299321144,46,20.4,281.3570556640625,0.7849999666213989,0,0.0,0.0,,,,,0,,5,,
Raw,11625587,11629499000000,,,-1291005709935689472,0.0,74.81356442440301,-17.688318554107525,17.255993877481682,161,21,0.0,15,374125360817190,35,22.9,-49.91106033325195,0.6165000200271606,0,0.0,0.0,,,,,0,,5,,
Raw,11625587,11629499000000,,,-1291005709935689472,0.0,74.81356442440301,-17.688318554107525,17.255993877481682,161,24,0.0,15,374125344161379,14,30.4,-375.1112365722656,0.03180000185966492,0,0.0,0.0,,,,,0,,5,,
Raw,11625587,11629499000000,,,-1291005709935689472,0.0,74.81356442440301,-17.688318554107525,17.255993877481682,161,26,0.0,15,374125357652333,21,26.9,-167.06314086914062,0.13670000433921814,0,0.0,0.0,,,,,0,,5,,
Raw,11625587,11629499000000,,,-1291005709935689472,0.0,74.81356442440301,-17.688318554107525,17.255993877481682,161,5,0.0,7183,374139350331082,269,13.5,-420.1589050292969,8.783500671386719,0,0.0,0.0,,,,,0,,6,,
Raw,11625587,11629499000000,,,-1291005709935689472,0.0,74.81356442440301,-17.688318554107525,17.255993877481682,161,24,0.0,7183,374139355796917,35,22.3,-1.7411872148513794,0.6389999985694885,0,0.0,0.0,,,,,0,,6,,
Raw,11625588,11629499000000,,,-1291005709935689472,0.0,74.81356442440301,-17.688318554107525,17.255993877481682,161,25,0.0,7183,374139345956776,16,29.5,-381.77130126953125,0.05220000073313713,0,0.0,0.0,,,,,0,,6,,
Fix,gps,22.925468,120.294570,50.086365,0.000000,10.720000,1606982122000
NMEA,$GPGSV,3,1,11,03,04,319,15,10,26,180,16,16,21,216,28,22,19,303,21*78,1606982121511
NMEA,$GPGSV,3,2,11,25,28,036,16,26,55,229,17,31,48,337,14,32,68,070,18*71,1606982121512
NMEA,$GPGSV,3,3,11,20,00,000,,23,03,161,,29,27,091,*49,1606982121513
NMEA,$GLGSV,3,1,10,74,29,258,28,75,00,000,31,70,72,163,12,73,52,324,16*6F,1606982121513
NMEA,$GLGSV,3,2,10,71,49,330,21,82,01,070,,80,23,025,,69,11,153,*67,1606982121513
NMEA,$GLGSV,3,3,10,83,01,112,,72,02,331,*6A,1606982121514
NMEA,$GAGSV,2,1,06,05,38,323,14,24,71,282,22,25,23,233,30,04,29,132,*64,1606982121514
NMEA,$GAGSV,2,2,06,09,81,075,,31,42,028,*62,1606982121514
NMEA,$PQGSV,1,1,03,193,57,153,21,194,67,037,19,195,28,142,14,0,5*60,1606982121514
NMEA,$PQGSV,4,1,16,02,40,240,23,05,00,000,32,06,66,029,16,07,73,208,12,0,4*6C,1606982121514
NMEA,$PQGSV,4,2,16,09,50,337,14,10,45,216,20,13,07,212,20,21,66,277,23,0,4*65,1606982121514
NMEA,$PQGSV,4,3,16,24,01,250,30,26,39,279,27,01,51,129,,03,59,202,,0,4*6F,1606982121515
NMEA,$PQGSV,4,4,16,04,37,115,,08,02,191,,16,65,021,,22,44,165,,0,4*6F,1606982121515
NMEA,$GNGSA,A,3,10,16,22,25,31,32,,,,,,,1.3,0.9,0.9,1*31,1606982121516
NMEA,$GNGSA,A,2,74,,,,,,,,,,,,1.3,0.9,0.9,2*32,1606982121517
NMEA,$GNGSA,A,2,05,25,,,,,,,,,,,1.3,0.9,0.9,3*32,1606982121517
NMEA,$PQGSA,A,2,13,26,,,,,,,,,,,1.3,0.9,0.9,4*39,1606982121517
NMEA,$GNVTG,,T,,M,0.0,N,0.0,K,A*3D,1606982121517
NMEA,$GNRMC,075522.00,A,2255.528058,N,12017.674186,E,0.0,,031220,2.8,W,A*15,1606982121518
NMEA,$GNGGA,075522.00,2255.528058,N,12017.674186,E,1,11,0.9,32.6,M,17.5,M,,*45,1606982121518
Fix,gps,22.925468,120.294570,50.108948,0.000000,10.720000,1606982123000
Raw,11626601,11630499000000,,,-1291005709935689472,0.0,73.39273724937811,-14.845227149913226,17.986694426463995,161,10,0.0,207,39322362380896,19,27.2,-287.5436706542969,0.2443000078201294,0,0.0,0.0,,,,,0,,3,,
Raw,11626602,11630499000000,,,-1291005709935689472,0.0,73.39273724937811,-14.845227149913226,17.986694426463995,161,11,0.0,207,39322355493454,13,31.1,-457.02142333984375,0.24770000576972961,0,0.0,0.0,,,,,0,,3,,
Raw,11626602,11630499000000,,,-1291005709935689472,0.0,73.39273724937811,-14.845227149913226,17.986694426463995,161,6,0.0,207,39322370323144,828,12.1,261.8721618652344,18.506500244140625,0,0.0,0.0,,,,,0,,3,,
Raw,11626603,11630499000000,,,-1291005709935689472,0.0,73.39273724937811,-14.845227149913226,17.986694426463995,161,9,0.0,207,39322367452686,111,15.9,195.39529418945312,3.7170002460479736,0,0.0,0.0,,,,,0,,3,,
Raw,11626603,11630499000000,,,-1291005709935689472,0.0,73.39273724937811,-14.845227149913226,17.986694426463995,161,7,0.0,207,39322367079978,40,21.7,-500.3943786621094,0.996999979019165,0,0.0,0.0,,,,,0,,3,,
Raw,11626604,11630499000000,,,-1291005709935689472,0.0,73.39273724937811,-14.845227149913226,17.986694426463995,161,3,0.0,15,374140350853798,584,15.3,-509.7872314453125,15.546501159667969,0,0.0,0.0,,,,,0,,1,,
Raw,11626604,11630499000000,,,-1291005709935689472,0.0,73.39273724937811,-14.845227149913226,17.986694426463995,161,10,0.0,15,374140358290297,73,17.0,638.9014892578125,1.8834999799728394,0,0.0,0.0,,,,,0,,1,,
Raw,11626605,11630499000000,,,-1291005709935689472,0.0,73.39273724937811,-14.845227149913226,17.986694426463995,161,16,0.0,15,374140356576415,21,26.4,-674.8955688476562,0.6004999876022339,0,0.0,0.0,,,,,0,,1,,
Raw,11626605,11630499000000,,,-1291005709935689472,0.0,73.39273724937811,-14.845227149913226,17.986694426463995,161,22,0.0,15,374140354263544,46,20.4,-313.46124267578125,0.9375,0,0.0,0.0,,,,,0,,1,,
Raw,11626606,11630499000000,,,-1291005709935689472,0.0,73.39273724937811,-14.845227149913226,17.986694426463995,161,25,0.0,15,374140358880934,98,16.0,614.7532348632812,3.5335001945495605,0,0.0,0.0,,,,,0,,1,,
Raw,11626606,11630499000000,,,-1291005709935689472,0.0,73.39273724937811,-14.845227149913226,17.986694426463995,161,26,0.0,15,374140365126132,522,16.7,-333.737060546875,14.67400074005127,0,0.0,0.0,,,,,0,,1,,
Raw,11626606,11630499000000,,,-1291005709935689472,0.0,73.39273724937811,-14.845227149913226,17.986694426463995,161,31,0.0,15,374140363605918,441,13.9,21.408037185668945,12.731000900268555,0,0.0,0.0,,,,,0,,1,,
Raw,11626607,11630499000000,,,-1291005709935689472,0.0,73.39273724937811,-14.845227149913226,17.986694426463995,161,32,0.0,15,374140366410636,70,17.4,-4.452871799468994,1.1755000352859497,0,0.0,0.0,,,,,0,,1,,
Raw,11626607,11630499000000,,,-1291005709935689472,0.0,73.39273724937811,-14.845227149913226,17.986694426463995,161,2,0.0,783,374126309733079,82,23.4,-5.338697910308838,5.115000247955322,0,0.0,0.0,,,,,0,,5,,
Raw,11626608,11630499000000,,,-1291005709935689472,0.0,73.39273724937811,-14.845227149913226,17.986694426463995,161,5,0.0,783,374126301562034,13,31.2,1.2770626544952393,0.33500000834465027,0,0.0,0.0,,,,,0,,5,,
Raw,11626608,11630499000000,,,-1291005709935689472,0.0,73.39273724937811,-14.845227149913226,17.986694426463995,161,6,0.0,15,374126313474292,80,16.7,-133.8611297607422,1.0959999561309814,0,0.0,0.0,,,,,0,,5,,
Raw,11626609,11630499000000,,,-1291005709935689472,0.0,73.39273724937811,-14.845227149913226,17.986694426463995,161,7,0.0,15,374126313418391,713,12.0,-60.30039978027344,16.81100082397461,0,0.0,0.0,,,,,0,,5,,
Raw,11626609,11630499000000,,,-1291005709935689472,0.0,73.39273724937811,-14.845227149913226,17.986694426463995,161,9,0.0,15,374126311578273,1730,13.8,-138.51808166503906,27.523000717163086,0,0.0,0.0,,,,,0,,5,,
Raw,11626610,11630499000000,,,-1291005709935689472,0.0,73.39273724937811,-14.845227149913226,17.986694426463995,161,10,0.0,15,374126309412973,61,18.7,-125.8050765991211,0.9300000071525574,0,0.0,0.0,,,,,0,,5,,
Raw,11626610,11630499000000,,,-1291005709935689472,0.0,73.39273724937811,-14.845227149913226,17.986694426463995,161,13,0.0,15,374126299320180,53,19.1,280.7713317871094,0.8449999690055847,0,0.0,0.0,,,,,0,,5,,
Raw,11626610,11630499000000,,,-1291005709935689472,0.0,73.39273724937811,-14.845227149913226,17.986694426463995,161,21,0.0,15,374126360817326,35,22.6,-50.88086700439453,0.6664999723434448,0,0.0,0.0,,,,,0,,5,,
Raw,11626611,11630499000000,,,-1291005709935689472,0.0,73.39273724937811,-14.845227149913226,17.986694426463995,161,24,0.0,15,374126344162625,14,30.6,-375.7417297363281,0.03180000185966492,0,0.0,0.0,,,,,0,,5,,
Raw,11626611,11630499000000,,,-1291005709935689472,0.0,73.39273724937811,-14.845227149913226,17.986694426463995,161,26,0.0,15,374126357652883,21,26.8,-167.48023986816406,0.13670000433921814,0,0.0,0.0,,,,,0,,5,,
Raw,11626612,11630499000000,,,-1291005709935689472,0.0,73.39273724937811,-14.845227149913226,17.986694426463995,161,5,0.0,7183,374140350332495,115,14.7,-419.787841796875,2.69350004196167,0,0.0,0.0,,,,,0,,6,,
Raw,11626612,11630499000000,,,-1291005709935689472,0.0,73.39273724937811,-14.845227149913226,17.986694426463995,161,24,0.0,7183,374140355796923,35,22.5,-2.331097364425659,0.6389999985694885,0,0.0,0.0,,,,,0,,6,,
Raw,11626613,11630499000000,,,-1291005709935689472,0.0,73.39273724937811,-14.845227149913226,17.986694426463995,161,25,0.0,7183,374140345958047,16,29.0,-380.18475341796875,0.05220000073313713,0,0.0,0.0,,,,,0,,6,,
NMEA,$GPGSV,3,1,11,03,04,319,15,10,26,180,17,16,21,216,26,22,19,303,20*76,1606982122511
NMEA,$GPGSV,3,2,11,25,28,036,16,26,55,229,17,31,48,337,14,32,68,070,17*7E,1606982122511
NMEA,$GPGSV,3,3,11,20,00,000,,23,03,161,,29,27,091,*49,1606982122511
NMEA,$GLGSV,3,1,10,74,29,258,27,75,00,000,31,70,72,163,12,73,52,324,16*60,1606982122512
NMEA,$GLGSV,3,2,10,71,49,330,22,82,01,070,,80,23,025,,69,11,153,*64,1606982122513
NMEA,$GLGSV,3,3,10,83,01,112,,72,02,331,*6A,1606982122514
NMEA,$GAGSV,2,1,06,05,38,323,15,24,71,282,23,25,23,233,29,04,29,132,*6C,1606982122515
NMEA,$GAGSV,2,2,06,09,81,075,,31,42,028,*62,1606982122515
NMEA,$PQGSV,1,1,03,193,57,153,18,194,67,037,18,195,28,142,14,0,5*6B,1606982122515
NMEA,$PQGSV,4,1,16,02,40,240,23,05,00,000,31,06,66,029,17,07,73,208,12,0,4*6E,1606982122516
NMEA,$PQGSV,4,2,16,09,50,337,14,10,45,216,19,13,07,212,19,21,66,277,23,0,4*65,1606982122516
NMEA,$PQGSV,4,3,16,24,01,250,31,26,39,279,27,01,51,129,,03,59,202,,0,4*6E,1606982122516
NMEA,$PQGSV,4,4,16,04,37,115,,08,02,191,,16,65,021,,22,44,165,,0,4*6F,1606982122517
NMEA,$GNGSA,A,3,10,16,22,25,31,32,,,,,,,1.3,1.0,0.9,1*39,1606982122518
NMEA,$GNGSA,A,2,74,,,,,,,,,,,,1.3,1.0,0.9,2*3A,1606982122518
NMEA,$GNGSA,A,2,05,25,,,,,,,,,,,1.3,1.0,0.9,3*3A,1606982122519
NMEA,$PQGSA,A,2,13,26,,,,,,,,,,,1.3,1.0,0.9,4*31,1606982122519
NMEA,$GNVTG,,T,,M,0.0,N,0.0,K,A*3D,1606982122519
NMEA,$GNRMC,075523.00,A,2255.528068,N,12017.674186,E,0.0,,031220,2.8,W,A*17,1606982122519
NMEA,$GNGGA,075523.00,2255.528068,N,12017.674186,E,1,11,1.0,32.6,M,17.5,M,,*4F,1606982122520
Raw,11627772,11631499000000,,,-1291005709935689472,0.0,72.49945338116959,-17.2361309947682,18.574626529549274,161,10,0.0,207,39323362381920,17,28.3,-287.0472412109375,0.2363000065088272,0,0.0,0.0,,,,,0,,3,,
Raw,11627772,11631499000000,,,-1291005709935689472,0.0,72.49945338116959,-17.2361309947682,18.574626529549274,161,11,0.0,207,39323355494969,12,32.0,-456.4169006347656,0.24640001356601715,0,0.0,0.0,,,,,0,,3,,
Raw,11627773,11631499000000,,,-1291005709935689472,0.0,72.49945338116959,-17.2361309947682,18.574626529549274,161,6,0.0,207,39323370322271,950,12.1,261.8721618652344,20.006500244140625,0,0.0,0.0,,,,,0,,3,,
Raw,11627773,11631499000000,,,-1291005709935689472,0.0,72.49945338116959,-17.2361309947682,18.574626529549274,161,9,0.0,207,39323367451951,73,17.2,196.6499786376953,2.0369999408721924,0,0.0,0.0,,,,,0,,3,,
Raw,11627773,11631499000000,,,-1291005709935689472,0.0,72.49945338116959,-17.2361309947682,18.574626529549274,161,7,0.0,207,39323367081822,31,23.2,-500.3569641113281,0.8769999742507935,0,0.0,0.0,,,,,0,,3,,
Raw,11627773,11631499000000,,,-1291005709935689472,0.0,72.49945338116959,-17.2361309947682,18.574626529549274,161,3,0.0,15,374141350855498,688,15.3,-509.7872314453125,17.04650115966797,0,0.0,0.0,,,,,0,,1,,
Raw,11627773,11631499000000,,,-1291005709935689472,0.0,72.49945338116959,-17.2361309947682,18.574626529549274,161,10,0.0,15,374141358288264,53,19.8,640.8043823242188,0.9584999680519104,0,0.0,0.0,,,,,0,,1,,
Raw,11627773,11631499000000,,,-1291005709935689472,0.0,72.49945338116959,-17.2361309947682,18.574626529549274,161,16,0.0,15,374141356578709,19,27.0,-675.1512451171875,0.06530000269412994,0,0.0,0.0,,,,,0,,1,,
Raw,11627773,11631499000000,,,-1291005709935689472,0.0,72.49945338116959,-17.2361309947682,18.574626529549274,161,22,0.0,15,374141354264593,70,17.6,-312.2338562011719,1.097499966621399,0,0.0,0.0,,,,,0,,1,,
Raw,11627774,11631499000000,,,-1291005709935689472,0.0,72.49945338116959,-17.2361309947682,18.574626529549274,161,25,0.0,15,374141358878967,84,16.1,615.4192504882812,2.0334999561309814,0,0.0,0.0,,,,,0,,1,,
Raw,11627774,11631499000000,,,-1291005709935689472,0.0,72.49945338116959,-17.2361309947682,18.574626529549274,161,26,0.0,15,374141365127245,621,16.7,-333.737060546875,16.173999786376953,0,0.0,0.0,,,,,0,,1,,
Raw,11627774,11631499000000,,,-1291005709935689472,0.0,72.49945338116959,-17.2361309947682,18.574626529549274,161,31,0.0,15,374141363605846,526,13.9,21.408037185668945,14.231000900268555,0,0.0,0.0,,,,,0,,1,,
Raw,11627774,11631499000000,,,-1291005709935689472,0.0,72.49945338116959,-17.2361309947682,18.574626529549274,161,32,0.0,15,374141366410651,79,17.4,-4.452871799468994,2.6755001544952393,0,0.0,0.0,,,,,0,,1,,
Raw,11627774,11631499000000,,,-1291005709935689472,0.0,72.49945338116959,-17.2361309947682,18.574626529549274,161,2,0.0,783,374127309733057,42,22.8,-0.48970067501068115,2.115000009536743,0,0.0,0.0,,,,,0,,5,,
Raw,11627775,11631499000000,,,-1291005709935689472,0.0,72.49945338116959,-17.2361309947682,18.574626529549274,161,5,0.0,783,374127301562042,14,30.9,1.6131318807601929,0.33500000834465027,0,0.0,0.0,,,,,0,,5,,
Raw,11627775,11631499000000,,,-1291005709935689472,0.0,72.49945338116959,-17.2361309947682,18.574626529549274,161,6,0.0,15,374127313474739,89,16.7,-133.8611297607422,2.5959999561309814,0,0.0,0.0,,,,,0,,5,,
Raw,11627775,11631499000000,,,-1291005709935689472,0.0,72.49945338116959,-17.2361309947682,18.574626529549274,161,7,0.0,15,374127313418592,825,12.0,-60.30039978027344,18.31100082397461,0,0.0,0.0,,,,,0,,5,,
Raw,11627775,11631499000000,,,-1291005709935689472,0.0,72.49945338116959,-17.2361309947682,18.574626529549274,161,9,0.0,15,374127311578735,1915,13.8,-138.51808166503906,29.023000717163086,0,0.0,0.0,,,,,0,,5,,
Raw,11627775,11631499000000,,,-1291005709935689472,0.0,72.49945338116959,-17.2361309947682,18.574626529549274,161,10,0.0,15,374127309413427,53,19.3,-124.9985122680664,0.8600000143051147,0,0.0,0.0,,,,,0,,5,,
Raw,11627775,11631499000000,,,-1291005709935689472,0.0,72.49945338116959,-17.2361309947682,18.574626529549274,161,13,0.0,15,374127299319325,61,18.0,281.7891540527344,0.9149999618530273,0,0.0,0.0,,,,,0,,5,,
Raw,11627775,11631499000000,,,-1291005709935689472,0.0,72.49945338116959,-17.2361309947682,18.574626529549274,161,21,0.0,15,374127360817496,35,22.6,-48.90285873413086,0.6664999723434448,0,0.0,0.0,,,,,0,,5,,
Raw,11627776,11631499000000,,,-1291005709935689472,0.0,72.49945338116959,-17.2361309947682,18.574626529549274,161,24,0.0,15,374127344163879,14,30.6,-375.14093017578125,0.03180000185966492,0,0.0,0.0,,,,,0,,5,,
Raw,11627776,11631499000000,,,-1291005709935689472,0.0,72.49945338116959,-17.2361309947682,18.574626529549274,161,26,0.0,15,374127357653461,21,26.7,-167.58201599121094,0.13670000433921814,0,0.0,0.0,,,,,0,,5,,
Raw,11627776,11631499000000,,,-1291005709935689472,0.0,72.49945338116959,-17.2361309947682,18.574626529549274,161,5,0.0,7183,374141350333895,135,14.7,-419.787841796875,4.19350004196167,0,0.0,0.0,,,,,0,,6,,
Raw,11627776,11631499000000,,,-1291005709935689472,0.0,72.49945338116959,-17.2361309947682,18.574626529549274,161,24,0.0,7183,374141355796913,40,21.9,-1.1607913970947266,0.6889999508857727,0,0.0,0.0,,,,,0,,6,,
Raw,11627776,11631499000000,,,-1291005709935689472,0.0,72.49945338116959,-17.2361309947682,18.574626529549274,161,25,0.0,7183,374141345959330,16,29.0,-380.880126953125,0.06720000505447388,0,0.0,0.0,,,,,0,,6,,
Fix,gps,22.925468,120.294571,49.973633,0.000000,10.720000,1606982124000
NMEA,$GPGSV,3,1,11,03,04,319,15,10,26,180,20,16,21,216,27,22,19,303,18*78,1606982123524
NMEA,$GPGSV,3,2,11,25,28,036,16,26,55,229,17,31,48,337,14,32,68,070,17*7E,1606982123525
NMEA,$GPGSV,3,3,11,20,00,000,,23,03,161,,29,27,091,*49,1606982123525
NMEA,$GLGSV,3,1,10,74,29,258,28,75,00,000,32,70,72,163,12,73,52,324,17*6D,1606982123526
NMEA,$GLGSV,3,2,10,71,49,330,23,82,01,070,,80,23,025,,69,11,153,*65,1606982123527
NMEA,$GLGSV,3,3,10,83,01,112,,72,02,331,*6A,1606982123528
NMEA,$GAGSV,2,1,06,05,38,323,15,24,71,282,22,25,23,233,29,04,29,132,*6D,1606982123528
NMEA,$GAGSV,2,2,06,09,81,075,,31,42,028,*62,1606982123529
NMEA,$PQGSV,1,1,03,193,57,153,17,194,67,037,18,195,28,142,14,0,5*64,1606982123533
NMEA,$PQGSV,4,1,16,02,40,240,23,05,00,000,31,06,66,029,17,07,73,208,12,0,4*6E,1606982123536
NMEA,$PQGSV,4,2,16,09,50,337,14,10,45,216,19,13,07,212,18,21,66,277,23,0,4*64,1606982123537
NMEA,$PQGSV,4,3,16,24,01,250,31,26,39,279,27,01,51,129,,03,59,202,,0,4*6E,1606982123538
NMEA,$PQGSV,4,4,16,04,37,115,,08,02,191,,16,65,021,,22,44,165,,0,4*6F,1606982123540
NMEA,$GNGSA,A,3,10,16,22,25,32,,,,,,,,1.3,1.0,0.9,1*3B,1606982123542
NMEA,$GNGSA,A,2,74,,,,,,,,,,,,1.3,1.0,0.9,2*3A,1606982123543
NMEA,$GNGSA,A,2,05,25,,,,,,,,,,,1.3,1.0,0.9,3*3A,1606982123544
NMEA,$PQGSA,A,2,13,26,,,,,,,,,,,1.3,1.0,0.9,4*31,1606982123544
NMEA,$GNVTG,,T,,M,0.0,N,0.0,K,A*3D,1606982123545
NMEA,$GNRMC,075524.00,A,2255.528102,N,12017.674260,E,0.0,,031220,2.8,W,A*16,1606982123545
NMEA,$GNGGA,075524.00,2255.528102,N,12017.674260,E,1,10,1.0,32.5,M,17.5,M,,*4C,1606982123546
Fix,gps,22.925469,120.294571,49.995728,0.000000,10.720000,1606982125000
Raw,11628606,11632499000000,,,-1291005709935689472,0.0,70.45326492516324,-16.83439273987364,17.54293523159446,161,10,0.0,207,39324362382847,19,27.5,-285.858642578125,0.2443000078201294,0,0.0,0.0,,,,,0,,3,,
Raw,11628606,11632499000000,,,-1291005709935689472,0.0,70.45326492516324,-16.83439273987364,17.54293523159446,161,11,0.0,207,39324355496484,13,31.4,-455.31317138671875,0.24770000576972961,0,0.0,0.0,,,,,0,,3,,
Raw,11628607,11632499000000,,,-1291005709935689472,0.0,70.45326492516324,-16.83439273987364,17.54293523159446,161,6,0.0,207,39324370321397,1083,12.1,261.8721618652344,21.506500244140625,0,0.0,0.0,,,,,0,,3,,
Raw,11628607,11632499000000,,,-1291005709935689472,0.0,70.45326492516324,-16.83439273987364,17.54293523159446,161,9,0.0,207,39324367451296,88,17.2,196.6499786376953,3.5370001792907715,0,0.0,0.0,,,,,0,,3,,
Raw,11628607,11632499000000,,,-1291005709935689472,0.0,70.45326492516324,-16.83439273987364,17.54293523159446,161,7,0.0,207,39324367083418,53,19.5,-498.94659423828125,1.1269999742507935,0,0.0,0.0,,,,,0,,3,,
Raw,11628607,11632499000000,,,-1291005709935689472,0.0,70.45326492516324,-16.83439273987364,17.54293523159446,161,3,0.0,15,374142350857199,802,15.3,-509.7872314453125,18.54650115966797,0,0.0,0.0,,,,,0,,1,,
Raw,11628607,11632499000000,,,-1291005709935689472,0.0,70.45326492516324,-16.83439273987364,17.54293523159446,161,10,0.0,15,374142358286046,61,18.7,641.8510131835938,1.0234999656677246,0,0.0,0.0,,,,,0,,1,,
Raw,11628608,11632499000000,,,-1291005709935689472,0.0,70.45326492516324,-16.83439273987364,17.54293523159446,161,16,0.0,15,374142356580952,21,26.4,-673.259033203125,0.6004999876022339,0,0.0,0.0,,,,,0,,1,,
Raw,11628608,11632499000000,,,-1291005709935689472,0.0,70.45326492516324,-16.83439273987364,17.54293523159446,161,22,0.0,15,374142354265587,61,18.0,-311.3965759277344,1.097499966621399,0,0.0,0.0,,,,,0,,1,,
Raw,11628608,11632499000000,,,-1291005709935689472,0.0,70.45326492516324,-16.83439273987364,17.54293523159446,161,25,0.0,15,374142358876914,98,16.1,615.4192504882812,3.5335001945495605,0,0.0,0.0,,,,,0,,1,,
Raw,11628608,11632499000000,,,-1291005709935689472,0.0,70.45326492516324,-16.83439273987364,17.54293523159446,161,26,0.0,15,374142365128358,730,16.7,-333.737060546875,17.674001693725586,0,0.0,0.0,,,,,0,,1,,
Raw,11628608,11632499000000,,,-1291005709935689472,0.0,70.45326492516324,-16.83439273987364,17.54293523159446,161,31,0.0,15,374142363605775,621,13.9,21.408037185668945,15.731000900268555,0,0.0,0.0,,,,,0,,1,,
Raw,11628609,11632499000000,,,-1291005709935689472,0.0,70.45326492516324,-16.83439273987364,17.54293523159446,161,32,0.0,15,374142366410666,98,17.4,-4.452871799468994,4.17549991607666,0,0.0,0.0,,,,,0,,1,,
Raw,11628610,11632499000000,,,-1291005709935689472,0.0,70.45326492516324,-16.83439273987364,17.54293523159446,161,2,0.0,783,374128309733059,59,22.8,-0.48970067501068115,3.6150002479553223,0,0.0,0.0,,,,,0,,5,,
Raw,11628610,11632499000000,,,-1291005709935689472,0.0,70.45326492516324,-16.83439273987364,17.54293523159446,161,5,0.0,783,374128301562043,14,30.0,-0.7969639301300049,0.36500000953674316,0,0.0,0.0,,,,,0,,5,,
Raw,11628610,11632499000000,,,-1291005709935689472,0.0,70.45326492516324,-16.83439273987364,17.54293523159446,161,6,0.0,15,374128313475185,108,16.7,-133.8611297607422,4.0960001945495605,0,0.0,0.0,,,,,0,,5,,
Raw,11628610,11632499000000,,,-1291005709935689472,0.0,70.45326492516324,-16.83439273987364,17.54293523159446,161,7,0.0,15,374128313418793,948,12.0,-60.30039978027344,19.81100082397461,0,0.0,0.0,,,,,0,,5,,
Raw,11628610,11632499000000,,,-1291005709935689472,0.0,70.45326492516324,-16.83439273987364,17.54293523159446,161,9,0.0,15,374128311579197,2109,13.8,-138.51808166503906,30.523000717163086,0,0.0,0.0,,,,,0,,5,,
Raw,11628611,11632499000000,,,-1291005709935689472,0.0,70.45326492516324,-16.83439273987364,17.54293523159446,161,10,0.0,15,374128309413869,70,17.7,-124.13433074951172,1.0099999904632568,0,0.0,0.0,,,,,0,,5,,
Raw,11628611,11632499000000,,,-1291005709935689472,0.0,70.45326492516324,-16.83439273987364,17.54293523159446,161,13,0.0,15,374128299318319,61,18.4,282.7877502441406,0.9149999618530273,0,0.0,0.0,,,,,0,,5,,
Raw,11628611,11632499000000,,,-1291005709935689472,0.0,70.45326492516324,-16.83439273987364,17.54293523159446,161,21,0.0,15,374128360817693,40,21.9,-48.4035530090332,0.6664999723434448,0,0.0,0.0,,,,,0,,5,,
Raw,11628611,11632499000000,,,-1291005709935689472,0.0,70.45326492516324,-16.83439273987364,17.54293523159446,161,24,0.0,15,374128344165132,14,30.8,-374.0831298828125,0.03180000185966492,0,0.0,0.0,,,,,0,,5,,
Raw,11628611,11632499000000,,,-1291005709935689472,0.0,70.45326492516324,-16.83439273987364,17.54293523159446,161,26,0.0,15,374128357653999,21,26.5,-166.1492156982422,0.13670000433921814,0,0.0,0.0,,,,,0,,5,,
Raw,11628612,11632499000000,,,-1291005709935689472,0.0,70.45326492516324,-16.83439273987364,17.54293523159446,161,5,0.0,7183,374142350335296,164,14.7,-419.787841796875,5.69350004196167,0,0.0,0.0,,,,,0,,6,,
Raw,11628612,11632499000000,,,-1291005709935689472,0.0,70.45326492516324,-16.83439273987364,17.54293523159446,161,24,0.0,7183,374142355796925,35,22.2,-0.2568964660167694,0.6389999985694885,0,0.0,0.0,,,,,0,,6,,
Raw,11628612,11632499000000,,,-1291005709935689472,0.0,70.45326492516324,-16.83439273987364,17.54293523159446,161,25,0.0,7183,374142345960588,17,28.9,-381.5047912597656,0.058800000697374344,0,0.0,0.0,,,,,0,,6,,
NMEA,$GPGSV,3,1,11,03,04,319,15,10,26,180,19,16,21,216,26,22,19,303,18*73,1606982124512
NMEA,$GPGSV,3,2,11,25,28,036,16,26,55,229,17,31,48,337,14,32,68,070,17*7E,1606982124512
NMEA,$GPGSV,3,3,11,20,00,000,,23,03,161,,29,27,091,*49,1606982124512
NMEA,$GLGSV,3,1,10,74,29,258,28,75,00,000,31,70,72,163,12,73,52,324,17*6E,1606982124512
NMEA,$GLGSV,3,2,10,71,49,330,20,82,01,070,,80,23,025,,69,11,153,*66,1606982124512
NMEA,$GLGSV,3,3,10,83,01,112,,72,02,331,*6A,1606982124513
NMEA,$GAGSV,2,1,06,05,38,323,15,24,71,282,22,25,23,233,29,04,29,132,*6D,1606982124513
NMEA,$GAGSV,2,2,06,09,81,075,,31,42,028,*62,1606982124513
NMEA,$PQGSV,1,1,03,193,57,153,17,194,67,037,19,195,28,142,14,0,5*65,1606982124513
NMEA,$PQGSV,4,1,16,02,40,240,23,05,00,000,30,06,66,029,17,07,73,208,12,0,4*6F,1606982124516
NMEA,$PQGSV,4,2,16,09,50,337,14,10,45,216,18,13,07,212,18,21,66,277,22,0,4*64,1606982124517
NMEA,$PQGSV,4,3,16,24,01,250,31,26,39,279,27,01,51,129,,03,59,202,,0,4*6E,1606982124518
NMEA,$PQGSV,4,4,16,04,37,115,,08,02,191,,16,65,021,,22,44,165,,0,4*6F,1606982124518
NMEA,$GNGSA,A,3,10,16,22,25,32,,,,,,,,1.3,1.0,0.9,1*3B,1606982124519
NMEA,$GNGSA,A,2,74,,,,,,,,,,,,1.3,1.0,0.9,2*3A,1606982124519
NMEA,$GNGSA,A,2,05,25,,,,,,,,,,,1.3,1.0,0.9,3*3A,1606982124519
NMEA,$PQGSA,A,2,13,26,,,,,,,,,,,1.3,1.0,0.9,4*31,1606982124519
NMEA,$GNVTG,,T,,M,0.0,N,0.0,K,A*3D,1606982124520
NMEA,$GNRMC,075525.00,A,2255.528120,N,12017.674265,E,0.0,,031220,2.8,W,A*12,1606982124520
NMEA,$GNGGA,075525.00,2255.528120,N,12017.674265,E,1,10,1.0,32.5,M,17.5,M,,*48,1606982124520
Raw,11629593,11633499000000,,,-1291005709935689472,0.0,71.35106716305017,-13.312238237633382,16.69119802455258,161,10,0.0,207,39325362383786,17,28.4,-284.3728332519531,0.2363000065088272,0,0.0,0.0,,,,,0,,3,,
Raw,11629594,11633499000000,,,-1291005709935689472,0.0,71.35106716305017,-13.312238237633382,16.69119802455258,161,11,0.0,207,39325355497956,13,31.5,-453.8511047363281,0.24770000576972961,0,0.0,0.0,,,,,0,,3,,
Raw,11629594,11633499000000,,,-1291005709935689472,0.0,71.35106716305017,-13.312238237633382,16.69119802455258,161,6,0.0,207,39325370320524,1225,12.1,261.8721618652344,23.006500244140625,0,0.0,0.0,,,,,0,,3,,
Raw,11629595,11633499000000,,,-1291005709935689472,0.0,71.35106716305017,-13.312238237633382,16.69119802455258,161,9,0.0,207,39325367450691,84,16.4,198.39158630371094,2.127000093460083,0,0.0,0.0,,,,,0,,3,,
Raw,11629595,11633499000000,,,-1291005709935689472,0.0,71.35106716305017,-13.312238237633382,16.69119802455258,161,7,0.0,207,39325367085394,46,20.7,-497.1905822753906,1.056999921798706,0,0.0,0.0,,,,,0,,3,,
Raw,11629596,11633499000000,,,-1291005709935689472,0.0,71.35106716305017,-13.312238237633382,16.69119802455258,161,3,0.0,15,374143350858899,926,15.3,-509.7872314453125,20.04650115966797,0,0.0,0.0,,,,,0,,1,,
Raw,11629596,11633499000000,,,-1291005709935689472,0.0,71.35106716305017,-13.312238237633382,16.69119802455258,161,10,0.0,15,374143358284053,53,19.7,642.4314575195312,0.9584999680519104,0,0.0,0.0,,,,,0,,1,,
Raw,11629597,11633499000000,,,-1291005709935689472,0.0,71.35106716305017,-13.312238237633382,16.69119802455258,161,16,0.0,15,374143356583192,24,25.7,-671.8482666015625,0.4058000147342682,0,0.0,0.0,,,,,0,,1,,
Raw,11629597,11633499000000,,,-1291005709935689472,0.0,71.35106716305017,-13.312238237633382,16.69119802455258,161,22,0.0,15,374143354266726,61,18.4,-310.0264587402344,1.097499966621399,0,0.0,0.0,,,,,0,,1,,
Raw,11629598,11633499000000,,,-1291005709935689472,0.0,71.35106716305017,-13.312238237633382,16.69119802455258,161,25,0.0,15,374143358874862,123,16.1,615.4192504882812,5.0335001945495605,0,0.0,0.0,,,,,0,,1,,
Raw,11629598,11633499000000,,,-1291005709935689472,0.0,71.35106716305017,-13.312238237633382,16.69119802455258,161,26,0.0,15,374143365129580,376,8.0,-332.44305419921875,10.624000549316406,0,0.0,0.0,,,,,0,,1,,
Raw,11629599,11633499000000,,,-1291005709935689472,0.0,71.35106716305017,-13.312238237633382,16.69119802455258,161,31,0.0,15,374143363605704,726,13.9,21.408037185668945,17.231000900268555,0,0.0,0.0,,,,,0,,1,,
Raw,11629599,11633499000000,,,-1291005709935689472,0.0,71.35106716305017,-13.312238237633382,16.69119802455258,161,32,0.0,15,374143366410681,127,17.4,-4.452871799468994,5.675500392913818,0,0.0,0.0,,,,,0,,1,,
Raw,11629600,11633499000000,,,-1291005709935689472,0.0,71.35106716305017,-13.312238237633382,16.69119802455258,161,5,0.0,7183,374143350336696,203,14.7,-419.787841796875,7.19350004196167,0,0.0,0.0,,,,,0,,6,,
Raw,11629601,11633499000000,,,-1291005709935689472,0.0,71.35106716305017,-13.312238237633382,16.69119802455258,161,24,0.0,7183,374143355796893,35,22.4,0.98952716588974,0.6389999985694885,0,0.0,0.0,,,,,0,,6,,
Raw,11629602,11633499000000,,,-1291005709935689472,0.0,71.35106716305017,-13.312238237633382,16.69119802455258,161,25,0.0,7183,374143345961854,14,30.4,-378.9983825683594,0.37700000405311584,0,0.0,0.0,,,,,0,,6,,
Fix,gps,22.925469,120.294571,49.990662,0.000000,10.720000,1606982126000
NMEA,$GPGSV,3,1,11,03,04,319,15,10,26,180,20,16,21,216,26,22,19,303,18*79,1606982125508
NMEA,$GPGSV,3,2,11,25,28,036,16,26,55,229,08,31,48,337,14,32,68,070,17*70,1606982125509
NMEA,$GPGSV,3,3,11,20,00,000,,23,03,161,,29,27,091,*49,1606982125509
NMEA,$GLGSV,3,1,10,74,29,258,28,75,00,000,32,70,72,163,12,73,52,324,16*6C,1606982125509
NMEA,$GLGSV,3,2,10,71,49,330,21,82,01,070,,80,23,025,,69,11,153,*67,1606982125509
NMEA,$GLGSV,3,3,10,83,01,112,,72,02,331,*6A,1606982125509
NMEA,$GAGSV,2,1,06,05,38,323,15,24,71,282,22,25,23,233,30,04,29,132,*65,1606982125509
NMEA,$GAGSV,2,2,06,09,81,075,,31,42,028,*62,1606982125510
NMEA,$PQGSV,1,1,03,193,57,153,16,194,67,037,18,195,28,142,14,0,5*65,1606982125510
NMEA,$PQGSV,4,1,16,02,40,240,23,05,00,000,31,06,66,029,15,07,73,208,12,0,4*6C,1606982125510
NMEA,$PQGSV,4,2,16,09,50,337,14,10,45,216,18,13,07,212,17,16,65,021,16,0,4*6A,1606982125510
NMEA,$PQGSV,4,3,16,21,66,277,24,24,01,250,32,26,39,279,27,01,51,129,,0,4*65,1606982125510
NMEA,$PQGSV,4,4,16,03,59,202,,04,37,115,,08,02,191,,22,44,165,,0,4*67,1606982125510
NMEA,$GNGSA,A,3,10,16,22,25,32,,,,,,,,1.3,0.9,0.8,1*32,1606982125511
NMEA,$GNGSA,A,2,74,,,,,,,,,,,,1.3,0.9,0.8,2*33,1606982125511
NMEA,$GNGSA,A,2,05,25,,,,,,,,,,,1.3,0.9,0.8,3*33,1606982125511
NMEA,$PQGSA,A,2,13,26,,,,,,,,,,,1.3,0.9,0.8,4*38,1606982125511
NMEA,$GNVTG,,T,,M,0.0,N,0.0,K,A*3D,1606982125512
NMEA,$GNRMC,075526.00,A,2255.528129,N,12017.674274,E,0.0,,031220,2.8,W,A*18,1606982125512
NMEA,$GNGGA,075526.00,2255.528129,N,12017.674274,E,1,10,0.9,32.5,M,17.5,M,,*4A,1606982125512
NMEA,$GPGSV,3,1,11,03,04,319,15,10,26,180,20,16,21,216,25,22,19,303,18*7A,1606982126510
NMEA,$GPGSV,3,2,11,25,28,036,16,26,55,229,08,31,48,337,12,32,68,070,17*76,1606982126511
Fix,gps,22.925469,120.294571,49.991516,0.000000,10.720000,1606982127000
Raw,11630606,11634499000000,,,-1291005709935689472,0.0,73.40683077927679,-10.06258441748831,19.986833272977925,161,10,0.0,207,39326362384806,17,28.3,-287.0710144042969,0.659500002861023,0,0.0,0.0,,,,,0,,3,,
Raw,11630607,11634499000000,,,-1291005709935689472,0.0,73.40683077927679,-10.06258441748831,19.986833272977925,161,11,0.0,207,39326355499538,13,31.5,-456.44097900390625,0.5889999866485596,0,0.0,0.0,,,,,0,,3,,
Raw,11630607,11634499000000,,,-1291005709935689472,0.0,73.40683077927679,-10.06258441748831,19.986833272977925,161,6,0.0,207,39326370319650,1378,12.1,261.8721618652344,24.506500244140625,0,0.0,0.0,,,,,0,,3,,
Raw,11630607,11634499000000,,,-1291005709935689472,0.0,73.40683077927679,-10.06258441748831,19.986833272977925,161,9,0.0,207,39326367450029,99,16.4,198.39158630371094,3.627000093460083,0,0.0,0.0,,,,,0,,3,,
Raw,11630608,11634499000000,,,-1291005709935689472,0.0,73.40683077927679,-10.06258441748831,19.986833272977925,161,7,0.0,207,39326367086712,70,17.9,-498.98394775390625,1.2869999408721924,0,0.0,0.0,,,,,0,,3,,
Raw,11630608,11634499000000,,,-1291005709935689472,0.0,73.40683077927679,-10.06258441748831,19.986833272977925,161,3,0.0,15,374144350860600,1061,15.3,-509.7872314453125,21.54650115966797,0,0.0,0.0,,,,,0,,1,,
Raw,11630609,11634499000000,,,-1291005709935689472,0.0,73.40683077927679,-10.06258441748831,19.986833272977925,161,10,0.0,15,374144358281910,61,19.7,642.4314575195312,2.4585001468658447,0,0.0,0.0,,,,,0,,1,,
Raw,11630609,11634499000000,,,-1291005709935689472,0.0,73.40683077927679,-10.06258441748831,19.986833272977925,161,16,0.0,15,374144356585402,27,24.9,-674.6862182617188,0.640500009059906,0,0.0,0.0,,,,,0,,1,,
Raw,11630609,11634499000000,,,-1291005709935689472,0.0,73.40683077927679,-10.06258441748831,19.986833272977925,161,22,0.0,15,374144354267760,70,18.4,-310.0264587402344,2.5975000858306885,0,0.0,0.0,,,,,0,,1,,
Raw,11630610,11634499000000,,,-1291005709935689472,0.0,73.40683077927679,-10.06258441748831,19.986833272977925,161,25,0.0,15,374144358872809,157,16.1,615.4192504882812,6.5335001945495605,0,0.0,0.0,,,,,0,,1,,
Raw,11630610,11634499000000,,,-1291005709935689472,0.0,73.40683077927679,-10.06258441748831,19.986833272977925,161,26,0.0,15,374144365130689,444,8.0,-332.44305419921875,12.124000549316406,0,0.0,0.0,,,,,0,,1,,
Raw,11630611,11634499000000,,,-1291005709935689472,0.0,73.40683077927679,-10.06258441748831,19.986833272977925,161,31,0.0,15,374144363605635,287,11.9,20.91327476501465,8.480999946594238,0,0.0,0.0,,,,,0,,1,,
Raw,11630611,11634499000000,,,-1291005709935689472,0.0,73.40683077927679,-10.06258441748831,19.986833272977925,161,32,0.0,15,374144366410696,166,17.4,-4.452871799468994,7.175500392913818,0,0.0,0.0,,,,,0,,1,,
Raw,11630611,11634499000000,,,-1291005709935689472,0.0,73.40683077927679,-10.06258441748831,19.986833272977925,161,2,0.0,783,374130309733095,42,22.4,-0.6529343128204346,2.1649999618530273,0,0.0,0.0,,,,,0,,5,,
Raw,11630612,11634499000000,,,-1291005709935689472,0.0,73.40683077927679,-10.06258441748831,19.986833272977925,161,5,0.0,783,374130301562037,16,29.5,0.04800987243652344,0.3850000202655792,0,0.0,0.0,,,,,0,,5,,
Raw,11630612,11634499000000,,,-1291005709935689472,0.0,73.40683077927679,-10.06258441748831,19.986833272977925,161,6,0.0,15,374130313476125,121,15.0,-130.16436767578125,4.186000347137451,0,0.0,0.0,,,,,0,,5,,
Raw,11630613,11634499000000,,,-1291005709935689472,0.0,73.40683077927679,-10.06258441748831,19.986833272977925,161,7,0.0,15,374130313419195,1222,12.0,-60.30039978027344,22.81100082397461,0,0.0,0.0,,,,,0,,5,,
Raw,11630613,11634499000000,,,-1291005709935689472,0.0,73.40683077927679,-10.06258441748831,19.986833272977925,161,9,0.0,15,374130311580121,2528,13.8,-138.51808166503906,33.52300262451172,0,0.0,0.0,,,,,0,,5,,
Raw,11630613,11634499000000,,,-1291005709935689472,0.0,73.40683077927679,-10.06258441748831,19.986833272977925,161,10,0.0,15,374130309414647,53,19.3,-126.36198425292969,0.8600000143051147,0,0.0,0.0,,,,,0,,5,,
Raw,11630614,11634499000000,,,-1291005709935689472,0.0,73.40683077927679,-10.06258441748831,19.986833272977925,161,13,0.0,15,374130299316419,53,19.4,281.5491027832031,0.8449999690055847,0,0.0,0.0,,,,,0,,5,,
Raw,11630614,11634499000000,,,-1291005709935689472,0.0,73.40683077927679,-10.06258441748831,19.986833272977925,161,16,0.0,15,374130313106864,61,18.1,-120.23593139648438,1.0260000228881836,0,0.0,0.0,,,,,0,,5,,
Raw,11630615,11634499000000,,,-1291005709935689472,0.0,73.40683077927679,-10.06258441748831,19.986833272977925,161,21,0.0,15,374130360817976,35,22.6,-49.190914154052734,0.6664999723434448,0,0.0,0.0,,,,,0,,5,,
Raw,11630615,11634499000000,,,-1291005709935689472,0.0,73.40683077927679,-10.06258441748831,19.986833272977925,161,24,0.0,15,374130344167626,14,30.7,-375.10455322265625,0.03180000185966492,0,0.0,0.0,,,,,0,,5,,
Raw,11630615,11634499000000,,,-1291005709935689472,0.0,73.40683077927679,-10.06258441748831,19.986833272977925,161,26,0.0,15,374130357655109,21,26.6,-167.04556274414062,0.5220000147819519,0,0.0,0.0,,,,,0,,5,,
Raw,11630616,11634499000000,,,-1291005709935689472,0.0,73.40683077927679,-10.06258441748831,19.986833272977925,161,5,0.0,7183,374144350338096,252,14.7,-419.787841796875,8.693500518798828,0,0.0,0.0,,,,,0,,6,,
Raw,11630616,11634499000000,,,-1291005709935689472,0.0,73.40683077927679,-10.06258441748831,19.986833272977925,161,24,0.0,7183,374144355796915,35,22.3,-0.922924280166626,0.6389999985694885,0,0.0,0.0,,,,,0,,6,,
Raw,11630616,11634499000000,,,-1291005709935689472,0.0,73.40683077927679,-10.06258441748831,19.986833272977925,161,25,0.0,7183,374144345963136,16,29.4,-381.5007629394531,0.3919999897480011,0,0.0,0.0,,,,,0,,6,,
NMEA,$GPGSV,3,3,11,20,00,000,,23,03,161,,29,27,091,*49,1606982126511
NMEA,$GLGSV,3,1,10,74,29,258,28,75,00,000,32,70,72,163,12,73,52,324,16*6C,1606982126511
NMEA,$GLGSV,3,2,10,71,49,330,18,82,01,070,,80,23,025,,69,11,153,*6D,1606982126511
NMEA,$GLGSV,3,3,10,83,01,112,,72,02,331,*6A,1606982126512
NMEA,$GAGSV,2,1,06,05,38,323,15,24,71,282,22,25,23,233,29,04,29,132,*6D,1606982126512
NMEA,$GAGSV,2,2,06,09,81,075,,31,42,028,*62,1606982126512
NMEA,$PQGSV,1,1,03,193,57,153,16,194,67,037,18,195,28,142,14,0,5*65,1606982126513
NMEA,$PQGSV,4,1,16,02,40,240,22,05,00,000,30,06,66,029,15,07,73,208,12,0,4*6C,1606982126513
NMEA,$PQGSV,4,2,16,09,50,337,14,10,45,216,19,13,07,212,19,16,65,021,18,0,4*6B,1606982126513
NMEA,$PQGSV,4,3,16,21,66,277,23,24,01,250,31,26,39,279,27,01,51,129,,0,4*61,1606982126513
NMEA,$PQGSV,4,4,16,03,59,202,,04,37,115,,08,02,191,,22,44,165,,0,4*67,1606982126513
NMEA,$GNGSA,A,3,10,16,22,25,26,32,,,,,,,1.3,0.9,0.8,1*36,1606982126515
NMEA,$GNGSA,A,2,74,,,,,,,,,,,,1.3,0.9,0.8,2*33,1606982126515
NMEA,$GNGSA,A,2,05,25,,,,,,,,,,,1.3,0.9,0.8,3*33,1606982126516
NMEA,$PQGSA,A,2,13,26,,,,,,,,,,,1.3,0.9,0.8,4*38,1606982126516
NMEA,$GNVTG,,T,,M,0.0,N,0.0,K,A*3D,1606982126516
NMEA,$GNRMC,075527.00,A,2255.528132,N,12017.674276,E,0.0,,031220,2.8,W,A*11,1606982126516
NMEA,$GNGGA,075527.00,2255.528132,N,12017.674276,E,1,11,0.9,32.5,M,17.5,M,,*42,1606982126517
Fix,gps,22.925469,120.294571,50.016785,0.000000,10.720000,1606982128000
Raw,11631613,11635499000000,,,-1291005709935689472,0.0,74.73889127140865,-16.857918676630135,19.93375477689916,161,10,0.0,207,39327362385737,19,27.3,-285.9072570800781,0.2443000078201294,0,0.0,0.0,,,,,0,,3,,
Raw,11631613,11635499000000,,,-1291005709935689472,0.0,74.73889127140865,-16.857918676630135,19.93375477689916,161,11,0.0,207,39327355501025,13,31.5,-455.45062255859375,0.24770000576972961,0,0.0,0.0,,,,,0,,3,,
Raw,11631614,11635499000000,,,-1291005709935689472,0.0,74.73889127140865,-16.857918676630135,19.93375477689916,161,6,0.0,207,39327370319014,330,10.2,261.937744140625,9.281499862670898,0,0.0,0.0,,,,,0,,3,,
Raw,11631614,11635499000000,,,-1291005709935689472,0.0,74.73889127140865,-16.857918676630135,19.93375477689916,161,9,0.0,207,39327367449367,123,16.4,198.39158630371094,5.127000331878662,0,0.0,0.0,,,,,0,,3,,
Raw,11631615,11635499000000,,,-1291005709935689472,0.0,74.73889127140865,-16.857918676630135,19.93375477689916,161,7,0.0,207,39327367088426,46,20.8,-498.0312194824219,1.056999921798706,0,0.0,0.0,,,,,0,,3,,
Raw,11631615,11635499000000,,,-1291005709935689472,0.0,74.73889127140865,-16.857918676630135,19.93375477689916,161,3,0.0,15,374145350862300,1205,15.3,-509.7872314453125,23.04650115966797,0,0.0,0.0,,,,,0,,1,,
Raw,11631616,11635499000000,,,-1291005709935689472,0.0,74.73889127140865,-16.857918676630135,19.93375477689916,161,10,0.0,15,374145358279718,56,19.3,640.9757080078125,1.7735000848770142,0,0.0,0.0,,,,,0,,1,,
Raw,11631616,11635499000000,,,-1291005709935689472,0.0,74.73889127140865,-16.857918676630135,19.93375477689916,161,16,0.0,15,374145356587692,27,24.4,-673.6967163085938,0.6904999613761902,0,0.0,0.0,,,,,0,,1,,
Raw,11631616,11635499000000,,,-1291005709935689472,0.0,74.73889127140865,-16.857918676630135,19.93375477689916,161,22,0.0,15,374145354268770,73,17.9,-311.6439514160156,1.847499966621399,0,0.0,0.0,,,,,0,,1,,
Raw,11631617,11635499000000,,,-1291005709935689472,0.0,74.73889127140865,-16.857918676630135,19.93375477689916,161,25,0.0,15,374145358870505,125,14.3,616.6181030273438,3.75350022315979,0,0.0,0.0,,,,,0,,1,,
Raw,11631617,11635499000000,,,-1291005709935689472,0.0,74.73889127140865,-16.857918676630135,19.93375477689916,161,26,0.0,15,374145365131798,522,8.0,-332.44305419921875,13.624000549316406,0,0.0,0.0,,,,,0,,1,,
Raw,11631618,11635499000000,,,-1291005709935689472,0.0,74.73889127140865,-16.857918676630135,19.93375477689916,161,31,0.0,15,374145363605599,70,17.4,20.74201011657715,1.1710000038146973,0,0.0,0.0,,,,,0,,1,,
Raw,11631618,11635499000000,,,-1291005709935689472,0.0,74.73889127140865,-16.857918676630135,19.93375477689916,161,32,0.0,15,374145366410707,153,13.2,-3.606065273284912,4.605500221252441,0,0.0,0.0,,,,,0,,1,,
Raw,11631619,11635499000000,,,-1291005709935689472,0.0,74.73889127140865,-16.857918676630135,19.93375477689916,161,2,0.0,783,374131309733097,59,22.4,-0.6529343128204346,3.6650002002716064,0,0.0,0.0,,,,,0,,5,,
Raw,11631619,11635499000000,,,-1291005709935689472,0.0,74.73889127140865,-16.857918676630135,19.93375477689916,161,5,0.0,783,374131301562033,16,29.3,2.4869112968444824,0.3850000202655792,0,0.0,0.0,,,,,0,,5,,
Raw,11631619,11635499000000,,,-1291005709935689472,0.0,74.73889127140865,-16.857918676630135,19.93375477689916,161,6,0.0,15,374131313476480,96,15.2,-130.14517211914062,1.9359999895095825,0,0.0,0.0,,,,,0,,5,,
Raw,11631620,11635499000000,,,-1291005709935689472,0.0,74.73889127140865,-16.857918676630135,19.93375477689916,161,7,0.0,15,374131313419396,1375,12.0,-60.30039978027344,24.31100082397461,0,0.0,0.0,,,,,0,,5,,
Raw,11631621,11635499000000,,,-1291005709935689472,0.0,74.73889127140865,-16.857918676630135,19.93375477689916,161,9,0.0,15,374131311580583,2753,13.8,-138.51808166503906,35.02300262451172,0,0.0,0.0,,,,,0,,5,,
Raw,11631621,11635499000000,,,-1291005709935689472,0.0,74.73889127140865,-16.857918676630135,19.93375477689916,161,10,0.0,15,374131309415068,61,19.3,-126.36198425292969,2.3600001335144043,0,0.0,0.0,,,,,0,,5,,
Raw,11631622,11635499000000,,,-1291005709935689472,0.0,74.73889127140865,-16.857918676630135,19.93375477689916,161,13,0.0,15,374131299315550,40,21.0,282.0291748046875,0.7249999642372131,0,0.0,0.0,,,,,0,,5,,
Raw,11631623,11635499000000,,,-1291005709935689472,0.0,74.73889127140865,-16.857918676630135,19.93375477689916,161,16,0.0,15,374131313107287,70,17.3,-121.37855529785156,1.0160000324249268,0,0.0,0.0,,,,,0,,5,,
Raw,11631623,11635499000000,,,-1291005709935689472,0.0,74.73889127140865,-16.857918676630135,19.93375477689916,161,21,0.0,15,374131360818178,35,22.2,-48.816436767578125,0.6664999723434448,0,0.0,0.0,,,,,0,,5,,
Raw,11631624,11635499000000,,,-1291005709935689472,0.0,74.73889127140865,-16.857918676630135,19.93375477689916,161,24,0.0,15,374131344168862,14,30.8,-374.32843017578125,0.03180000185966492,0,0.0,0.0,,,,,0,,5,,
Raw,11631624,11635499000000,,,-1291005709935689472,0.0,74.73889127140865,-16.857918676630135,19.93375477689916,161,26,0.0,15,374131357655649,19,27.0,-166.251953125,0.06680000573396683,0,0.0,0.0,,,,,0,,5,,
Raw,11631625,11635499000000,,,-1291005709935689472,0.0,74.73889127140865,-16.857918676630135,19.93375477689916,161,5,0.0,7183,374145350339496,311,14.7,-419.787841796875,10.193500518798828,0,0.0,0.0,,,,,0,,6,,
Raw,11631626,11635499000000,,,-1291005709935689472,0.0,74.73889127140865,-16.857918676630135,19.93375477689916,161,24,0.0,7183,374145355796876,27,24.2,0.14272025227546692,0.5489999651908875,0,0.0,0.0,,,,,0,,6,,
Raw,11631627,11635499000000,,,-1291005709935689472,0.0,74.73889127140865,-16.857918676630135,19.93375477689916,161,25,0.0,7183,374145345964391,13,31.2,-379.6574401855469,0.050700001418590546,0,0.0,0.0,,,,,0,,6,,
NMEA,$GPGSV,3,1,11,03,04,319,15,10,26,180,19,16,21,216,24,22,19,303,18*71,1606982127509
NMEA,$GPGSV,3,2,11,25,28,036,14,26,55,229,08,31,48,337,17,32,68,070,13*75,1606982127510
NMEA,$GPGSV,3,3,11,20,00,000,,23,03,161,,29,27,091,*49,1606982127511
NMEA,$GLGSV,3,1,10,74,29,258,27,75,00,000,32,70,72,163,10,73,52,324,16*61,1606982127512
NMEA,$GLGSV,3,2,10,71,49,330,21,82,01,070,,80,23,025,,69,11,153,*67,1606982127512
NMEA,$GLGSV,3,3,10,83,01,112,,72,02,331,*6A,1606982127513
NMEA,$GAGSV,2,1,06,05,38,323,15,24,71,282,24,25,23,233,31,04,29,132,*62,1606982127513
NMEA,$GAGSV,2,2,06,09,81,075,,31,42,028,*62,1606982127514
NMEA,$PQGSV,1,1,03,193,57,153,14,194,67,037,18,195,28,142,14,0,5*67,1606982127514
NMEA,$PQGSV,4,1,16,02,40,240,22,05,00,000,29,06,66,029,15,07,73,208,12,0,4*64,1606982127514
NMEA,$PQGSV,4,2,16,09,50,337,14,10,45,216,19,13,07,212,21,16,65,021,17,0,4*6F,1606982127514
NMEA,$PQGSV,4,3,16,21,66,277,22,24,01,250,31,26,39,279,27,01,51,129,,0,4*60,1606982127514
NMEA,$PQGSV,4,4,16,03,59,202,,04,37,115,,08,02,191,,22,44,165,,0,4*67,1606982127515
NMEA,$GNGSA,A,3,10,16,22,25,26,31,32,,,,,,1.3,0.9,0.8,1*34,1606982127517
NMEA,$GNGSA,A,2,74,,,,,,,,,,,,1.3,0.9,0.8,2*33,1606982127517
NMEA,$GNGSA,A,2,05,25,,,,,,,,,,,1.3,0.9,0.8,3*33,1606982127518
NMEA,$PQGSA,A,2,13,26,,,,,,,,,,,1.3,0.9,0.8,4*38,1606982127518
NMEA,$GNVTG,,T,,M,0.0,N,0.0,K,A*3D,1606982127519
NMEA,$GNRMC,075528.00,A,2255.528122,N,12017.674234,E,0.0,,031220,2.8,W,A*19,1606982127519
NMEA,$GNGGA,075528.00,2255.528122,N,12017.674234,E,1,12,0.9,32.5,M,17.5,M,,*49,1606982127519
Fix,gps,22.925468,120.294570,49.997681,0.000000,10.720000,1606982129000
NMEA,$GPGSV,3,1,11,03,04,319,15,10,26,180,17,16,21,216,25,22,19,303,18*7E,1606982128510
Raw,11632615,11636499000000,,,-1291005709935689472,0.0,72.83358718268573,-13.843120222431729,20.63426495298072,161,10,0.0,207,39328362386662,16,29.1,-285.56927490234375,0.2296999990940094,0,0.0,0.0,,,,,0,,3,,
Raw,11632615,11636499000000,,,-1291005709935689472,0.0,72.83358718268573,-13.843120222431729,20.63426495298072,161,11,0.0,207,39328355502565,13,31.3,-455.10565185546875,0.24770000576972961,0,0.0,0.0,,,,,0,,3,,
Raw,11632616,11636499000000,,,-1291005709935689472,0.0,72.83358718268573,-13.843120222431729,20.63426495298072,161,6,0.0,207,39328370318140,390,10.2,261.937744140625,10.781500816345215,0,0.0,0.0,,,,,0,,3,,
Raw,11632616,11636499000000,,,-1291005709935689472,0.0,72.83358718268573,-13.843120222431729,20.63426495298072,161,9,0.0,207,39328367448616,79,17.3,197.17434692382812,2.7870001792907715,0,0.0,0.0,,,,,0,,3,,
Raw,11632616,11636499000000,,,-1291005709935689472,0.0,72.83358718268573,-13.843120222431729,20.63426495298072,161,7,0.0,207,39328367090101,53,19.1,-498.4141845703125,1.1269999742507935,0,0.0,0.0,,,,,0,,3,,
Raw,11632617,11636499000000,,,-1291005709935689472,0.0,72.83358718268573,-13.843120222431729,20.63426495298072,161,3,0.0,15,374146350864001,1359,15.3,-509.7872314453125,24.54650115966797,0,0.0,0.0,,,,,0,,1,,
Raw,11632617,11636499000000,,,-1291005709935689472,0.0,72.83358718268573,-13.843120222431729,20.63426495298072,161,10,0.0,15,374146358277617,70,17.2,640.5380249023438,1.1934999227523804,0,0.0,0.0,,,,,0,,1,,
Raw,11632618,11636499000000,,,-1291005709935689472,0.0,72.83358718268573,-13.843120222431729,20.63426495298072,161,16,0.0,15,374146356589899,27,24.8,-673.201904296875,0.640500009059906,0,0.0,0.0,,,,,0,,1,,
Raw,11632618,11636499000000,,,-1291005709935689472,0.0,72.83358718268573,-13.843120222431729,20.63426495298072,161,22,0.0,15,374146354269809,87,17.9,-311.6439514160156,3.3475000858306885,0,0.0,0.0,,,,,0,,1,,
Raw,11632619,11636499000000,,,-1291005709935689472,0.0,72.83358718268573,-13.843120222431729,20.63426495298072,161,25,0.0,15,374146358868448,150,14.3,616.6181030273438,5.253499984741211,0,0.0,0.0,,,,,0,,1,,
Raw,11632619,11636499000000,,,-1291005709935689472,0.0,72.83358718268573,-13.843120222431729,20.63426495298072,161,26,0.0,15,374146365132907,610,8.0,-332.44305419921875,15.124000549316406,0,0.0,0.0,,,,,0,,1,,
Raw,11632620,11636499000000,,,-1291005709935689472,0.0,72.83358718268573,-13.843120222431729,20.63426495298072,161,31,0.0,15,374146363605409,70,17.9,22.226301193237305,1.0809999704360962,0,0.0,0.0,,,,,0,,1,,
Raw,11632620,11636499000000,,,-1291005709935689472,0.0,72.83358718268573,-13.843120222431729,20.63426495298072,161,32,0.0,15,374146366410719,183,13.2,-3.606065273284912,6.105500221252441,0,0.0,0.0,,,,,0,,1,,
Raw,11632621,11636499000000,,,-1291005709935689472,0.0,72.83358718268573,-13.843120222431729,20.63426495298072,161,2,0.0,783,374132309733100,87,22.4,-0.6529343128204346,5.164999961853027,0,0.0,0.0,,,,,0,,5,,
Raw,11632622,11636499000000,,,-1291005709935689472,0.0,72.83358718268573,-13.843120222431729,20.63426495298072,161,5,0.0,783,374132301562016,16,29.8,4.4937238693237305,0.36500000953674316,0,0.0,0.0,,,,,0,,5,,
Raw,11632622,11636499000000,,,-1291005709935689472,0.0,72.83358718268573,-13.843120222431729,20.63426495298072,161,6,0.0,15,374132313476978,80,16.0,-130.53884887695312,1.0959999561309814,0,0.0,0.0,,,,,0,,5,,
Raw,11632623,11636499000000,,,-1291005709935689472,0.0,72.83358718268573,-13.843120222431729,20.63426495298072,161,7,0.0,15,374132313419597,1537,12.0,-60.30039978027344,25.81100082397461,0,0.0,0.0,,,,,0,,5,,
Raw,11632624,11636499000000,,,-1291005709935689472,0.0,72.83358718268573,-13.843120222431729,20.63426495298072,161,9,0.0,15,374132311581045,2987,13.8,-138.51808166503906,36.52300262451172,0,0.0,0.0,,,,,0,,5,,
Raw,11632624,11636499000000,,,-1291005709935689472,0.0,72.83358718268573,-13.843120222431729,20.63426495298072,161,10,0.0,15,374132309415481,73,17.5,-123.30856323242188,1.7600001096725464,0,0.0,0.0,,,,,0,,5,,
Raw,11632625,11636499000000,,,-1291005709935689472,0.0,72.83358718268573,-13.843120222431729,20.63426495298072,161,13,0.0,15,374132299314584,46,20.5,282.9413757324219,0.7849999666213989,0,0.0,0.0,,,,,0,,5,,
Raw,11632625,11636499000000,,,-1291005709935689472,0.0,72.83358718268573,-13.843120222431729,20.63426495298072,161,16,0.0,15,374132313107692,78,17.3,-121.37855529785156,2.5160000324249268,0,0.0,0.0,,,,,0,,5,,
