# 
# Header Description:
# 
# Version: v2.0.0.1 Platform: 8.0.0 Manufacturer: Sony Model: G8142
# 
# Raw,ElapsedRealtimeMillis,TimeNanos,LeapSecond,TimeUncertaintyNanos,FullBiasNanos,BiasNanos,BiasUncertaintyNanos,DriftNanosPerSecond,DriftUncertaintyNanosPerSecond,HardwareClockDiscontinuityCount,Svid,TimeOffsetNanos,State,ReceivedSvTimeNanos,ReceivedSvTimeUncertaintyNanos,Cn0DbHz,PseudorangeRateMetersPerSecond,PseudorangeRateUncertaintyMetersPerSecond,AccumulatedDeltaRangeState,AccumulatedDeltaRangeMeters,AccumulatedDeltaRangeUncertaintyMeters,CarrierFrequencyHz,CarrierCycles,CarrierPhase,CarrierPhaseUncertainty,MultipathIndicator,SnrInDb,ConstellationType,AgcDb,CarrierFrequencyHz
# 
# Fix,Provider,Latitude,Longitude,Altitude,Speed,Accuracy,(UTC)TimeInMs
# 
# Nav,Svid,Type,Status,MessageId,Sub-messageId,Data(Bytes)
# 
Raw,13868564,13872497000000,,,-1291005709936237312,0.0,50.15559509047307,2.305250928924206,14.380450327547218,163,10,0.0,207,41564362387140,70,17.2,-116.39484405517578,1.2795000076293945,0,0.0,0.0,,,,,0,,3,,
Raw,13868565,13872497000000,,,-1291005709936237312,0.0,50.15559509047307,2.305250928924206,14.380450327547218,163,11,0.0,207,41564356872736,10,34.3,-307.31719970703125,0.24610000848770142,0,0.0,0.0,,,,,0,,3,,
Raw,13868565,13872497000000,,,-1291005709936237312,0.0,50.15559509047307,2.305250928924206,14.380450327547218,163,6,0.0,207,41564365670188,501,12.5,573.6769409179688,13.669000625610352,0,0.0,0.0,,,,,0,,3,,
Raw,13868565,13872497000000,,,-1291005709936237312,0.0,50.15559509047307,2.305250928924206,14.380450327547218,163,9,0.0,207,41564364094432,46,20.3,293.4862060546875,1.0525000095367432,0,0.0,0.0,,,,,0,,3,,
Raw,13868565,13872497000000,,,-1291005709936237312,0.0,50.15559509047307,2.305250928924206,14.380450327547218,163,7,0.0,207,41564368208920,140,16.0,-178.6542205810547,5.878500461578369,0,0.0,0.0,,,,,0,,3,,
Raw,13868565,13872497000000,,,-1291005709936237312,0.0,50.15559509047307,2.305250928924206,14.380450327547218,163,8,0.0,207,41564357492821,266,18.4,-713.1806640625,10.222000122070312,0,0.0,0.0,,,,,0,,3,,
Raw,13868566,13872497000000,,,-1291005709936237312,0.0,50.15559509047307,2.305250928924206,14.380450327547218,163,3,0.0,15,376382352517586,9,35.0,-315.1524353027344,0.03960000351071358,0,0.0,0.0,,,,,0,,1,,
Raw,13868566,13872497000000,,,-1291005709936237312,0.0,50.15559509047307,2.305250928924206,14.380450327547218,163,16,0.0,15,376382359606600,13,31.4,-516.7879638671875,0.053700003772974014,0,0.0,0.0,,,,,0,,1,,
Raw,13868566,13872497000000,,,-1291005709936237312,0.0,50.15559509047307,2.305250928924206,14.380450327547218,163,22,0.0,15,376382354327700,7,37.1,-95.11805725097656,0.041600000113248825,0,0.0,0.0,,,,,0,,1,,
Raw,13868566,13872497000000,,,-1291005709936237312,0.0,50.15559509047307,2.305250928924206,14.380450327547218,163,29,0.0,15,376382356697130,83,16.4,77.68739318847656,1.9255000352859497,0,0.0,0.0,,,,,0,,1,,
Raw,13868566,13872497000000,,,-1291005709936237312,0.0,50.15559509047307,2.305250928924206,14.380450327547218,163,31,0.0,15,376382361829911,61,18.1,57.88733673095703,1.0779999494552612,0,0.0,0.0,,,,,0,,1,,
Raw,13868566,13872497000000,,,-1291005709936237312,0.0,50.15559509047307,2.305250928924206,14.380450327547218,163,32,0.0,15,376382364163223,27,24.8,217.16314697265625,0.6225000023841858,0,0.0,0.0,,,,,0,,1,,
Raw,13868567,13872497000000,,,-1291005709936237312,0.0,50.15559509047307,2.305250928924206,14.380450327547218,163,1,0.0,783,376368309251219,100,20.7,-2.237260103225708,5.315000057220459,0,0.0,0.0,,,,,0,,5,,
Raw,13868567,13872497000000,,,-1291005709936237312,0.0,50.15559509047307,2.305250928924206,14.380450327547218,163,2,0.0,783,376368308259800,19,27.4,1.872385025024414,0.48350000381469727,0,0.0,0.0,,,,,0,,5,,
Raw,13868567,13872497000000,,,-1291005709936237312,0.0,50.15559509047307,2.305250928924206,14.380450327547218,163,5,0.0,783,376368300071132,14,30.3,7.787200927734375,0.3935000002384186,0,0.0,0.0,,,,,0,,5,,
Raw,13868567,13872497000000,,,-1291005709936237312,0.0,50.15559509047307,2.305250928924206,14.380450327547218,163,10,0.0,15,376368308664437,24,25.1,-67.87854766845703,0.3937999904155731,0,0.0,0.0,,,,,0,,5,,
Raw,13868567,13872497000000,,,-1291005709936237312,0.0,50.15559509047307,2.305250928924206,14.380450327547218,163,13,0.0,15,376368295957384,431,10.4,221.69039916992188,11.499000549316406,0,0.0,0.0,,,,,0,,5,,
Raw,13868567,13872497000000,,,-1291005709936237312,0.0,50.15559509047307,2.305250928924206,14.380450327547218,163,16,0.0,15,376368312473898,108,16.4,-99.31322479248047,4.0945000648498535,0,0.0,0.0,,,,,0,,5,,
Raw,13868568,13872497000000,,,-1291005709936237312,0.0,50.15559509047307,2.305250928924206,14.380450327547218,163,21,0.0,15,376368358827280,46,20.1,188.11227416992188,0.8134999871253967,0,0.0,0.0,,,,,0,,5,,
Raw,13868568,13872497000000,,,-1291005709936237312,0.0,50.15559509047307,2.305250928924206,14.380450327547218,163,24,0.0,15,376368345243353,10,34.4,-308.92181396484375,0.029600001871585846,0,0.0,0.0,,,,,0,,5,,
Raw,13868568,13872497000000,,,-1291005709936237312,0.0,50.15559509047307,2.305250928924206,14.380450327547218,163,26,0.0,15,376368357138235,84,16.4,-95.00193786621094,1.8519999980926514,0,0.0,0.0,,,,,0,,5,,
Raw,13868568,13872497000000,,,-1291005709936237312,0.0,50.15559509047307,2.305250928924206,14.380450327547218,163,9,0.0,7183,376382360867405,590,10.9,159.2758026123047,14.370500564575195,0,0.0,0.0,,,,,0,,6,,
Raw,13868568,13872497000000,,,-1291005709936237312,0.0,50.15559509047307,2.305250928924206,14.380450327547218,163,24,0.0,7183,376382353844917,77,18.1,123.39593505859375,3.121999979019165,0,0.0,0.0,,,,,0,,6,,
Raw,13868569,13872497000000,,,-1291005709936237312,0.0,50.15559509047307,2.305250928924206,14.380450327547218,163,25,0.0,7183,376382346911036,16,29.6,-264.1719665527344,0.053700003772974014,0,0.0,0.0,,,,,0,,6,,
Fix,gps,22.925443,120.294764,43.897888,0.000000,9.648001,1606984365000
NMEA,$GPGSV,3,1,10,03,14,307,35,16,35,227,31,22,23,288,37,29,28,071,16*7D,1606984364499
NMEA,$GPGSV,3,2,10,31,48,001,18,32,61,113,25,10,11,174,,25,13,037,*7F,1606984364499
NMEA,$GPGSV,3,3,10,26,68,262,,27,02,192,*79,1606984364499
NMEA,$GLGSV,3,1,10,74,35,284,17,75,00,000,34,70,49,172,13,73,43,352,20*67,1606984364499
NMEA,$GLGSV,3,2,10,71,67,303,16,72,18,329,18,82,04,052,,80,11,037,*6D,1606984364499
NMEA,$GLGSV,3,3,10,84,01,149,,83,10,095,*63,1606984364499
NMEA,$GAGSV,2,1,07,09,73,144,11,24,66,324,18,25,31,247,30,03,00,000,*6E,1606984364499
NMEA,$GAGSV,2,2,07,04,18,140,,05,50,319,,31,31,032,*5D,1606984364501
NMEA,$PQGSV,1,1,03,194,64,033,17,195,33,137,17,193,52,161,,0,5*65,1606984364501
NMEA,$PQGSV,4,1,16,01,52,129,21,02,40,240,27,05,00,000,30,10,49,229,25,0,4*67,1606984364501
NMEA,$PQGSV,4,2,16,13,02,208,10,16,71,030,16,21,62,236,20,24,08,262,34,0,4*69,1606984364502
NMEA,$PQGSV,4,3,16,26,43,299,16,03,59,202,,04,37,115,,06,72,042,,0,4*62,1606984364502
NMEA,$PQGSV,4,4,16,07,76,240,,08,00,000,,09,55,338,,14,09,319,,0,4*62,1606984364502
NMEA,$GNGSA,A,3,03,16,22,31,32,,,,,,,,1.6,1.3,1.0,1*32,1606984364503
NMEA,$GNGSA,A,2,74,,,,,,,,,,,,1.6,1.3,1.0,2*34,1606984364503
NMEA,$GNGSA,A,2,25,,,,,,,,,,,,1.6,1.3,1.0,3*31,1606984364503
NMEA,$PQGSA,A,2,24,,,,,,,,,,,,1.6,1.3,1.0,4*3F,1606984364503
NMEA,$GNVTG,,T,,M,0.0,N,0.0,K,A*3D,1606984364503
NMEA,$GNRMC,083245.00,A,2255.526580,N,12017.685828,E,0.0,,031220,2.8,W,A*17,1606984364503
NMEA,$GNGGA,083245.00,2255.526580,N,12017.685828,E,1,08,1.3,26.4,M,17.5,M,,*43,1606984364504
Fix,gps,22.925443,120.294764,43.902954,0.000000,9.648001,1606984366000
Raw,13869590,13873497000000,,,-1291005709936237312,0.0,53.68745041778311,2.7190547557713445,17.78475883017788,163,10,0.0,207,41565362387528,79,17.2,-116.39484405517578,2.7795000076293945,0,0.0,0.0,,,,,0,,3,,
Raw,13869590,13873497000000,,,-1291005709936237312,0.0,53.68745041778311,2.7190547557713445,17.78475883017788,163,11,0.0,207,41565356873741,9,35.2,-308.8389892578125,0.24560000002384186,0,0.0,0.0,,,,,0,,3,,
Raw,13869590,13873497000000,,,-1291005709936237312,0.0,53.68745041778311,2.7190547557713445,17.78475883017788,163,6,0.0,207,41565365668275,591,12.5,573.6769409179688,15.169000625610352,0,0.0,0.0,,,,,0,,3,,
Raw,13869591,13873497000000,,,-1291005709936237312,0.0,53.68745041778311,2.7190547557713445,17.78475883017788,163,9,0.0,207,41565364093167,46,20.6,292.6060485839844,1.0525000095367432,0,0.0,0.0,,,,,0,,3,,
Raw,13869591,13873497000000,,,-1291005709936237312,0.0,53.68745041778311,2.7190547557713445,17.78475883017788,163,7,0.0,207,41565368209516,179,16.0,-178.6542205810547,7.378500461578369,0,0.0,0.0,,,,,0,,3,,
Raw,13869591,13873497000000,,,-1291005709936237312,0.0,53.68745041778311,2.7190547557713445,17.78475883017788,163,8,0.0,207,41565357495200,335,18.4,-713.1806640625,11.722000122070312,0,0.0,0.0,,,,,0,,3,,
Raw,13869591,13873497000000,,,-1291005709936237312,0.0,53.68745041778311,2.7190547557713445,17.78475883017788,163,3,0.0,15,376383352518621,11,33.2,-316.6520080566406,0.04090000316500664,0,0.0,0.0,,,,,0,,1,,
Raw,13869591,13873497000000,,,-1291005709936237312,0.0,53.68745041778311,2.7190547557713445,17.78475883017788,163,16,0.0,15,376383359608340,16,29.3,-518.2957153320312,0.07020000368356705,0,0.0,0.0,,,,,0,,1,,
Raw,13869592,13873497000000,,,-1291005709936237312,0.0,53.68745041778311,2.7190547557713445,17.78475883017788,163,22,0.0,15,376383354328025,8,36.2,-96.62820434570312,0.0422000028192997,0,0.0,0.0,,,,,0,,1,,
Raw,13869592,13873497000000,,,-1291005709936237312,0.0,53.68745041778311,2.7190547557713445,17.78475883017788,163,29,0.0,15,376383356696870,97,16.4,77.68739318847656,3.4255001544952393,0,0.0,0.0,,,,,0,,1,,
Raw,13869592,13873497000000,,,-1291005709936237312,0.0,53.68745041778311,2.7190547557713445,17.78475883017788,163,31,0.0,15,376383361829769,61,18.1,56.8882942199707,1.0779999494552612,0,0.0,0.0,,,,,0,,1,,
Raw,13869592,13873497000000,,,-1291005709936237312,0.0,53.68745041778311,2.7190547557713445,17.78475883017788,163,32,0.0,15,376383364162501,31,23.8,215.545654296875,0.67249995470047,0,0.0,0.0,,,,,0,,1,,
Raw,13869592,13873497000000,,,-1291005709936237312,0.0,53.68745041778311,2.7190547557713445,17.78475883017788,163,1,0.0,783,376369309251202,54,20.0,14.806243896484375,2.315000057220459,0,0.0,0.0,,,,,0,,5,,
Raw,13869593,13873497000000,,,-1291005709936237312,0.0,53.68745041778311,2.7190547557713445,17.78475883017788,163,2,0.0,783,376369308259794,26,27.4,1.872385025024414,1.9835001230239868,0,0.0,0.0,,,,,0,,5,,
Raw,13869593,13873497000000,,,-1291005709936237312,0.0,53.68745041778311,2.7190547557713445,17.78475883017788,163,5,0.0,783,376369300071104,14,30.9,3.6295461654663086,0.3634999990463257,0,0.0,0.0,,,,,0,,5,,
Raw,13869593,13873497000000,,,-1291005709936237312,0.0,53.68745041778311,2.7190547557713445,17.78475883017788,163,10,0.0,15,376369308664687,31,23.0,-68.99979400634766,0.6285000443458557,0,0.0,0.0,,,,,0,,5,,
Raw,13869593,13873497000000,,,-1291005709936237312,0.0,53.68745041778311,2.7190547557713445,17.78475883017788,163,13,0.0,15,376369295956645,507,10.4,221.69039916992188,12.999000549316406,0,0.0,0.0,,,,,0,,5,,
Raw,13869593,13873497000000,,,-1291005709936237312,0.0,53.68745041778311,2.7190547557713445,17.78475883017788,163,16,0.0,15,376369312474107,84,16.3,-98.7178955078125,1.844499945640564,0,0.0,0.0,,,,,0,,5,,
Raw,13869593,13873497000000,,,-1291005709936237312,0.0,53.68745041778311,2.7190547557713445,17.78475883017788,163,21,0.0,15,376369358826627,46,20.5,185.37571716308594,0.828499972820282,0,0.0,0.0,,,,,0,,5,,
Raw,13869594,13873497000000,,,-1291005709936237312,0.0,53.68745041778311,2.7190547557713445,17.78475883017788,163,24,0.0,15,376369345244392,10,34.9,-310.50933837890625,0.029600001871585846,0,0.0,0.0,,,,,0,,5,,
Raw,13869594,13873497000000,,,-1291005709936237312,0.0,53.68745041778311,2.7190547557713445,17.78475883017788,163,26,0.0,15,376369357138486,70,17.6,-94.52184295654297,1.0220000743865967,0,0.0,0.0,,,,,0,,5,,
Raw,13869594,13873497000000,,,-1291005709936237312,0.0,53.68745041778311,2.7190547557713445,17.78475883017788,163,9,0.0,7183,376383360866874,685,10.9,159.2758026123047,15.870500564575195,0,0.0,0.0,,,,,0,,6,,
Raw,13869594,13873497000000,,,-1291005709936237312,0.0,53.68745041778311,2.7190547557713445,17.78475883017788,163,24,0.0,7183,376383353844506,100,18.1,123.39593505859375,4.622000217437744,0,0.0,0.0,,,,,0,,6,,
Raw,13869594,13873497000000,,,-1291005709936237312,0.0,53.68745041778311,2.7190547557713445,17.78475883017788,163,25,0.0,7183,376383346911919,16,29.2,-266.8107604980469,0.40849998593330383,0,0.0,0.0,,,,,0,,6,,
NMEA,$GPGSV,3,1,10,03,14,307,33,16,35,227,29,22,23,288,36,29,28,071,16*73,1606984365501
NMEA,$GPGSV,3,2,10,31,48,001,18,32,61,113,24,10,11,174,,25,13,037,*7E,1606984365501
NMEA,$GPGSV,3,3,10,26,68,262,,27,02,192,*79,1606984365501
NMEA,$GLGSV,3,1,10,74,35,284,17,75,00,000,35,70,49,172,13,73,43,352,21*67,1606984365501
NMEA,$GLGSV,3,2,10,71,67,303,16,72,18,329,18,82,04,052,,80,11,037,*6D,1606984365504
NMEA,$GLGSV,3,3,10,84,01,149,,83,10,095,*63,1606984365505
NMEA,$GAGSV,2,1,07,09,73,144,11,24,66,324,18,25,31,247,29,03,00,000,*66,1606984365505
NMEA,$GAGSV,2,2,07,04,18,140,,05,50,319,,31,31,032,*5D,1606984365506
NMEA,$PQGSV,1,1,03,194,64,033,17,195,33,137,17,193,52,161,,0,5*65,1606984365506
NMEA,$PQGSV,4,1,16,01,52,129,20,02,40,240,27,05,00,000,31,10,49,229,23,0,4*61,1606984365506
NMEA,$PQGSV,4,2,16,13,02,208,10,16,71,030,16,21,62,236,21,24,08,262,35,0,4*69,1606984365507
NMEA,$PQGSV,4,3,16,26,43,299,18,03,59,202,,04,37,115,,06,72,042,,0,4*6C,1606984365507
NMEA,$PQGSV,4,4,16,07,76,240,,08,00,000,,09,55,338,,14,09,319,,0,4*62,1606984365507
NMEA,$GNGSA,A,3,03,16,22,31,32,,,,,,,,1.6,1.3,1.0,1*32,1606984365508
NMEA,$GNGSA,A,2,74,,,,,,,,,,,,1.6,1.3,1.0,2*34,1606984365509
NMEA,$GNGSA,A,2,25,,,,,,,,,,,,1.6,1.3,1.0,3*31,1606984365509
NMEA,$PQGSA,A,2,24,,,,,,,,,,,,1.6,1.3,1.0,4*3F,1606984365509
NMEA,$GNVTG,,T,,M,0.0,N,0.0,K,A*3D,1606984365509
NMEA,$GNRMC,083246.00,A,2255.526578,N,12017.685828,E,0.0,,031220,2.8,W,A*13,1606984365510
NMEA,$GNGGA,083246.00,2255.526578,N,12017.685828,E,1,08,1.3,26.4,M,17.5,M,,*47,1606984365511
Raw,13870700,13874497000000,,,-1291005709936237312,0.0,58.418714615982026,-2.587758007400786,18.706038394522682,163,10,0.0,207,41566362387916,99,17.2,-116.39484405517578,4.2795000076293945,0,0.0,0.0,,,,,0,,3,,
Raw,13870701,13874497000000,,,-1291005709936237312,0.0,58.418714615982026,-2.587758007400786,18.706038394522682,163,11,0.0,207,41566356874760,8,36.5,-308.5891418457031,0.2452000081539154,0,0.0,0.0,,,,,0,,3,,
Raw,13870701,13874497000000,,,-1291005709936237312,0.0,58.418714615982026,-2.587758007400786,18.706038394522682,163,6,0.0,207,41566365666361,691,12.5,573.6769409179688,16.66900062561035,0,0.0,0.0,,,,,0,,3,,
Raw,13870701,13874497000000,,,-1291005709936237312,0.0,58.418714615982026,-2.587758007400786,18.706038394522682,163,9,0.0,207,41566364092305,35,22.0,291.56671142578125,0.9324999451637268,0,0.0,0.0,,,,,0,,3,,
Raw,13870701,13874497000000,,,-1291005709936237312,0.0,58.418714615982026,-2.587758007400786,18.706038394522682,163,7,0.0,207,41566368210024,126,14.9,-178.1872100830078,3.818500280380249,0,0.0,0.0,,,,,0,,3,,
Raw,13870701,13874497000000,,,-1291005709936237312,0.0,58.418714615982026,-2.587758007400786,18.706038394522682,163,8,0.0,207,41566357497375,222,12.3,-711.7147216796875,7.072000503540039,0,0.0,0.0,,,,,0,,3,,
Raw,13870701,13874497000000,,,-1291005709936237312,0.0,58.418714615982026,-2.587758007400786,18.706038394522682,163,3,0.0,15,376384352519657,12,32.9,-316.35260009765625,0.04190000146627426,0,0.0,0.0,,,,,0,,1,,
Raw,13870701,13874497000000,,,-1291005709936237312,0.0,58.418714615982026,-2.587758007400786,18.706038394522682,163,16,0.0,15,376384359610070,17,28.4,-518.0311889648438,0.06180000305175781,0,0.0,0.0,,,,,0,,1,,
Raw,13870702,13874497000000,,,-1291005709936237312,0.0,58.418714615982026,-2.587758007400786,18.706038394522682,163,22,0.0,15,376384354328342,7,37.1,-96.33354949951172,0.041600000113248825,0,0.0,0.0,,,,,0,,1,,
Raw,13870702,13874497000000,,,-1291005709936237312,0.0,58.418714615982026,-2.587758007400786,18.706038394522682,163,29,0.0,15,376384356696597,84,16.9,74.75686645507812,1.940500020980835,0,0.0,0.0,,,,,0,,1,,
Raw,13870702,13874497000000,,,-1291005709936237312,0.0,58.418714615982026,-2.587758007400786,18.706038394522682,163,31,0.0,15,376384361829533,46,20.9,56.60285568237305,0.8479999899864197,0,0.0,0.0,,,,,0,,1,,
Raw,13870702,13874497000000,,,-1291005709936237312,0.0,58.418714615982026,-2.587758007400786,18.706038394522682,163,32,0.0,15,376384364161763,24,25.2,216.0308837890625,0.6225000023841858,0,0.0,0.0,,,,,0,,1,,
Raw,13870702,13874497000000,,,-1291005709936237312,0.0,58.418714615982026,-2.587758007400786,18.706038394522682,163,1,0.0,783,376370309251153,72,20.0,14.806243896484375,3.815000057220459,0,0.0,0.0,,,,,0,,5,,
Raw,13870703,13874497000000,,,-1291005709936237312,0.0,58.418714615982026,-2.587758007400786,18.706038394522682,163,2,0.0,783,376370308259752,24,26.6,-0.643332302570343,1.2885000705718994,0,0.0,0.0,,,,,0,,5,,
Raw,13870703,13874497000000,,,-1291005709936237312,0.0,58.418714615982026,-2.587758007400786,18.706038394522682,163,5,0.0,783,376370300071097,12,32.6,4.253674507141113,0.3334999978542328,0,0.0,0.0,,,,,0,,5,,
Raw,13870703,13874497000000,,,-1291005709936237312,0.0,58.418714615982026,-2.587758007400786,18.706038394522682,163,10,0.0,15,376370308664916,40,21.4,-68.529296875,0.7384999990463257,0,0.0,0.0,,,,,0,,5,,
Raw,13870703,13874497000000,,,-1291005709936237312,0.0,58.418714615982026,-2.587758007400786,18.706038394522682,163,13,0.0,15,376370295955905,593,10.4,221.69039916992188,14.499000549316406,0,0.0,0.0,,,,,0,,5,,
Raw,13870703,13874497000000,,,-1291005709936237312,0.0,58.418714615982026,-2.587758007400786,18.706038394522682,163,16,0.0,15,376370312474436,97,16.3,-98.7178955078125,3.3445000648498535,0,0.0,0.0,,,,,0,,5,,
Raw,13870703,13874497000000,,,-1291005709936237312,0.0,58.418714615982026,-2.587758007400786,18.706038394522682,163,21,0.0,15,376370358826006,61,18.6,186.1630859375,0.9434999823570251,0,0.0,0.0,,,,,0,,5,,
Raw,13870703,13874497000000,,,-1291005709936237312,0.0,58.418714615982026,-2.587758007400786,18.706038394522682,163,24,0.0,15,376370345245430,9,35.7,-310.2830810546875,0.029100000858306885,0,0.0,0.0,,,,,0,,5,,
Raw,13870704,13874497000000,,,-1291005709936237312,0.0,58.418714615982026,-2.587758007400786,18.706038394522682,163,26,0.0,15,376370357138802,79,17.6,-94.52184295654297,2.5220000743865967,0,0.0,0.0,,,,,0,,5,,
Raw,13870704,13874497000000,,,-1291005709936237312,0.0,58.418714615982026,-2.587758007400786,18.706038394522682,163,9,0.0,7183,376384360866342,791,10.9,159.2758026123047,17.370500564575195,0,0.0,0.0,,,,,0,,6,,
Raw,13870704,13874497000000,,,-1291005709936237312,0.0,58.418714615982026,-2.587758007400786,18.706038394522682,163,24,0.0,7183,376384353844094,133,18.1,123.39593505859375,6.122000217437744,0,0.0,0.0,,,,,0,,6,,
Raw,13870704,13874497000000,,,-1291005709936237312,0.0,58.418714615982026,-2.587758007400786,18.706038394522682,163,25,0.0,7183,376384346912807,14,30.0,-265.2099914550781,0.052800003439188004,0,0.0,0.0,,,,,0,,6,,
Fix,gps,22.925443,120.294764,43.908081,0.000000,10.720000,1606984367000
NMEA,$GPGSV,3,1,10,03,14,307,33,16,35,227,28,22,23,288,37,29,28,071,17*72,1606984366501
NMEA,$GPGSV,3,2,10,31,48,001,21,32,61,113,25,10,11,174,,25,13,037,*75,1606984366501
NMEA,$GPGSV,3,3,10,26,68,262,,27,02,192,*79,1606984366501
NMEA,$GLGSV,3,1,10,74,35,284,17,75,00,000,37,70,49,172,13,73,43,352,22*66,1606984366501
NMEA,$GLGSV,3,2,10,71,67,303,15,72,18,329,12,82,04,052,,80,11,037,*64,1606984366502
NMEA,$GLGSV,3,3,10,84,01,149,,83,10,095,*63,1606984366502
NMEA,$GAGSV,2,1,07,09,73,144,11,24,66,324,18,25,31,247,30,03,00,000,*6E,1606984366502
NMEA,$GAGSV,2,2,07,04,18,140,,05,50,319,,31,31,032,*5D,1606984366503
NMEA,$PQGSV,1,1,03,194,64,033,15,195,33,137,17,193,52,161,,0,5*67,1606984366503
NMEA,$PQGSV,4,1,16,01,52,129,20,02,40,240,27,05,00,000,33,10,49,229,21,0,4*61,1606984366503
NMEA,$PQGSV,4,2,16,13,02,208,10,16,71,030,16,21,62,236,19,24,08,262,36,0,4*61,1606984366503
NMEA,$PQGSV,4,3,16,26,43,299,18,03,59,202,,04,37,115,,06,72,042,,0,4*6C,1606984366503
NMEA,$PQGSV,4,4,16,07,76,240,,08,00,000,,09,55,338,,14,09,319,,0,4*62,1606984366504
NMEA,$GNGSA,A,3,03,16,22,31,32,,,,,,,,1.6,1.3,1.0,1*32,1606984366505
NMEA,$GNGSA,A,2,74,,,,,,,,,,,,1.6,1.3,1.0,2*34,1606984366506
NMEA,$GNGSA,A,2,25,,,,,,,,,,,,1.6,1.3,1.0,3*31,1606984366509
NMEA,$PQGSA,A,2,24,,,,,,,,,,,,1.6,1.3,1.0,4*3F,1606984366509
NMEA,$GNVTG,,T,,M,0.0,N,0.0,K,A*3D,1606984366510
NMEA,$GNRMC,083247.00,A,2255.526576,N,12017.685826,E,0.0,,031220,2.8,W,A*12,1606984366510
NMEA,$GNGGA,083247.00,2255.526576,N,12017.685826,E,1,08,1.3,26.4,M,17.5,M,,*46,1606984366510
Fix,gps,22.925443,120.294764,43.910583,0.000000,10.720000,1606984368000
Raw,13871588,13875497000000,,,-1291005709936237312,0.0,67.11964670103043,-1.472686103798402,18.67638722063217,163,10,0.0,207,41567362388305,128,17.2,-116.39484405517578,5.7795000076293945,0,0.0,0.0,,,,,0,,3,,
Raw,13871588,13875497000000,,,-1291005709936237312,0.0,67.11964670103043,-1.472686103798402,18.67638722063217,163,11,0.0,207,41567356875780,8,36.3,-308.8550109863281,0.2452000081539154,0,0.0,0.0,,,,,0,,3,,
Raw,13871589,13875497000000,,,-1291005709936237312,0.0,67.11964670103043,-1.472686103798402,18.67638722063217,163,6,0.0,207,41567365664448,801,12.5,573.6769409179688,18.16900062561035,0,0.0,0.0,,,,,0,,3,,
Raw,13871589,13875497000000,,,-1291005709936237312,0.0,67.11964670103043,-1.472686103798402,18.67638722063217,163,9,0.0,207,41567364091329,46,20.3,291.5198974609375,1.0525000095367432,0,0.0,0.0,,,,,0,,3,,
Raw,13871589,13875497000000,,,-1291005709936237312,0.0,67.11964670103043,-1.472686103798402,18.67638722063217,163,7,0.0,207,41567368210619,151,14.9,-178.1872100830078,5.31850004196167,0,0.0,0.0,,,,,0,,3,,
Raw,13871590,13875497000000,,,-1291005709936237312,0.0,67.11964670103043,-1.472686103798402,18.67638722063217,163,8,0.0,207,41567357499749,269,12.3,-711.7147216796875,8.572000503540039,0,0.0,0.0,,,,,0,,3,,
Raw,13871590,13875497000000,,,-1291005709936237312,0.0,67.11964670103043,-1.472686103798402,18.67638722063217,163,3,0.0,15,376385352520738,11,33.0,-316.57220458984375,0.04090000316500664,0,0.0,0.0,,,,,0,,1,,
Raw,13871591,13875497000000,,,-1291005709936237312,0.0,67.11964670103043,-1.472686103798402,18.67638722063217,163,16,0.0,15,376385359611794,16,29.8,-518.2805786132812,0.0552000030875206,0,0.0,0.0,,,,,0,,1,,
Raw,13871591,13875497000000,,,-1291005709936237312,0.0,67.11964670103043,-1.472686103798402,18.67638722063217,163,22,0.0,15,376385354328666,7,37.4,-96.55101776123047,0.041600000113248825,0,0.0,0.0,,,,,0,,1,,
Raw,13871592,13875497000000,,,-1291005709936237312,0.0,67.11964670103043,-1.472686103798402,18.67638722063217,163,29,0.0,15,376385356696348,98,16.9,74.75686645507812,3.440500020980835,0,0.0,0.0,,,,,0,,1,,
Raw,13871592,13875497000000,,,-1291005709936237312,0.0,67.11964670103043,-1.472686103798402,18.67638722063217,163,31,0.0,15,376385361829395,70,17.9,57.697044372558594,1.0779999494552612,0,0.0,0.0,,,,,0,,1,,
Raw,13871592,13875497000000,,,-1291005709936237312,0.0,67.11964670103043,-1.472686103798402,18.67638722063217,163,32,0.0,15,376385364161032,24,25.9,215.56552124023438,0.387800008058548,0,0.0,0.0,,,,,0,,1,,
Raw,13871593,13875497000000,,,-1291005709936237312,0.0,67.11964670103043,-1.472686103798402,18.67638722063217,163,1,0.0,783,376371309251103,100,20.0,14.806243896484375,5.315000057220459,0,0.0,0.0,,,,,0,,5,,
Raw,13871593,13875497000000,,,-1291005709936237312,0.0,67.11964670103043,-1.472686103798402,18.67638722063217,163,2,0.0,783,376371308259754,36,26.6,-0.643332302570343,2.7885000705718994,0,0.0,0.0,,,,,0,,5,,
Raw,13871593,13875497000000,,,-1291005709936237312,0.0,67.11964670103043,-1.472686103798402,18.67638722063217,163,5,0.0,783,376371300071098,13,31.2,2.7173588275909424,0.3634999990463257,0,0.0,0.0,,,,,0,,5,,
Raw,13871594,13875497000000,,,-1291005709936237312,0.0,67.11964670103043,-1.472686103798402,18.67638722063217,163,10,0.0,15,376371308665119,31,23.7,-69.19183349609375,0.6285000443458557,0,0.0,0.0,,,,,0,,5,,
Raw,13871594,13875497000000,,,-1291005709936237312,0.0,67.11964670103043,-1.472686103798402,18.67638722063217,163,13,0.0,15,376371295955166,689,10.4,221.69039916992188,15.999000549316406,0,0.0,0.0,,,,,0,,5,,
Raw,13871595,13875497000000,,,-1291005709936237312,0.0,67.11964670103043,-1.472686103798402,18.67638722063217,163,16,0.0,15,376371312474883,73,17.1,-100.59027862548828,1.7645000219345093,0,0.0,0.0,,,,,0,,5,,
Raw,13871595,13875497000000,,,-1291005709936237312,0.0,67.11964670103043,-1.472686103798402,18.67638722063217,163,21,0.0,15,376371358825359,31,23.1,185.70217895507812,0.643500030040741,0,0.0,0.0,,,,,0,,5,,
Raw,13871596,13875497000000,,,-1291005709936237312,0.0,67.11964670103043,-1.472686103798402,18.67638722063217,163,24,0.0,15,376371345246465,10,34.8,-310.5627746582031,0.029600001871585846,0,0.0,0.0,,,,,0,,5,,
Raw,13871596,13875497000000,,,-1291005709936237312,0.0,67.11964670103043,-1.472686103798402,18.67638722063217,163,26,0.0,15,376371357139117,97,17.6,-94.52184295654297,4.022000312805176,0,0.0,0.0,,,,,0,,5,,
Raw,13871597,13875497000000,,,-1291005709936237312,0.0,67.11964670103043,-1.472686103798402,18.67638722063217,163,9,0.0,7183,376385360865811,906,10.9,159.2758026123047,18.870500564575195,0,0.0,0.0,,,,,0,,6,,
Raw,13871597,13875497000000,,,-1291005709936237312,0.0,67.11964670103043,-1.472686103798402,18.67638722063217,163,24,0.0,7183,376385353843682,176,18.1,123.39593505859375,7.622000217437744,0,0.0,0.0,,,,,0,,6,,
Raw,13871597,13875497000000,,,-1291005709936237312,0.0,67.11964670103043,-1.472686103798402,18.67638722063217,163,25,0.0,7183,376385346913696,16,29.2,-265.3665466308594,0.053700003772974014,0,0.0,0.0,,,,,0,,6,,
NMEA,$GPGSV,3,1,10,03,14,307,33,16,35,227,30,22,23,288,37,29,28,071,17*7B,1606984367500
NMEA,$GPGSV,3,2,10,31,48,001,18,32,61,113,26,10,11,174,,25,13,037,*7C,1606984367500
NMEA,$GPGSV,3,3,10,26,68,262,,27,02,192,*79,1606984367500
NMEA,$GLGSV,3,1,10,74,35,284,17,75,00,000,36,70,49,172,13,73,43,352,20*65,1606984367500
NMEA,$GLGSV,3,2,10,71,67,303,15,72,18,329,12,82,04,052,,80,11,037,*64,1606984367500
NMEA,$GLGSV,3,3,10,84,01,149,,83,10,095,*63,1606984367501
NMEA,$GAGSV,2,1,07,09,73,144,11,24,66,324,18,25,31,247,29,03,00,000,*66,1606984367501
NMEA,$GAGSV,2,2,07,04,18,140,,05,50,319,,31,31,032,*5D,1606984367502
NMEA,$PQGSV,1,1,03,194,64,033,15,195,33,137,17,193,52,161,,0,5*67,1606984367504
NMEA,$PQGSV,4,1,16,01,52,129,20,02,40,240,27,05,00,000,31,10,49,229,24,0,4*66,1606984367504
NMEA,$PQGSV,4,2,16,13,02,208,10,16,71,030,17,21,62,236,23,24,08,262,35,0,4*6A,1606984367504
NMEA,$PQGSV,4,3,16,26,43,299,18,03,59,202,,04,37,115,,06,72,042,,0,4*6C,1606984367506
NMEA,$PQGSV,4,4,16,07,76,240,,08,00,000,,09,55,338,,14,09,319,,0,4*62,1606984367506
NMEA,$GNGSA,A,3,03,16,22,31,32,,,,,,,,1.6,1.3,1.0,1*32,1606984367508
NMEA,$GNGSA,A,2,74,,,,,,,,,,,,1.6,1.3,1.0,2*34,1606984367508
NMEA,$GNGSA,A,2,25,,,,,,,,,,,,1.6,1.3,1.0,3*31,1606984367508
NMEA,$PQGSA,A,2,24,,,,,,,,,,,,1.6,1.3,1.0,4*3F,1606984367508
NMEA,$GNVTG,,T,,M,0.0,N,0.0,K,A*3D,1606984367509
NMEA,$GNRMC,083248.00,A,2255.526574,N,12017.685825,E,0.0,,031220,2.8,W,A*1C,1606984367509
NMEA,$GNGGA,083248.00,2255.526574,N,12017.685825,E,1,08,1.3,26.4,M,17.5,M,,*48,1606984367509
Fix,gps,22.925443,120.294764,43.911316,0.000000,10.720000,1606984369000
NMEA,$GPGSV,3,1,10,03,14,307,34,16,35,227,31,22,23,288,37,29,28,071,17*7D,1606984368500
Raw,13872604,13876497000000,,,-1291005709936237312,0.0,69.92716953391209,-2.1520698980108492,20.922970235419033,163,10,0.0,207,41568362388706,99,16.7,-117.75492095947266,3.619500160217285,0,0.0,0.0,,,,,0,,3,,
Raw,13872605,13876497000000,,,-1291005709936237312,0.0,69.92716953391209,-2.1520698980108492,20.922970235419033,163,11,0.0,207,41568356876820,8,36.1,-309.2591857910156,0.2452000081539154,0,0.0,0.0,,,,,0,,3,,
Raw,13872605,13876497000000,,,-1291005709936237312,0.0,69.92716953391209,-2.1520698980108492,20.922970235419033,163,6,0.0,207,41568365662534,922,12.5,573.6769409179688,19.66900062561035,0,0.0,0.0,,,,,0,,3,,
Raw,13872606,13876497000000,,,-1291005709936237312,0.0,69.92716953391209,-2.1520698980108492,20.922970235419033,163,9,0.0,207,41568364090308,40,21.4,291.7071838378906,0.9924999475479126,0,0.0,0.0,,,,,0,,3,,
Raw,13872606,13876497000000,,,-1291005709936237312,0.0,69.92716953391209,-2.1520698980108492,20.922970235419033,163,7,0.0,207,41568368211213,186,14.9,-178.1872100830078,6.818500518798828,0,0.0,0.0,,,,,0,,3,,
Raw,13872607,13876497000000,,,-1291005709936237312,0.0,69.92716953391209,-2.1520698980108492,20.922970235419033,163,8,0.0,207,41568357502123,325,12.3,-711.7147216796875,10.072000503540039,0,0.0,0.0,,,,,0,,3,,
Raw,13872607,13876497000000,,,-1291005709936237312,0.0,69.92716953391209,-2.1520698980108492,20.922970235419033,163,3,0.0,15,376386352521809,11,33.5,-316.94189453125,0.04090000316500664,0,0.0,0.0,,,,,0,,1,,
Raw,13872608,13876497000000,,,-1291005709936237312,0.0,69.92716953391209,-2.1520698980108492,20.922970235419033,163,16,0.0,15,376386359613503,14,30.6,-518.6383056640625,0.05430000275373459,0,0.0,0.0,,,,,0,,1,,
Raw,13872608,13876497000000,,,-1291005709936237312,0.0,69.92716953391209,-2.1520698980108492,20.922970235419033,163,22,0.0,15,376386354328986,7,37.2,-96.94745635986328,0.041600000113248825,0,0.0,0.0,,,,,0,,1,,
Raw,13872609,13876497000000,,,-1291005709936237312,0.0,69.92716953391209,-2.1520698980108492,20.922970235419033,163,29,0.0,15,376386356696099,122,16.9,74.75686645507812,4.940500259399414,0,0.0,0.0,,,,,0,,1,,
Raw,13872609,13876497000000,,,-1291005709936237312,0.0,69.92716953391209,-2.1520698980108492,20.922970235419033,163,31,0.0,15,376386361829109,70,17.6,56.16517639160156,1.0779999494552612,0,0.0,0.0,,,,,0,,1,,
Raw,13872610,13876497000000,,,-1291005709936237312,0.0,69.92716953391209,-2.1520698980108492,20.922970235419033,163,32,0.0,15,376386364160399,21,26.3,215.1335906982422,0.11720000207424164,0,0.0,0.0,,,,,0,,1,,
Raw,13872611,13876497000000,,,-1291005709936237312,0.0,69.92716953391209,-2.1520698980108492,20.922970235419033,163,1,0.0,783,376372309251054,137,20.0,14.806243896484375,6.815000057220459,0,0.0,0.0,,,,,0,,5,,
Raw,13872611,13876497000000,,,-1291005709936237312,0.0,69.92716953391209,-2.1520698980108492,20.922970235419033,163,2,0.0,783,376372308259750,23,26.9,3.130244016647339,1.2335000038146973,0,0.0,0.0,,,,,0,,5,,
Raw,13872612,13876497000000,,,-1291005709936237312,0.0,69.92716953391209,-2.1520698980108492,20.922970235419033,163,5,0.0,783,376372300071066,13,31.0,3.3606910705566406,0.3634999990463257,0,0.0,0.0,,,,,0,,5,,
Raw,13872612,13876497000000,,,-1291005709936237312,0.0,69.92716953391209,-2.1520698980108492,20.922970235419033,163,10,0.0,15,376372308665328,27,24.6,-69.374267578125,0.5885000228881836,0,0.0,0.0,,,,,0,,5,,
Raw,13872613,13876497000000,,,-1291005709936237312,0.0,69.92716953391209,-2.1520698980108492,20.922970235419033,163,13,0.0,15,376372295954426,795,10.4,221.69039916992188,17.499000549316406,0,0.0,0.0,,,,,0,,5,,
Raw,13872613,13876497000000,,,-1291005709936237312,0.0,69.92716953391209,-2.1520698980108492,20.922970235419033,163,16,0.0,15,376372312475281,61,18.2,-101.50247192382812,0.934499979019165,0,0.0,0.0,,,,,0,,5,,
Raw,13872614,13876497000000,,,-1291005709936237312,0.0,69.92716953391209,-2.1520698980108492,20.922970235419033,163,21,0.0,15,376372358824758,53,19.9,185.10687255859375,0.8134999871253967,0,0.0,0.0,,,,,0,,5,,
Raw,13872614,13876497000000,,,-1291005709936237312,0.0,69.92716953391209,-2.1520698980108492,20.922970235419033,163,24,0.0,15,376372345247498,9,35.6,-311.0434875488281,0.029100000858306885,0,0.0,0.0,,,,,0,,5,,
Raw,13872615,13876497000000,,,-1291005709936237312,0.0,69.92716953391209,-2.1520698980108492,20.922970235419033,163,26,0.0,15,376372357139433,79,17.6,-96.71109008789062,2.5220000743865967,0,0.0,0.0,,,,,0,,5,,
Raw,13872615,13876497000000,,,-1291005709936237312,0.0,69.92716953391209,-2.1520698980108492,20.922970235419033,163,9,0.0,7183,376386360865280,1032,10.9,159.2758026123047,20.370500564575195,0,0.0,0.0,,,,,0,,6,,
Raw,13872616,13876497000000,,,-1291005709936237312,0.0,69.92716953391209,-2.1520698980108492,20.922970235419033,163,24,0.0,7183,376386353843271,229,18.1,123.39593505859375,9.122000694274902,0,0.0,0.0,,,,,0,,6,,
Raw,13872616,13876497000000,,,-1291005709936237312,0.0,69.92716953391209,-2.1520698980108492,20.922970235419033,163,25,0.0,7183,376386346914585,13,31.0,-267.46728515625,0.3334999978542328,0,0.0,0.0,,,,,0,,6,,
NMEA,$GPGSV,3,2,10,31,48,001,18,32,61,113,26,10,11,174,,25,13,037,*7C,1606984368500
NMEA,$GPGSV,3,3,10,26,68,262,,27,02,192,*79,1606984368500
NMEA,$GLGSV,3,1,10,74,35,284,17,75,00,000,36,70,49,172,13,73,43,352,21*64,1606984368501
NMEA,$GLGSV,3,2,10,71,67,303,15,72,18,329,12,82,04,052,,80,11,037,*64,1606984368501
NMEA,$GLGSV,3,3,10,84,01,149,,83,10,095,*63,1606984368501
NMEA,$GAGSV,2,1,07,09,73,144,11,24,66,324,18,25,31,247,31,03,00,000,*6F,1606984368501
NMEA,$GAGSV,2,2,07,04,18,140,,05,50,319,,31,31,032,*5D,1606984368503
NMEA,$PQGSV,1,1,03,194,64,033,15,195,33,137,17,193,52,161,,0,5*67,1606984368504
NMEA,$PQGSV,4,1,16,01,52,129,20,02,40,240,27,05,00,000,31,10,49,229,25,0,4*67,1606984368504
NMEA,$PQGSV,4,2,16,13,02,208,10,16,71,030,18,21,62,236,20,24,08,262,36,0,4*65,1606984368505
NMEA,$PQGSV,4,3,16,26,43,299,18,03,59,202,,04,37,115,,06,72,042,,0,4*6C,1606984368506
NMEA,$PQGSV,4,4,16,07,76,240,,08,00,000,,09,55,338,,14,09,319,,0,4*62,1606984368507
NMEA,$GNGSA,A,3,03,16,22,31,32,,,,,,,,1.6,1.3,1.0,1*32,1606984368508
NMEA,$GNGSA,A,2,74,,,,,,,,,,,,1.6,1.3,1.0,2*34,1606984368508
NMEA,$GNGSA,A,2,25,,,,,,,,,,,,1.6,1.3,1.0,3*31,1606984368508
NMEA,$PQGSA,A,2,24,,,,,,,,,,,,1.6,1.3,1.0,4*3F,1606984368508
NMEA,$GNVTG,,T,,M,0.0,N,0.0,K,A*3D,1606984368508
NMEA,$GNRMC,083249.00,A,2255.526572,N,12017.685824,E,0.0,,031220,2.8,W,A*1A,1606984368509
NMEA,$GNGGA,083249.00,2255.526572,N,12017.685824,E,1,08,1.3,26.4,M,17.5,M,,*4E,1606984368509
Raw,13873726,13877497000000,,,-1291005709936237312,0.0,63.11811739578843,-4.530823672543275,19.08994968037074,163,10,0.0,207,41569362388866,61,18.1,-117.32345581054688,1.1995000839233398,0,0.0,0.0,,,,,0,,3,,
Raw,13873727,13877497000000,,,-1291005709936237312,0.0,63.11811739578843,-4.530823672543275,19.08994968037074,163,11,0.0,207,41569356877856,9,35.2,-308.79541015625,0.24560000002384186,0,0.0,0.0,,,,,0,,3,,
Raw,13873727,13877497000000,,,-1291005709936237312,0.0,63.11811739578843,-4.530823672543275,19.08994968037074,163,6,0.0,207,41569365660620,1052,12.5,573.6769409179688,21.16900062561035,0,0.0,0.0,,,,,0,,3,,
Raw,13873728,13877497000000,,,-1291005709936237312,0.0,63.11811739578843,-4.530823672543275,19.08994968037074,163,9,0.0,207,41569364089297,40,21.6,291.8569641113281,0.9924999475479126,0,0.0,0.0,,,,,0,,3,,
Raw,13873728,13877497000000,,,-1291005709936237312,0.0,63.11811739578843,-4.530823672543275,19.08994968037074,163,7,0.0,207,41569368211807,232,14.9,-178.1872100830078,8.318500518798828,0,0.0,0.0,,,,,0,,3,,
Raw,13873729,13877497000000,,,-1291005709936237312,0.0,63.11811739578843,-4.530823672543275,19.08994968037074,163,8,0.0,207,41569357504497,391,12.3,-711.7147216796875,11.572000503540039,0,0.0,0.0,,,,,0,,3,,
Raw,13873731,13877497000000,,,-1291005709936237312,0.0,63.11811739578843,-4.530823672543275,19.08994968037074,163,3,0.0,15,376387352522878,13,31.9,-316.44549560546875,0.04320000112056732,0,0.0,0.0,,,,,0,,1,,
Raw,13873732,13877497000000,,,-1291005709936237312,0.0,63.11811739578843,-4.530823672543275,19.08994968037074,163,16,0.0,15,376387359615251,14,30.1,-518.1787109375,0.05430000275373459,0,0.0,0.0,,,,,0,,1,,
Raw,13873733,13877497000000,,,-1291005709936237312,0.0,63.11811739578843,-4.530823672543275,19.08994968037074,163,22,0.0,15,376387354329316,7,37.9,-96.40601348876953,0.041600000113248825,0,0.0,0.0,,,,,0,,1,,
Raw,13873733,13877497000000,,,-1291005709936237312,0.0,63.11811739578843,-4.530823672543275,19.08994968037074,163,29,0.0,15,376387356695849,156,16.9,74.75686645507812,6.440500259399414,0,0.0,0.0,,,,,0,,1,,
Raw,13873734,13877497000000,,,-1291005709936237312,0.0,63.11811739578843,-4.530823672543275,19.08994968037074,163,31,0.0,15,376387361828779,40,21.1,56.393531799316406,0.8479999899864197,0,0.0,0.0,,,,,0,,1,,
Raw,13873734,13877497000000,,,-1291005709936237312,0.0,63.11811739578843,-4.530823672543275,19.08994968037074,163,32,0.0,15,376387364159620,21,26.2,215.9333038330078,0.11720000207424164,0,0.0,0.0,,,,,0,,1,,
Raw,13873735,13877497000000,,,-1291005709936237312,0.0,63.11811739578843,-4.530823672543275,19.08994968037074,163,1,0.0,783,376373309251004,185,20.0,14.806243896484375,8.315000534057617,0,0.0,0.0,,,,,0,,5,,
Raw,13873735,13877497000000,,,-1291005709936237312,0.0,63.11811739578843,-4.530823672543275,19.08994968037074,163,2,0.0,783,376373308259740,35,26.9,3.130244016647339,2.7335000038146973,0,0.0,0.0,,,,,0,,5,,
Raw,13873736,13877497000000,,,-1291005709936237312,0.0,63.11811739578843,-4.530823672543275,19.08994968037074,163,5,0.0,783,376373300071056,14,30.7,6.174069881439209,0.3935000002384186,0,0.0,0.0,,,,,0,,5,,
Raw,13873741,13877497000000,,,-1291005709936237312,0.0,63.11811739578843,-4.530823672543275,19.08994968037074,163,10,0.0,15,376373308665579,27,24.7,-69.345458984375,0.5885000228881836,0,0.0,0.0,,,,,0,,5,,
Raw,13873742,13877497000000,,,-1291005709936237312,0.0,63.11811739578843,-4.530823672543275,19.08994968037074,163,13,0.0,15,376373295953655,182,12.8,222.16087341308594,5.129000186920166,0,0.0,0.0,,,,,0,,5,,
Raw,13873742,13877497000000,,,-1291005709936237312,0.0,63.11811739578843,-4.530823672543275,19.08994968037074,163,16,0.0,15,376373312475620,69,18.2,-101.50247192382812,2.434499979019165,0,0.0,0.0,,,,,0,,5,,
Raw,13873743,13877497000000,,,-1291005709936237312,0.0,63.11811739578843,-4.530823672543275,19.08994968037074,163,21,0.0,15,376373358824094,46,20.9,186.07666015625,0.7534999847412109,0,0.0,0.0,,,,,0,,5,,
Raw,13873743,13877497000000,,,-1291005709936237312,0.0,63.11811739578843,-4.530823672543275,19.08994968037074,163,24,0.0,15,376373345248534,8,36.2,-310.5692138671875,0.028700001537799835,0,0.0,0.0,,,,,0,,5,,
Raw,13873744,13877497000000,,,-1291005709936237312,0.0,63.11811739578843,-4.530823672543275,19.08994968037074,163,26,0.0,15,376373357139758,35,22.1,-96.01974487304688,0.6919999718666077,0,0.0,0.0,,,,,0,,5,,
Raw,13873744,13877497000000,,,-1291005709936237312,0.0,63.11811739578843,-4.530823672543275,19.08994968037074,163,9,0.0,7183,376387360864749,1168,10.9,159.2758026123047,21.870500564575195,0,0.0,0.0,,,,,0,,6,,
Raw,13873745,13877497000000,,,-1291005709936237312,0.0,63.11811739578843,-4.530823672543275,19.08994968037074,163,24,0.0,7183,376387353842882,133,15.5,121.19804382324219,4.8520002365112305,0,0.0,0.0,,,,,0,,6,,
Raw,13873745,13877497000000,,,-1291005709936237312,0.0,63.11811739578843,-4.530823672543275,19.08994968037074,163,25,0.0,7183,376387346915473,12,32.0,-266.9267883300781,0.05090000107884407,0,0.0,0.0,,,,,0,,6,,
Fix,gps,22.925443,120.294764,43.913086,0.000000,9.648001,1606984370000
NMEA,$GPGSV,3,1,10,03,14,307,32,16,35,227,30,22,23,288,38,29,28,071,17*75,1606984369506
NMEA,$GPGSV,3,2,10,31,48,001,21,32,61,113,26,10,11,174,,25,13,037,*76,1606984369506
NMEA,$GPGSV,3,3,10,26,68,262,,27,02,192,*79,1606984369507
NMEA,$GLGSV,3,1,10,74,35,284,18,75,00,000,35,70,49,172,13,73,43,352,22*6B,1606984369507
NMEA,$GLGSV,3,2,10,71,67,303,15,72,18,329,12,82,04,052,,80,11,037,*64,1606984369508
NMEA,$GLGSV,3,3,10,84,01,149,,83,10,095,*63,1606984369509
NMEA,$GAGSV,2,1,07,09,73,144,11,24,66,324,16,25,31,247,32,03,00,000,*62,1606984369513
NMEA,$GAGSV,2,2,07,04,18,140,,05,50,319,,31,31,032,*5D,1606984369514
NMEA,$PQGSV,1,1,03,194,64,033,16,195,33,137,16,193,52,161,,0,5*65,1606984369516
NMEA,$PQGSV,4,1,16,01,52,129,20,02,40,240,27,05,00,000,31,10,49,229,25,0,4*67,1606984369516
NMEA,$PQGSV,4,2,16,13,02,208,13,16,71,030,18,21,62,236,21,24,08,262,36,0,4*67,1606984369517
NMEA,$PQGSV,4,3,16,26,43,299,22,03,59,202,,04,37,115,,06,72,042,,0,4*65,1606984369518
NMEA,$PQGSV,4,4,16,07,76,240,,08,00,000,,09,55,338,,14,09,319,,0,4*62,1606984369519
NMEA,$GNGSA,A,3,03,16,22,31,32,,,,,,,,1.6,1.3,1.0,1*32,1606984369521
NMEA,$GNGSA,A,2,74,,,,,,,,,,,,1.6,1.3,1.0,2*34,1606984369523
NMEA,$GNGSA,A,2,25,,,,,,,,,,,,1.6,1.3,1.0,3*31,1606984369523
NMEA,$PQGSA,A,2,24,,,,,,,,,,,,1.6,1.3,1.0,4*3F,1606984369524
NMEA,$GNVTG,,T,,M,0.0,N,0.0,K,A*3D,1606984369524
NMEA,$GNRMC,083250.00,A,2255.526571,N,12017.685824,E,0.0,,031220,2.8,W,A*11,1606984369527
NMEA,$GNGGA,083250.00,2255.526571,N,12017.685824,E,1,08,1.3,26.4,M,17.5,M,,*45,1606984369527
Fix,gps,22.925443,120.294764,43.915344,0.000000,10.720000,1606984371000
Raw,13874609,13878497000000,,,-1291005709936237312,0.0,59.372327086748555,-3.755019285410184,16.627480289006286,163,10,0.0,207,41570362389651,46,20.3,-116.1322021484375,1.0494999885559082,0,0.0,0.0,,,,,0,,3,,
Raw,13874610,13878497000000,,,-1291005709936237312,0.0,59.372327086748555,-3.755019285410184,16.627480289006286,163,11,0.0,207,41570356878867,8,36.0,-308.6783447265625,0.2452000081539154,0,0.0,0.0,,,,,0,,3,,
Raw,13874610,13878497000000,,,-1291005709936237312,0.0,59.372327086748555,-3.755019285410184,16.627480289006286,163,6,0.0,207,41570365658707,1192,12.5,573.6769409179688,22.66900062561035,0,0.0,0.0,,,,,0,,3,,
Raw,13874611,13878497000000,,,-1291005709936237312,0.0,59.372327086748555,-3.755019285410184,16.627480289006286,163,9,0.0,207,41570364088594,40,21.2,291.8663330078125,0.9924999475479126,0,0.0,0.0,,,,,0,,3,,
Raw,13874611,13878497000000,,,-1291005709936237312,0.0,59.372327086748555,-3.755019285410184,16.627480289006286,163,7,0.0,207,41570368212606,126,14.2,-178.6168670654297,3.818500280380249,0,0.0,0.0,,,,,0,,3,,
Raw,13874612,13878497000000,,,-1291005709936237312,0.0,59.372327086748555,-3.755019285410184,16.627480289006286,163,8,0.0,207,41570357506871,467,12.3,-711.7147216796875,13.072000503540039,0,0.0,0.0,,,,,0,,3,,
Raw,13874612,13878497000000,,,-1291005709936237312,0.0,59.372327086748555,-3.755019285410184,16.627480289006286,163,3,0.0,15,376388352523909,12,32.7,-316.2742919921875,0.04190000146627426,0,0.0,0.0,,,,,0,,1,,
Raw,13874612,13878497000000,,,-1291005709936237312,0.0,59.372327086748555,-3.755019285410184,16.627480289006286,163,16,0.0,15,376388359616975,13,31.1,-518.0165405273438,0.053700003772974014,0,0.0,0.0,,,,,0,,1,,
Raw,13874613,13878497000000,,,-1291005709936237312,0.0,59.372327086748555,-3.755019285410184,16.627480289006286,163,22,0.0,15,376388354329627,6,38.3,-96.25709533691406,0.04110000282526016,0,0.0,0.0,,,,,0,,1,,
Raw,13874613,13878497000000,,,-1291005709936237312,0.0,59.372327086748555,-3.755019285410184,16.627480289006286,163,29,0.0,15,376388356695682,125,14.4,77.12602996826172,3.750500202178955,0,0.0,0.0,,,,,0,,1,,
Raw,13874614,13878497000000,,,-1291005709936237312,0.0,59.372327086748555,-3.755019285410184,16.627480289006286,163,31,0.0,15,376388361828685,61,18.8,57.35451126098633,0.9980000257492065,0,0.0,0.0,,,,,0,,1,,
Raw,13874614,13878497000000,,,-1291005709936237312,0.0,59.372327086748555,-3.755019285410184,16.627480289006286,163,32,0.0,15,376388364158893,19,27.6,215.9917755126953,0.047300003468990326,0,0.0,0.0,,,,,0,,1,,
Raw,13874614,13878497000000,,,-1291005709936237312,0.0,59.372327086748555,-3.755019285410184,16.627480289006286,163,1,0.0,783,376374309250955,243,20.0,14.806243896484375,9.815000534057617,0,0.0,0.0,,,,,0,,5,,
Raw,13874615,13878497000000,,,-1291005709936237312,0.0,59.372327086748555,-3.755019285410184,16.627480289006286,163,2,0.0,783,376374308259756,24,26.4,0.4993027150630951,1.2735000848770142,0,0.0,0.0,,,,,0,,5,,
Raw,13874615,13878497000000,,,-1291005709936237312,0.0,59.372327086748555,-3.755019285410184,16.627480289006286,163,5,0.0,783,376374300071042,14,30.7,6.087652206420898,0.3935000002384186,0,0.0,0.0,,,,,0,,5,,
Raw,13874616,13878497000000,,,-1291005709936237312,0.0,59.372327086748555,-3.755019285410184,16.627480289006286,163,10,0.0,15,376374308665831,31,23.5,-68.9805908203125,0.6285000443458557,0,0.0,0.0,,,,,0,,5,,
Raw,13874616,13878497000000,,,-1291005709936237312,0.0,59.372327086748555,-3.755019285410184,16.627480289006286,163,13,0.0,15,376374295952914,217,12.8,222.16087341308594,6.629000186920166,0,0.0,0.0,,,,,0,,5,,
Raw,13874617,13878497000000,,,-1291005709936237312,0.0,59.372327086748555,-3.755019285410184,16.627480289006286,163,16,0.0,15,376374312475865,64,18.0,-101.3200454711914,1.684499979019165,0,0.0,0.0,,,,,0,,5,,
Raw,13874617,13878497000000,,,-1291005709936237312,0.0,59.372327086748555,-3.755019285410184,16.627480289006286,163,21,0.0,15,376374358823489,61,18.9,186.27830505371094,0.8734999895095825,0,0.0,0.0,,,,,0,,5,,
Raw,13874617,13878497000000,,,-1291005709936237312,0.0,59.372327086748555,-3.755019285410184,16.627480289006286,163,24,0.0,15,376374345249568,9,35.9,-310.4837951660156,0.029100000858306885,0,0.0,0.0,,,,,0,,5,,
Raw,13874618,13878497000000,,,-1291005709936237312,0.0,59.372327086748555,-3.755019285410184,16.627480289006286,163,26,0.0,15,376374357140101,46,20.8,-96.29820251464844,0.7519999742507935,0,0.0,0.0,,,,,0,,5,,
Raw,13874618,13878497000000,,,-1291005709936237312,0.0,59.372327086748555,-3.755019285410184,16.627480289006286,163,9,0.0,7183,376388360864217,1313,10.9,159.2758026123047,23.370500564575195,0,0.0,0.0,,,,,0,,6,,
Raw,13874619,13878497000000,,,-1291005709936237312,0.0,59.372327086748555,-3.755019285410184,16.627480289006286,163,24,0.0,7183,376388353842509,61,18.3,122.08290100097656,0.871999979019165,0,0.0,0.0,,,,,0,,6,,
Raw,13874619,13878497000000,,,-1291005709936237312,0.0,59.372327086748555,-3.755019285410184,16.627480289006286,163,25,0.0,7183,376388346916365,13,31.0,-265.86895751953125,0.05220000073313713,0,0.0,0.0,,,,,0,,6,,
NMEA,$GPGSV,3,1,10,03,14,307,33,16,35,227,31,22,23,288,38,29,28,071,14*76,1606984370514
NMEA,$GPGSV,3,2,10,31,48,001,19,32,61,113,28,10,11,174,,25,13,037,*73,1606984370514
NMEA,$GPGSV,3,3,10,26,68,262,,27,02,192,*79,1606984370514
NMEA,$GLGSV,3,1,10,74,35,284,20,75,00,000,36,70,49,172,13,73,43,352,21*60,1606984370517
NMEA,$GLGSV,3,2,10,71,67,303,14,72,18,329,12,82,04,052,,80,11,037,*65,1606984370518
NMEA,$GLGSV,3,3,10,84,01,149,,83,10,095,*63,1606984370519
NMEA,$GAGSV,2,1,07,09,73,144,11,24,66,324,18,25,31,247,31,03,00,000,*6F,1606984370519
NMEA,$GAGSV,2,2,07,04,18,140,,05,50,319,,31,31,032,*5D,1606984370519
NMEA,$PQGSV,1,1,03,194,64,033,16,195,33,137,17,193,52,161,,0,5*64,1606984370519
NMEA,$PQGSV,4,1,16,01,52,129,20,02,40,240,26,05,00,000,31,10,49,229,24,0,4*67,1606984370519
NMEA,$PQGSV,4,2,16,13,02,208,13,16,71,030,18,21,62,236,19,24,08,262,36,0,4*6C,1606984370520
NMEA,$PQGSV,4,3,16,26,43,299,21,03,59,202,,04,37,115,,06,72,042,,0,4*66,1606984370520
NMEA,$PQGSV,4,4,16,07,76,240,,08,00,000,,09,55,338,,14,09,319,,0,4*62,1606984370520
NMEA,$GNGSA,A,3,03,16,22,31,32,,,,,,,,1.6,1.3,1.0,1*32,1606984370521
NMEA,$GNGSA,A,2,25,,,,,,,,,,,,1.6,1.3,1.0,3*31,1606984370522
NMEA,$PQGSA,A,2,24,,,,,,,,,,,,1.6,1.3,1.0,4*3F,1606984370522
NMEA,$GNVTG,,T,,M,0.0,N,0.0,K,A*3D,1606984370522
NMEA,$GNRMC,083251.00,A,2255.526570,N,12017.685824,E,0.0,,031220,2.8,W,A*11,1606984370522
NMEA,$GNGGA,083251.00,2255.526570,N,12017.685824,E,1,07,1.3,26.4,M,17.5,M,,*4A,1606984370523
Fix,gps,22.925443,120.294764,43.919617,0.000000,9.648001,1606984372000
Raw,13875589,13879497000000,,,-1291005709936237312,0.0,62.492748838849366,-3.245968100656938,18.88480115782892,163,10,0.0,207,41571362389953,53,19.1,-115.77577209472656,1.1195000410079956,0,0.0,0.0,,,,,0,,3,,
Raw,13875589,13879497000000,,,-1291005709936237312,0.0,62.492748838849366,-3.245968100656938,18.88480115782892,163,11,0.0,207,41571356879906,8,36.0,-307.8667907714844,0.2452000081539154,0,0.0,0.0,,,,,0,,3,,
Raw,13875590,13879497000000,,,-1291005709936237312,0.0,62.492748838849366,-3.245968100656938,18.88480115782892,163,6,0.0,207,41571365656668,253,12.0,573.46142578125,8.089000701904297,0,0.0,0.0,,,,,0,,3,,
Raw,13875590,13879497000000,,,-1291005709936237312,0.0,62.492748838849366,-3.245968100656938,18.88480115782892,163,9,0.0,207,41571364087522,46,20.7,292.3157958984375,1.0525000095367432,0,0.0,0.0,,,,,0,,3,,
Raw,13875591,13879497000000,,,-1291005709936237312,0.0,62.492748838849366,-3.245968100656938,18.88480115782892,163,7,0.0,207,41571368213202,151,14.2,-178.6168670654297,5.31850004196167,0,0.0,0.0,,,,,0,,3,,
Raw,13875591,13879497000000,,,-1291005709936237312,0.0,62.492748838849366,-3.245968100656938,18.88480115782892,163,8,0.0,207,41571357509245,554,12.3,-711.7147216796875,14.572000503540039,0,0.0,0.0,,,,,0,,3,,
Raw,13875591,13879497000000,,,-1291005709936237312,0.0,62.492748838849366,-3.245968100656938,18.88480115782892,163,3,0.0,15,376389352524976,12,32.9,-315.4234313964844,0.04190000146627426,0,0.0,0.0,,,,,0,,1,,
Raw,13875592,13879497000000,,,-1291005709936237312,0.0,62.492748838849366,-3.245968100656938,18.88480115782892,163,16,0.0,15,376389359618690,12,32.2,-517.1798706054688,0.052400000393390656,0,0.0,0.0,,,,,0,,1,,
Raw,13875592,13879497000000,,,-1291005709936237312,0.0,62.492748838849366,-3.245968100656938,18.88480115782892,163,22,0.0,15,376389354329959,6,38.4,-95.42540740966797,0.04110000282526016,0,0.0,0.0,,,,,0,,1,,
Raw,13875593,13879497000000,,,-1291005709936237312,0.0,62.492748838849366,-3.245968100656938,18.88480115782892,163,29,0.0,15,376389356695425,150,14.4,77.12602996826172,5.250500202178955,0,0.0,0.0,,,,,0,,1,,
Raw,13875593,13879497000000,,,-1291005709936237312,0.0,62.492748838849366,-3.245968100656938,18.88480115782892,163,31,0.0,15,376389361828561,53,19.6,57.972965240478516,0.9179999828338623,0,0.0,0.0,,,,,0,,1,,
Raw,13875594,13879497000000,,,-1291005709936237312,0.0,62.492748838849366,-3.245968100656938,18.88480115782892,163,32,0.0,15,376389364158140,17,28.3,216.9401092529297,0.03930000215768814,0,0.0,0.0,,,,,0,,1,,
Raw,13875594,13879497000000,,,-1291005709936237312,0.0,62.492748838849366,-3.245968100656938,18.88480115782892,163,1,0.0,783,376375309251196,100,18.8,2.7557668685913086,4.625,0,0.0,0.0,,,,,0,,5,,
Raw,13875594,13879497000000,,,-1291005709936237312,0.0,62.492748838849366,-3.245968100656938,18.88480115782892,163,2,0.0,783,376375308259754,35,26.4,0.4993027150630951,2.7735002040863037,0,0.0,0.0,,,,,0,,5,,
Raw,13875595,13879497000000,,,-1291005709936237312,0.0,62.492748838849366,-3.245968100656938,18.88480115782892,163,5,0.0,783,376375300071051,14,30.3,5.5979509353637695,0.3935000002384186,0,0.0,0.0,,,,,0,,5,,
Raw,13875595,13879497000000,,,-1291005709936237312,0.0,62.492748838849366,-3.245968100656938,18.88480115782892,163,10,0.0,15,376375308666040,27,24.5,-68.82695007324219,0.5885000228881836,0,0.0,0.0,,,,,0,,5,,
Raw,13875596,13879497000000,,,-1291005709936237312,0.0,62.492748838849366,-3.245968100656938,18.88480115782892,163,13,0.0,15,376375295952173,262,12.8,222.16087341308594,8.129000663757324,0,0.0,0.0,,,,,0,,5,,
Raw,13875596,13879497000000,,,-1291005709936237312,0.0,62.492748838849366,-3.245968100656938,18.88480115782892,163,16,0.0,15,376375312476227,61,18.1,-99.56287384033203,0.934499979019165,0,0.0,0.0,,,,,0,,5,,
Raw,13875596,13879497000000,,,-1291005709936237312,0.0,62.492748838849366,-3.245968100656938,18.88480115782892,163,21,0.0,15,376375358822898,61,18.1,185.5677490234375,0.9434999823570251,0,0.0,0.0,,,,,0,,5,,
Raw,13875597,13879497000000,,,-1291005709936237312,0.0,62.492748838849366,-3.245968100656938,18.88480115782892,163,24,0.0,15,376375345250598,8,36.8,-309.7358093261719,0.028700001537799835,0,0.0,0.0,,,,,0,,5,,
Raw,13875597,13879497000000,,,-1291005709936237312,0.0,62.492748838849366,-3.245968100656938,18.88480115782892,163,26,0.0,15,376375357140430,40,21.4,-95.0499496459961,0.7519999742507935,0,0.0,0.0,,,,,0,,5,,
Raw,13875598,13879497000000,,,-1291005709936237312,0.0,62.492748838849366,-3.245968100656938,18.88480115782892,163,9,0.0,7183,376389360863686,1469,10.9,159.2758026123047,24.870500564575195,0,0.0,0.0,,,,,0,,6,,
Raw,13875598,13879497000000,,,-1291005709936237312,0.0,62.492748838849366,-3.245968100656938,18.88480115782892,163,24,0.0,7183,376389353842137,53,19.5,122.95825958251953,0.8119999766349792,0,0.0,0.0,,,,,0,,6,,
Raw,13875598,13879497000000,,,-1291005709936237312,0.0,62.492748838849366,-3.245968100656938,18.88480115782892,163,25,0.0,7183,376389346917250,13,31.9,-266.8486633300781,0.05220000073313713,0,0.0,0.0,,,,,0,,6,,
NMEA,$GPGSV,3,1,10,03,14,307,33,16,35,227,32,22,23,288,38,29,28,071,14*75,1606984371501
NMEA,$GPGSV,3,2,10,31,48,001,20,32,61,113,28,10,11,174,,25,13,037,*79,1606984371501
NMEA,$GPGSV,3,3,10,26,68,262,,27,02,192,*79,1606984371501
NMEA,$GLGSV,3,1,10,74,35,284,19,75,00,000,36,70,49,172,12,73,43,352,21*6B,1606984371502
NMEA,$GLGSV,3,2,10,71,67,303,14,72,18,329,12,82,04,052,,80,11,037,*65,1606984371502
NMEA,$GLGSV,3,3,10,84,01,149,,83,10,095,*63,1606984371502
NMEA,$GAGSV,2,1,07,09,73,144,11,24,66,324,20,25,31,247,32,03,00,000,*67,1606984371502
NMEA,$GAGSV,2,2,07,04,18,140,,05,50,319,,31,31,032,*5D,1606984371502
NMEA,$PQGSV,1,1,03,194,64,033,16,195,33,137,19,193,52,161,,0,5*6A,1606984371503
NMEA,$PQGSV,4,1,16,01,52,129,19,02,40,240,26,05,00,000,30,10,49,229,25,0,4*6D,1606984371503
NMEA,$PQGSV,4,2,16,13,02,208,13,16,71,030,18,21,62,236,18,24,08,262,37,0,4*6C,1606984371504
NMEA,$PQGSV,4,3,16,26,43,299,21,03,59,202,,04,37,115,,06,72,042,,0,4*66,1606984371504
NMEA,$PQGSV,4,4,16,07,76,240,,08,00,000,,09,55,338,,14,09,319,,0,4*62,1606984371504
NMEA,$GNGSA,A,3,03,16,22,31,32,,,,,,,,1.6,1.3,1.0,1*32,1606984371505
NMEA,$GNGSA,A,2,74,,,,,,,,,,,,1.6,1.3,1.0,2*34,1606984371506
NMEA,$GNGSA,A,2,25,,,,,,,,,,,,1.6,1.3,1.0,3*31,1606984371506
NMEA,$PQGSA,A,2,24,,,,,,,,,,,,1.6,1.3,1.0,4*3F,1606984371506
NMEA,$GNVTG,,T,,M,0.0,N,0.0,K,A*3D,1606984371508
NMEA,$GNRMC,083252.00,A,2255.526569,N,12017.685824,E,0.0,,031220,2.8,W,A*1A,1606984371512
NMEA,$GNGGA,083252.00,2255.526569,N,12017.685824,E,1,08,1.3,26.5,M,17.5,M,,*4F,1606984371512
Raw,13876699,13880497000000,,,-1291005709936237312,0.0,59.19648538110778,-1.7144788853292448,18.440338936521254,163,10,0.0,207,41572362390251,53,19.0,-114.4344482421875,1.1195000410079956,0,0.0,0.0,,,,,0,,3,,
Raw,13876700,13880497000000,,,-1291005709936237312,0.0,59.19648538110778,-1.7144788853292448,18.440338936521254,163,11,0.0,207,41572356880946,9,35.6,-307.138916015625,0.24560000002384186,0,0.0,0.0,,,,,0,,3,,
Raw,13876700,13880497000000,,,-1291005709936237312,0.0,59.19648538110778,-1.7144788853292448,18.440338936521254,163,6,0.0,207,41572365654755,306,12.0,573.46142578125,9.589000701904297,0,0.0,0.0,,,,,0,,3,,
Raw,13876701,13880497000000,,,-1291005709936237312,0.0,59.19648538110778,-1.7144788853292448,18.440338936521254,163,9,0.0,207,41572364086503,35,22.3,292.1659851074219,0.9324999451637268,0,0.0,0.0,,,,,0,,3,,
Raw,13876702,13880497000000,,,-1291005709936237312,0.0,59.19648538110778,-1.7144788853292448,18.440338936521254,163,7,0.0,207,41572368213798,186,14.2,-178.6168670654297,6.818500518798828,0,0.0,0.0,,,,,0,,3,,
Raw,13876702,13880497000000,,,-1291005709936237312,0.0,59.19648538110778,-1.7144788853292448,18.440338936521254,163,8,0.0,207,41572357511619,650,12.3,-711.7147216796875,16.07200050354004,0,0.0,0.0,,,,,0,,3,,
Raw,13876703,13880497000000,,,-1291005709936237312,0.0,59.19648538110778,-1.7144788853292448,18.440338936521254,163,3,0.0,15,376390352526018,11,33.4,-314.6604309082031,0.04090000316500664,0,0.0,0.0,,,,,0,,1,,
Raw,13876703,13880497000000,,,-1291005709936237312,0.0,59.19648538110778,-1.7144788853292448,18.440338936521254,163,16,0.0,15,376390359620406,12,32.3,-516.4349365234375,0.052400000393390656,0,0.0,0.0,,,,,0,,1,,
Raw,13876704,13880497000000,,,-1291005709936237312,0.0,59.19648538110778,-1.7144788853292448,18.440338936521254,163,22,0.0,15,376390354330276,6,38.5,-94.64997863769531,0.04110000282526016,0,0.0,0.0,,,,,0,,1,,
Raw,13876705,13880497000000,,,-1291005709936237312,0.0,59.19648538110778,-1.7144788853292448,18.440338936521254,163,29,0.0,15,376390356695167,186,14.4,77.12602996826172,6.750500202178955,0,0.0,0.0,,,,,0,,1,,
Raw,13876705,13880497000000,,,-1291005709936237312,0.0,59.19648538110778,-1.7144788853292448,18.440338936521254,163,31,0.0,15,376390361828363,46,20.2,58.81977462768555,0.9179999828338623,0,0.0,0.0,,,,,0,,1,,
Raw,13876706,13880497000000,,,-1291005709936237312,0.0,59.19648538110778,-1.7144788853292448,18.440338936521254,163,32,0.0,15,376390364157428,19,27.8,217.73573303222656,0.047300003468990326,0,0.0,0.0,,,,,0,,1,,
Raw,13876706,13880497000000,,,-1291005709936237312,0.0,59.19648538110778,-1.7144788853292448,18.440338936521254,163,1,0.0,783,376376309251187,133,18.8,2.7557668685913086,6.125,0,0.0,0.0,,,,,0,,5,,
Raw,13876707,13880497000000,,,-1291005709936237312,0.0,59.19648538110778,-1.7144788853292448,18.440338936521254,163,2,0.0,783,376376308259711,21,27.0,4.695365905761719,1.2335000038146973,0,0.0,0.0,,,,,0,,5,,
Raw,13876708,13880497000000,,,-1291005709936237312,0.0,59.19648538110778,-1.7144788853292448,18.440338936521254,163,5,0.0,783,376376300071011,14,30.9,7.431928634643555,0.3634999990463257,0,0.0,0.0,,,,,0,,5,,
Raw,13876708,13880497000000,,,-1291005709936237312,0.0,59.19648538110778,-1.7144788853292448,18.440338936521254,163,10,0.0,15,376376308666269,24,25.1,-67.87696075439453,0.3937999904155731,0,0.0,0.0,,,,,0,,5,,
Raw,13876709,13880497000000,,,-1291005709936237312,0.0,59.19648538110778,-1.7144788853292448,18.440338936521254,163,13,0.0,15,376376295951432,317,12.8,222.16087341308594,9.629000663757324,0,0.0,0.0,,,,,0,,5,,
Raw,13876710,13880497000000,,,-1291005709936237312,0.0,59.19648538110778,-1.7144788853292448,18.440338936521254,163,16,0.0,15,376376312476620,61,18.0,-99.84133911132812,0.934499979019165,0,0.0,0.0,,,,,0,,5,,
Raw,13876710,13880497000000,,,-1291005709936237312,0.0,59.19648538110778,-1.7144788853292448,18.440338936521254,163,21,0.0,15,376376358822282,61,18.3,187.4209442138672,0.9434999823570251,0,0.0,0.0,,,,,0,,5,,
Raw,13876711,13880497000000,,,-1291005709936237312,0.0,59.19648538110778,-1.7144788853292448,18.440338936521254,163,24,0.0,15,376376345251630,7,37.0,-309.0204772949219,0.02810000069439411,0,0.0,0.0,,,,,0,,5,,
Raw,13876712,13880497000000,,,-1291005709936237312,0.0,59.19648538110778,-1.7144788853292448,18.440338936521254,163,26,0.0,15,376376357140759,40,21.1,-93.77288818359375,0.7519999742507935,0,0.0,0.0,,,,,0,,5,,
Raw,13876712,13880497000000,,,-1291005709936237312,0.0,59.19648538110778,-1.7144788853292448,18.440338936521254,163,9,0.0,7183,376390360863155,1635,10.9,159.2758026123047,26.370500564575195,0,0.0,0.0,,,,,0,,6,,
Raw,13876713,13880497000000,,,-1291005709936237312,0.0,59.19648538110778,-1.7144788853292448,18.440338936521254,163,24,0.0,7183,376390353841696,53,19.2,122.79650115966797,0.8119999766349792,0,0.0,0.0,,,,,0,,6,,
Raw,13876714,13880497000000,,,-1291005709936237312,0.0,59.19648538110778,-1.7144788853292448,18.440338936521254,163,25,0.0,7183,376390346918129,12,32.6,-265.789306640625,0.05090000107884407,0,0.0,0.0,,,,,0,,6,,
Fix,gps,22.925443,120.294764,43.924744,0.000000,9.648001,1606984373000
NMEA,$GPGSV,3,1,10,03,14,307,33,16,35,227,32,22,23,288,39,29,28,071,14*74,1606984372501
NMEA,$GPGSV,3,2,10,31,48,001,20,32,61,113,28,10,11,174,,25,13,037,*79,1606984372501
NMEA,$GPGSV,3,3,10,26,68,262,,27,02,192,*79,1606984372501
NMEA,$GLGSV,3,1,10,74,35,284,19,75,00,000,36,70,49,172,12,73,43,352,22*68,1606984372501
NMEA,$GLGSV,3,2,10,71,67,303,14,72,18,329,12,82,04,052,,80,11,037,*65,1606984372501
NMEA,$GLGSV,3,3,10,84,01,149,,83,10,095,*63,1606984372504
NMEA,$GAGSV,2,1,07,09,73,144,11,24,66,324,19,25,31,247,33,03,00,000,*6C,1606984372504
NMEA,$GAGSV,2,2,07,04,18,140,,05,50,319,,31,31,032,*5D,1606984372505
NMEA,$PQGSV,1,1,03,194,64,033,15,195,33,137,19,193,52,161,,0,5*69,1606984372505
NMEA,$PQGSV,4,1,16,01,52,129,19,02,40,240,27,05,00,000,31,10,49,229,25,0,4*6D,1606984372505
NMEA,$PQGSV,4,2,16,13,02,208,13,16,71,030,18,21,62,236,18,24,08,262,37,0,4*6C,1606984372505
NMEA,$PQGSV,4,3,16,26,43,299,21,03,59,202,,04,37,115,,06,72,042,,0,4*66,1606984372506
NMEA,$PQGSV,4,4,16,07,76,240,,08,00,000,,09,55,338,,14,09,319,,0,4*62,1606984372506
NMEA,$GNGSA,A,3,03,16,22,31,32,,,,,,,,1.6,1.3,1.0,1*32,1606984372507
NMEA,$GNGSA,A,2,74,,,,,,,,,,,,1.6,1.3,1.0,2*34,1606984372507
NMEA,$GNGSA,A,2,25,,,,,,,,,,,,1.6,1.3,1.0,3*31,1606984372507
NMEA,$PQGSA,A,2,24,,,,,,,,,,,,1.6,1.3,1.0,4*3F,1606984372508
NMEA,$GNVTG,,T,,M,0.0,N,0.0,K,A*3D,1606984372508
NMEA,$GNRMC,083253.00,A,2255.526568,N,12017.685823,E,0.0,,031220,2.8,W,A*1D,1606984372508
