# 
# Header Description:
# 
# Version: v2.0.0.1 Platform: 8.0.0 Manufacturer: Sony Model: G8142
# 
# Raw,ElapsedRealtimeMillis,TimeNanos,LeapSecond,TimeUncertaintyNanos,FullBiasNanos,BiasNanos,BiasUncertaintyNanos,DriftNanosPerSecond,DriftUncertaintyNanosPerSecond,HardwareClockDiscontinuityCount,Svid,TimeOffsetNanos,State,ReceivedSvTimeNanos,ReceivedSvTimeUncertaintyNanos,Cn0DbHz,PseudorangeRateMetersPerSecond,PseudorangeRateUncertaintyMetersPerSecond,AccumulatedDeltaRangeState,AccumulatedDeltaRangeMeters,AccumulatedDeltaRangeUncertaintyMeters,CarrierFrequencyHz,CarrierCycles,CarrierPhase,CarrierPhaseUncertainty,MultipathIndicator,SnrInDb,ConstellationType,AgcDb,CarrierFrequencyHz
# 
# Fix,Provider,Latitude,Longitude,Altitude,Speed,Accuracy,(UTC)TimeInMs
# 
# Nav,Svid,Type,Status,MessageId,Sub-messageId,Data(Bytes)
# 
Fix,gps,22.925458,120.294692,45.234802,0.000000,10.720000,1606983477000
Raw,12980609,12984497000000,,,-1291005709936241408,0.0,67.13278708048165,3.7859782952481007,16.53127064378102,163,10,0.0,207,40676361960894,35,22.1,-176.11648559570312,0.9279999732971191,0,0.0,0.0,,,,,0,,3,,
Raw,12980609,12984497000000,,,-1291005709936241408,0.0,67.13278708048165,3.7859782952481007,16.53127064378102,163,11,0.0,207,40676355883958,24,25.9,-362.3023681640625,0.6042999625205994,0,0.0,0.0,,,,,0,,3,,
Raw,12980610,12984497000000,,,-1291005709936241408,0.0,67.13278708048165,3.7859782952481007,16.53127064378102,163,18,0.0,207,40676352425079,1681,12.4,-114.60139465332031,9.524500846862793,0,0.0,0.0,,,,,0,,3,,
Raw,12980610,12984497000000,,,-1291005709936241408,0.0,67.13278708048165,3.7859782952481007,16.53127064378102,163,9,0.0,207,40676364931576,287,14.9,269.83428955078125,9.8125,0,0.0,0.0,,,,,0,,3,,
Raw,12980610,12984497000000,,,-1291005709936241408,0.0,67.13278708048165,3.7859782952481007,16.53127064378102,163,7,0.0,207,40676367479019,96,15.6,-315.0523681640625,2.2170000076293945,0,0.0,0.0,,,,,0,,3,,
Raw,12980610,12984497000000,,,-1291005709936241408,0.0,67.13278708048165,3.7859782952481007,16.53127064378102,163,8,0.0,207,40676355315254,954,13.2,-754.9364013671875,20.194000244140625,0,0.0,0.0,,,,,0,,3,,
Raw,12980611,12984497000000,,,-1291005709936241408,0.0,67.13278708048165,3.7859782952481007,16.53127064378102,163,3,0.0,15,375494351461205,27,24.6,-397.67572021484375,0.6330000162124634,0,0.0,0.0,,,,,0,,1,,
Raw,12980611,12984497000000,,,-1291005709936241408,0.0,67.13278708048165,3.7859782952481007,16.53127064378102,163,10,0.0,15,375494353882067,70,17.5,660.6425170898438,1.0959999561309814,0,0.0,0.0,,,,,0,,1,,
Raw,12980611,12984497000000,,,-1291005709936241408,0.0,67.13278708048165,3.7859782952481007,16.53127064378102,163,16,0.0,15,375494357973926,13,31.3,-585.2704467773438,0.050700001418590546,0,0.0,0.0,,,,,0,,1,,
Raw,12980611,12984497000000,,,-1291005709936241408,0.0,67.13278708048165,3.7859782952481007,16.53127064378102,163,22,0.0,15,375494353921999,8,36.1,-180.2145538330078,0.04070000350475311,0,0.0,0.0,,,,,0,,1,,
Raw,12980611,12984497000000,,,-1291005709936241408,0.0,67.13278708048165,3.7859782952481007,16.53127064378102,163,26,0.0,15,375494364844625,46,20.7,-187.99111938476562,0.8524999618530273,0,0.0,0.0,,,,,0,,1,,
Raw,12980612,12984497000000,,,-1291005709936241408,0.0,67.13278708048165,3.7859782952481007,16.53127064378102,163,31,0.0,15,375494361990324,927,8.7,49.62859344482422,19.43800163269043,0,0.0,0.0,,,,,0,,1,,
Raw,12980612,12984497000000,,,-1291005709936241408,0.0,67.13278708048165,3.7859782952481007,16.53127064378102,163,32,0.0,15,375494364677001,166,17.0,128.438720703125,7.172500133514404,0,0.0,0.0,,,,,0,,1,,
Raw,12980613,12984497000000,,,-1291005709936241408,0.0,67.13278708048165,3.7859782952481007,16.53127064378102,163,1,0.0,783,375480309256882,2655,19.4,-4.9930267333984375,34.625,0,0.0,0.0,,,,,0,,5,,
Raw,12980613,12984497000000,,,-1291005709936241408,0.0,67.13278708048165,3.7859782952481007,16.53127064378102,163,2,0.0,783,375480308272276,35,26.2,2.7845726013183594,2.7735002040863037,0,0.0,0.0,,,,,0,,5,,
Raw,12980614,12984497000000,,,-1291005709936241408,0.0,67.13278708048165,3.7859782952481007,16.53127064378102,163,5,0.0,783,375480300090698,26,27.8,5.876408576965332,1.94350004196167,0,0.0,0.0,,,,,0,,5,,
Raw,12980614,12984497000000,,,-1291005709936241408,0.0,67.13278708048165,3.7859782952481007,16.53127064378102,163,7,0.0,15,375480312159356,341,14.9,-23.534440994262695,10.859500885009766,0,0.0,0.0,,,,,0,,5,,
Raw,12980614,12984497000000,,,-1291005709936241408,0.0,67.13278708048165,3.7859782952481007,16.53127064378102,163,10,0.0,15,375480308436093,40,21.2,-88.11732482910156,0.7384999990463257,0,0.0,0.0,,,,,0,,5,,
Raw,12980615,12984497000000,,,-1291005709936241408,0.0,67.13278708048165,3.7859782952481007,16.53127064378102,163,13,0.0,15,375480296659910,40,21.7,250.06422424316406,0.750499963760376,0,0.0,0.0,,,,,0,,5,,
Raw,12980615,12984497000000,,,-1291005709936241408,0.0,67.13278708048165,3.7859782952481007,16.53127064378102,163,14,0.0,15,375480344317926,48,21.5,-545.7954711914062,2.2325000762939453,0,0.0,0.0,,,,,0,,5,,
Raw,12980615,12984497000000,,,-1291005709936241408,0.0,67.13278708048165,3.7859782952481007,16.53127064378102,163,21,0.0,15,375480359251751,199,16.0,97.7096939086914,7.8550004959106445,0,0.0,0.0,,,,,0,,5,,
Raw,12980615,12984497000000,,,-1291005709936241408,0.0,67.13278708048165,3.7859782952481007,16.53127064378102,163,24,0.0,15,375480344298201,21,26.3,-331.0622863769531,0.11720000207424164,0,0.0,0.0,,,,,0,,5,,
Raw,12980616,12984497000000,,,-1291005709936241408,0.0,67.13278708048165,3.7859782952481007,16.53127064378102,163,26,0.0,15,375480356830217,13,31.9,-116.26268005371094,0.04920000210404396,0,0.0,0.0,,,,,0,,5,,
Raw,12980616,12984497000000,,,-1291005709936241408,0.0,67.13278708048165,3.7859782952481007,16.53127064378102,163,9,0.0,7183,375494361246161,136,16.3,93.8908920288086,5.522000312805176,0,0.0,0.0,,,,,0,,6,,
Raw,12980616,12984497000000,,,-1291005709936241408,0.0,67.13278708048165,3.7859782952481007,16.53127064378102,163,25,0.0,7183,375494346061765,53,19.8,-308.9037170410156,0.8134999871253967,0,0.0,0.0,,,,,0,,6,,
Raw,12980616,12984497000000,,,-1291005709936241408,0.0,67.13278708048165,3.7859782952481007,16.53127064378102,163,31,0.0,7183,375494347938218,567,13.0,410.0733337402344,14.779000282287598,0,0.0,0.0,,,,,0,,6,,
NMEA,$GPGSV,3,1,09,03,10,313,25,10,17,177,18,16,30,222,31,22,22,295,36*76,1606983476505
NMEA,$GPGSV,3,2,09,26,63,246,21,31,48,351,09,32,66,098,17,25,19,037,*7E,1606983476509
NMEA,$GPGSV,3,3,09,29,28,078,*4E,1606983476510
NMEA,$GLGSV,3,1,10,74,33,272,22,75,00,000,26,82,03,059,12,73,47,341,15*67,1606983476510
NMEA,$GLGSV,3,2,10,71,61,319,16,72,11,331,13,70,59,170,,80,16,032,*6D,1606983476510
NMEA,$GLGSV,3,3,10,69,02,156,,83,07,102,*64,1606983476511
NMEA,$GAGSV,2,1,05,09,78,129,16,25,28,241,20,31,35,030,13,04,23,137,*68,1606983476511
NMEA,$GAGSV,2,2,05,05,45,322,*5A,1606983476511
NMEA,$PQGSV,1,1,03,193,54,158,13,195,31,139,15,194,66,035,,0,5*67,1606983476511
NMEA,$PQGSV,4,1,16,01,52,129,19,02,40,240,26,05,00,000,28,07,75,226,15,0,4*61,1606983476511
NMEA,$PQGSV,4,2,16,10,48,223,21,13,04,210,22,14,05,322,22,21,66,250,16,0,4*62,1606983476511
NMEA,$PQGSV,4,3,16,24,05,257,26,26,42,291,32,03,59,202,,04,37,115,,0,4*6F,1606983476511
NMEA,$PQGSV,4,4,16,06,69,036,,08,00,000,,09,53,338,,16,68,026,,0,4*62,1606983476512
NMEA,$GNGSA,A,3,03,10,16,22,26,31,32,,,,,,1.5,1.2,0.8,1*3C,1606983476512
NMEA,$GNGSA,A,2,74,,,,,,,,,,,,1.5,1.2,0.8,2*3F,1606983476513
NMEA,$GNGSA,A,2,25,,,,,,,,,,,,1.5,1.2,0.8,3*3A,1606983476513
NMEA,$PQGSA,A,2,24,,,,,,,,,,,,1.5,1.2,0.8,4*34,1606983476524
NMEA,$GNVTG,,T,,M,0.0,N,0.0,K,A*3D,1606983476525
NMEA,$GNRMC,081757.00,A,2255.527493,N,12017.681514,E,0.0,,031220,2.8,W,A*17,1606983476526
NMEA,$GNGGA,081757.00,2255.527493,N,12017.681514,E,1,10,1.2,27.8,M,17.5,M,,*46,1606983476526
Fix,gps,22.925458,120.294691,45.260132,0.000000,10.720000,1606983478000
Raw,12981577,12985497000000,,,-1291005709936241408,0.0,68.10027116443962,3.237025986097745,15.587861652210664,163,10,0.0,207,40677361961527,31,23.2,-175.6850128173828,0.8679999709129333,0,0.0,0.0,,,,,0,,3,,
Raw,12981578,12985497000000,,,-1291005709936241408,0.0,68.10027116443962,3.237025986097745,15.587861652210664,163,11,0.0,207,40677355885181,21,26.7,-362.3252868652344,0.3337000012397766,0,0.0,0.0,,,,,0,,3,,
Raw,12981578,12985497000000,,,-1291005709936241408,0.0,68.10027116443962,3.237025986097745,15.587861652210664,163,18,0.0,207,40677352425454,1711,12.4,-114.6294937133789,10.274500846862793,0,0.0,0.0,,,,,0,,3,,
Raw,12981578,12985497000000,,,-1291005709936241408,0.0,68.10027116443962,3.237025986097745,15.587861652210664,163,9,0.0,207,40677364930819,137,14.1,269.1507568359375,4.5625,0,0.0,0.0,,,,,0,,3,,
Raw,12981578,12985497000000,,,-1291005709936241408,0.0,68.10027116443962,3.237025986097745,15.587861652210664,163,7,0.0,207,40677367480070,111,15.6,-315.0523681640625,3.7170002460479736,0,0.0,0.0,,,,,0,,3,,
Raw,12981579,12985497000000,,,-1291005709936241408,0.0,68.10027116443962,3.237025986097745,15.587861652210664,163,8,0.0,207,40677355317772,1088,13.2,-754.9364013671875,21.694000244140625,0,0.0,0.0,,,,,0,,3,,
Raw,12981579,12985497000000,,,-1291005709936241408,0.0,68.10027116443962,3.237025986097745,15.587861652210664,163,3,0.0,15,375495351462498,19,27.5,-398.20697021484375,0.05780000239610672,0,0.0,0.0,,,,,0,,1,,
Raw,12981579,12985497000000,,,-1291005709936241408,0.0,68.10027116443962,3.237025986097745,15.587861652210664,163,10,0.0,15,375495353879847,46,20.5,659.2628784179688,0.8659999966621399,0,0.0,0.0,,,,,0,,1,,
Raw,12981579,12985497000000,,,-1291005709936241408,0.0,68.10027116443962,3.237025986097745,15.587861652210664,163,16,0.0,15,375495357975901,14,30.3,-585.3906860351562,0.05130000039935112,0,0.0,0.0,,,,,0,,1,,
Raw,12981580,12985497000000,,,-1291005709936241408,0.0,68.10027116443962,3.237025986097745,15.587861652210664,163,22,0.0,15,375495353922585,12,32.3,-180.3321533203125,0.04340000078082085,0,0.0,0.0,,,,,0,,1,,
Raw,12981580,12985497000000,,,-1291005709936241408,0.0,68.10027116443962,3.237025986097745,15.587861652210664,163,26,0.0,15,375495364845246,35,22.1,-188.6095733642578,0.7924999594688416,0,0.0,0.0,,,,,0,,1,,
Raw,12981580,12985497000000,,,-1291005709936241408,0.0,68.10027116443962,3.237025986097745,15.587861652210664,163,31,0.0,15,375495361990159,1055,8.7,49.62859344482422,20.93800163269043,0,0.0,0.0,,,,,0,,1,,
Raw,12981580,12985497000000,,,-1291005709936241408,0.0,68.10027116443962,3.237025986097745,15.587861652210664,163,32,0.0,15,375495364676550,192,11.2,128.21035766601562,4.872499942779541,0,0.0,0.0,,,,,0,,1,,
Raw,12981580,12985497000000,,,-1291005709936241408,0.0,68.10027116443962,3.237025986097745,15.587861652210664,163,1,0.0,783,375481309256899,2888,19.4,-4.9930267333984375,36.125,0,0.0,0.0,,,,,0,,5,,
Raw,12981581,12985497000000,,,-1291005709936241408,0.0,68.10027116443962,3.237025986097745,15.587861652210664,163,2,0.0,783,375481308272247,26,25.7,11.48396110534668,1.3035000562667847,0,0.0,0.0,,,,,0,,5,,
Raw,12981581,12985497000000,,,-1291005709936241408,0.0,68.10027116443962,3.237025986097745,15.587861652210664,163,5,0.0,783,375481300090679,21,27.1,0.8833816051483154,1.2335000038146973,0,0.0,0.0,,,,,0,,5,,
Raw,12981581,12985497000000,,,-1291005709936241408,0.0,68.10027116443962,3.237025986097745,15.587861652210664,163,7,0.0,15,375481312159463,83,16.1,-24.36020851135254,1.784500002861023,0,0.0,0.0,,,,,0,,5,,
Raw,12981581,12985497000000,,,-1291005709936241408,0.0,68.10027116443962,3.237025986097745,15.587861652210664,163,10,0.0,15,375481308436318,46,20.5,-88.18453979492188,0.7985000014305115,0,0.0,0.0,,,,,0,,5,,
Raw,12981581,12985497000000,,,-1291005709936241408,0.0,68.10027116443962,3.237025986097745,15.587861652210664,163,13,0.0,15,375481296659047,35,22.4,249.4977264404297,0.6904999613761902,0,0.0,0.0,,,,,0,,5,,
Raw,12981582,12985497000000,,,-1291005709936241408,0.0,68.10027116443962,3.237025986097745,15.587861652210664,163,14,0.0,15,375481344319714,55,19.3,-546.37158203125,1.6024999618530273,0,0.0,0.0,,,,,0,,5,,
Raw,12981582,12985497000000,,,-1291005709936241408,0.0,68.10027116443962,3.237025986097745,15.587861652210664,163,21,0.0,15,375481359251425,253,16.0,97.7096939086914,9.355000495910645,0,0.0,0.0,,,,,0,,5,,
Raw,12981582,12985497000000,,,-1291005709936241408,0.0,68.10027116443962,3.237025986097745,15.587861652210664,163,24,0.0,15,375481344299305,19,27.5,-331.2334899902344,0.047300003468990326,0,0.0,0.0,,,,,0,,5,,
Raw,12981582,12985497000000,,,-1291005709936241408,0.0,68.10027116443962,3.237025986097745,15.587861652210664,163,26,0.0,15,375481356830597,13,31.9,-116.42729187011719,0.04920000210404396,0,0.0,0.0,,,,,0,,5,,
Raw,12981582,12985497000000,,,-1291005709936241408,0.0,68.10027116443962,3.237025986097745,15.587861652210664,163,9,0.0,7183,375495361245791,101,15.4,94.04313659667969,2.6019999980926514,0,0.0,0.0,,,,,0,,6,,
Raw,12981582,12985497000000,,,-1291005709936241408,0.0,68.10027116443962,3.237025986097745,15.587861652210664,163,25,0.0,7183,375495346062803,40,21.3,-309.88372802734375,0.6934999823570251,0,0.0,0.0,,,,,0,,6,,
Raw,12981583,12985497000000,,,-1291005709936241408,0.0,68.10027116443962,3.237025986097745,15.587861652210664,163,31,0.0,7183,375495347936850,666,13.0,410.0733337402344,16.279001235961914,0,0.0,0.0,,,,,0,,6,,
NMEA,$GPGSV,3,1,09,03,10,313,28,10,17,177,21,16,30,222,30,22,22,295,32*74,1606983477506
NMEA,$GPGSV,3,2,09,26,63,246,22,31,48,351,09,32,66,098,11,25,19,037,*7B,1606983477506
NMEA,$GPGSV,3,3,09,29,28,078,*4E,1606983477508
NMEA,$GLGSV,3,1,10,74,33,272,23,75,00,000,27,82,03,059,12,73,47,341,14*66,1606983477508
NMEA,$GLGSV,3,2,10,71,61,319,16,72,11,331,13,70,59,170,,80,16,032,*6D,1606983477508
NMEA,$GLGSV,3,3,10,69,02,156,,83,07,102,*64,1606983477508
NMEA,$GAGSV,2,1,05,09,78,129,15,25,28,241,21,31,35,030,13,04,23,137,*6A,1606983477509
NMEA,$GAGSV,2,2,05,05,45,322,*5A,1606983477509
NMEA,$PQGSV,1,1,03,193,54,158,12,195,31,139,15,194,66,035,,0,5*66,1606983477510
NMEA,$PQGSV,4,1,16,01,52,129,19,02,40,240,26,05,00,000,27,07,75,226,16,0,4*6D,1606983477510
NMEA,$PQGSV,4,2,16,10,48,223,21,13,04,210,22,14,05,322,19,21,66,250,16,0,4*6A,1606983477510
NMEA,$PQGSV,4,3,16,24,05,257,28,26,42,291,32,03,59,202,,04,37,115,,0,4*61,1606983477510
NMEA,$PQGSV,4,4,16,06,69,036,,08,00,000,,09,53,338,,16,68,026,,0,4*62,1606983477511
NMEA,$GNGSA,A,3,03,10,16,22,26,32,,,,,,,1.5,1.2,0.8,1*3E,1606983477511
NMEA,$GNGSA,A,2,74,,,,,,,,,,,,1.5,1.2,0.8,2*3F,1606983477512
NMEA,$GNGSA,A,2,25,,,,,,,,,,,,1.5,1.2,0.8,3*3A,1606983477512
NMEA,$PQGSA,A,2,24,,,,,,,,,,,,1.5,1.2,0.8,4*34,1606983477512
NMEA,$GNVTG,,T,,M,0.0,N,0.0,K,A*3D,1606983477512
NMEA,$GNRMC,081758.00,A,2255.527488,N,12017.681489,E,0.0,,031220,2.8,W,A*17,1606983477513
NMEA,$GNGGA,081758.00,2255.527488,N,12017.681489,E,1,09,1.2,27.8,M,17.5,M,,*4E,1606983477514
Raw,12982654,12986497000000,,,-1291005709936241408,0.0,68.18647671025246,2.536762346436795,15.152147497440808,163,10,0.0,207,40678361962240,35,22.8,-175.40362548828125,0.9279999732971191,0,0.0,0.0,,,,,0,,3,,
Raw,12982654,12986497000000,,,-1291005709936241408,0.0,68.18647671025246,2.536762346436795,15.152147497440808,163,11,0.0,207,40678355886387,24,25.5,-362.853515625,0.6042999625205994,0,0.0,0.0,,,,,0,,3,,
Raw,12982654,12986497000000,,,-1291005709936241408,0.0,68.18647671025246,2.536762346436795,15.152147497440808,163,18,0.0,207,40678352425828,383,12.4,-114.59202575683594,11.399500846862793,0,0.0,0.0,,,,,0,,3,,
Raw,12982654,12986497000000,,,-1291005709936241408,0.0,68.18647671025246,2.536762346436795,15.152147497440808,163,9,0.0,207,40678364929921,167,14.1,269.1507568359375,6.062500476837158,0,0.0,0.0,,,,,0,,3,,
Raw,12982654,12986497000000,,,-1291005709936241408,0.0,68.18647671025246,2.536762346436795,15.152147497440808,163,7,0.0,207,40678367480941,84,16.3,-315.4540100097656,2.127000093460083,0,0.0,0.0,,,,,0,,3,,
Raw,12982655,12986497000000,,,-1291005709936241408,0.0,68.18647671025246,2.536762346436795,15.152147497440808,163,8,0.0,207,40678355320290,1232,13.2,-754.9364013671875,23.194000244140625,0,0.0,0.0,,,,,0,,3,,
Raw,12982655,12986497000000,,,-1291005709936241408,0.0,68.18647671025246,2.536762346436795,15.152147497440808,163,3,0.0,15,375496351463859,19,27.7,-398.6426696777344,0.05780000239610672,0,0.0,0.0,,,,,0,,1,,
Raw,12982655,12986497000000,,,-1291005709936241408,0.0,68.18647671025246,2.536762346436795,15.152147497440808,163,10,0.0,15,375496353877678,46,20.0,658.3780517578125,0.9359999895095825,0,0.0,0.0,,,,,0,,1,,
Raw,12982655,12986497000000,,,-1291005709936241408,0.0,68.18647671025246,2.536762346436795,15.152147497440808,163,16,0.0,15,375496357977811,14,30.5,-585.82763671875,0.05130000039935112,0,0.0,0.0,,,,,0,,1,,
Raw,12982656,12986497000000,,,-1291005709936241408,0.0,68.18647671025246,2.536762346436795,15.152147497440808,163,22,0.0,15,375496353923202,12,32.7,-180.71697998046875,0.04340000078082085,0,0.0,0.0,,,,,0,,1,,
Raw,12982656,12986497000000,,,-1291005709936241408,0.0,68.18647671025246,2.536762346436795,15.152147497440808,163,26,0.0,15,375496364845787,35,22.2,-188.35267639160156,0.7924999594688416,0,0.0,0.0,,,,,0,,1,,
Raw,12982656,12986497000000,,,-1291005709936241408,0.0,68.18647671025246,2.536762346436795,15.152147497440808,163,31,0.0,15,375496361989993,1192,8.7,49.62859344482422,22.43800163269043,0,0.0,0.0,,,,,0,,1,,
Raw,12982656,12986497000000,,,-1291005709936241408,0.0,68.18647671025246,2.536762346436795,15.152147497440808,163,32,0.0,15,375496364676123,223,11.2,128.21035766601562,6.372500419616699,0,0.0,0.0,,,,,0,,1,,
Raw,12982656,12986497000000,,,-1291005709936241408,0.0,68.18647671025246,2.536762346436795,15.152147497440808,163,2,0.0,783,375482308272209,38,25.7,11.48396110534668,2.803500175476074,0,0.0,0.0,,,,,0,,5,,
Raw,12982656,12986497000000,,,-1291005709936241408,0.0,68.18647671025246,2.536762346436795,15.152147497440808,163,5,0.0,783,375482300090634,17,28.4,8.708991050720215,0.44350001215934753,0,0.0,0.0,,,,,0,,5,,
Raw,12982657,12986497000000,,,-1291005709936241408,0.0,68.18647671025246,2.536762346436795,15.152147497440808,163,7,0.0,15,375482312159545,97,16.1,-24.36020851135254,3.2845001220703125,0,0.0,0.0,,,,,0,,5,,
Raw,12982657,12986497000000,,,-1291005709936241408,0.0,68.18647671025246,2.536762346436795,15.152147497440808,163,10,0.0,15,375482308436605,46,20.8,-89.50000762939453,0.7384999990463257,0,0.0,0.0,,,,,0,,5,,
Raw,12982657,12986497000000,,,-1291005709936241408,0.0,68.18647671025246,2.536762346436795,15.152147497440808,163,13,0.0,15,375482296658226,35,22.7,249.46890258789062,0.6904999613761902,0,0.0,0.0,,,,,0,,5,,
Raw,12982657,12986497000000,,,-1291005709936241408,0.0,68.18647671025246,2.536762346436795,15.152147497440808,163,14,0.0,15,375482344321572,40,21.7,-546.7556762695312,0.7324999570846558,0,0.0,0.0,,,,,0,,5,,
Raw,12982657,12986497000000,,,-1291005709936241408,0.0,68.18647671025246,2.536762346436795,15.152147497440808,163,21,0.0,15,375482359251164,165,13.3,97.9305419921875,5.135000228881836,0,0.0,0.0,,,,,0,,5,,
Raw,12982657,12986497000000,,,-1291005709936241408,0.0,68.18647671025246,2.536762346436795,15.152147497440808,163,24,0.0,15,375482344300411,19,27.4,-331.6742858886719,0.047300003468990326,0,0.0,0.0,,,,,0,,5,,
Raw,12982658,12986497000000,,,-1291005709936241408,0.0,68.18647671025246,2.536762346436795,15.152147497440808,163,26,0.0,15,375482356830988,12,32.2,-116.90176391601562,0.0479000024497509,0,0.0,0.0,,,,,0,,5,,
Raw,12982658,12986497000000,,,-1291005709936241408,0.0,68.18647671025246,2.536762346436795,15.152147497440808,163,9,0.0,7183,375496361245477,120,15.4,94.04313659667969,4.1020002365112305,0,0.0,0.0,,,,,0,,6,,
Raw,12982658,12986497000000,,,-1291005709936241408,0.0,68.18647671025246,2.536762346436795,15.152147497440808,163,25,0.0,7183,375496346063792,46,20.5,-310.6829528808594,0.7534999847412109,0,0.0,0.0,,,,,0,,6,,
Raw,12982658,12986497000000,,,-1291005709936241408,0.0,68.18647671025246,2.536762346436795,15.152147497440808,163,31,0.0,7183,375496347935482,776,13.0,410.0733337402344,17.779001235961914,0,0.0,0.0,,,,,0,,6,,
Fix,gps,22.925458,120.294691,45.257202,0.000000,10.720000,1606983479000
NMEA,$GPGSV,3,1,09,03,10,313,28,10,17,177,20,16,30,222,31,22,22,295,33*75,1606983478506
NMEA,$GPGSV,3,2,09,26,63,246,22,31,48,351,09,32,66,098,11,25,19,037,*7B,1606983478506
NMEA,$GPGSV,3,3,09,29,28,078,*4E,1606983478508
NMEA,$GLGSV,3,1,10,74,33,272,23,75,00,000,26,82,03,059,12,73,47,341,14*67,1606983478509
NMEA,$GLGSV,3,2,10,71,61,319,16,72,11,331,13,70,59,170,,80,16,032,*6D,1606983478509
NMEA,$GLGSV,3,3,10,69,02,156,,83,07,102,*64,1606983478510
NMEA,$GAGSV,2,1,05,09,78,129,15,25,28,241,21,31,35,030,13,04,23,137,*6A,1606983478511
NMEA,$GAGSV,2,2,05,05,45,322,*5A,1606983478511
NMEA,$PQGSV,1,1,03,193,54,158,12,195,31,139,15,194,66,035,,0,5*66,1606983478511
NMEA,$PQGSV,4,1,16,02,40,240,26,05,00,000,28,07,75,226,16,10,48,223,21,0,4*6B,1606983478512
NMEA,$PQGSV,4,2,16,13,04,210,23,14,05,322,22,21,66,250,13,24,05,257,27,0,4*6D,1606983478512
NMEA,$PQGSV,4,3,16,26,42,291,32,01,52,129,,03,59,202,,04,37,115,,0,4*64,1606983478512
NMEA,$PQGSV,4,4,16,06,69,036,,08,00,000,,09,53,338,,16,68,026,,0,4*62,1606983478512
NMEA,$GNGSA,A,3,03,10,16,22,26,32,,,,,,,1.5,1.2,0.8,1*3E,1606983478513
NMEA,$GNGSA,A,2,74,,,,,,,,,,,,1.5,1.2,0.8,2*3F,1606983478514
NMEA,$GNGSA,A,2,25,,,,,,,,,,,,1.5,1.2,0.8,3*3A,1606983478514
NMEA,$PQGSA,A,2,24,,,,,,,,,,,,1.5,1.2,0.8,4*34,1606983478514
NMEA,$GNVTG,,T,,M,0.0,N,0.0,K,A*3D,1606983478516
NMEA,$GNRMC,081759.00,A,2255.527485,N,12017.681476,E,0.0,,031220,2.8,W,A*1B,1606983478518
NMEA,$GNGGA,081759.00,2255.527485,N,12017.681476,E,1,09,1.2,27.8,M,17.5,M,,*42,1606983478518
Raw,12983626,12987497000000,,,-1291005709936241408,0.0,69.89584653638303,0.7698614676585086,15.837246761397855,163,10,0.0,207,40679361962767,40,21.9,-175.2347869873047,0.9879999756813049,0,0.0,0.0,,,,,0,,3,,
Raw,12983626,12987497000000,,,-1291005709936241408,0.0,69.89584653638303,0.7698614676585086,15.837246761397855,163,11,0.0,207,40679355887527,24,25.2,-362.6101379394531,0.6042999625205994,0,0.0,0.0,,,,,0,,3,,
Raw,12983627,12987497000000,,,-1291005709936241408,0.0,69.89584653638303,0.7698614676585086,15.837246761397855,163,18,0.0,207,40679352426417,96,15.9,-117.78606414794922,2.119500160217285,0,0.0,0.0,,,,,0,,3,,
Raw,12983627,12987497000000,,,-1291005709936241408,0.0,69.89584653638303,0.7698614676585086,15.837246761397855,163,9,0.0,207,40679364929023,207,14.1,269.1507568359375,7.562500476837158,0,0.0,0.0,,,,,0,,3,,
Raw,12983627,12987497000000,,,-1291005709936241408,0.0,69.89584653638303,0.7698614676585086,15.837246761397855,163,7,0.0,207,40679367482268,61,18.3,-314.5853576660156,1.2070000171661377,0,0.0,0.0,,,,,0,,3,,
Raw,12983627,12987497000000,,,-1291005709936241408,0.0,69.89584653638303,0.7698614676585086,15.837246761397855,163,8,0.0,207,40679355323125,244,13.4,-755.300537109375,8.29900074005127,0,0.0,0.0,,,,,0,,3,,
Raw,12983628,12987497000000,,,-1291005709936241408,0.0,69.89584653638303,0.7698614676585086,15.837246761397855,163,3,0.0,15,375497351465187,19,27.6,-397.9629821777344,0.05780000239610672,0,0.0,0.0,,,,,0,,1,,
Raw,12983628,12987497000000,,,-1291005709936241408,0.0,69.89584653638303,0.7698614676585086,15.837246761397855,163,10,0.0,15,375497353875389,40,21.9,659.9384765625,0.8059999942779541,0,0.0,0.0,,,,,0,,1,,
Raw,12983628,12987497000000,,,-1291005709936241408,0.0,69.89584653638303,0.7698614676585086,15.837246761397855,163,16,0.0,15,375497357979759,14,30.6,-585.1388549804688,0.05130000039935112,0,0.0,0.0,,,,,0,,1,,
Raw,12983628,12987497000000,,,-1291005709936241408,0.0,69.89584653638303,0.7698614676585086,15.837246761397855,163,22,0.0,15,375497353923792,11,33.1,-180.01388549804688,0.04240000247955322,0,0.0,0.0,,,,,0,,1,,
Raw,12983629,12987497000000,,,-1291005709936241408,0.0,69.89584653638303,0.7698614676585086,15.837246761397855,163,26,0.0,15,375497364846537,40,21.7,-187.5819854736328,0.7924999594688416,0,0.0,0.0,,,,,0,,1,,
Raw,12983629,12987497000000,,,-1291005709936241408,0.0,69.89584653638303,0.7698614676585086,15.837246761397855,163,31,0.0,15,375497361989828,1340,8.7,49.62859344482422,23.93800163269043,0,0.0,0.0,,,,,0,,1,,
Raw,12983629,12987497000000,,,-1291005709936241408,0.0,69.89584653638303,0.7698614676585086,15.837246761397855,163,32,0.0,15,375497364676066,110,14.5,129.43775939941406,2.112499952316284,0,0.0,0.0,,,,,0,,1,,
Raw,12983629,12987497000000,,,-1291005709936241408,0.0,69.89584653638303,0.7698614676585086,15.837246761397855,163,2,0.0,783,375483308272231,24,26.3,3.571934700012207,1.2735000848770142,0,0.0,0.0,,,,,0,,5,,
Raw,12983630,12987497000000,,,-1291005709936241408,0.0,69.89584653638303,0.7698614676585086,15.837246761397855,163,5,0.0,783,375483300090629,17,28.5,9.227497100830078,0.44350001215934753,0,0.0,0.0,,,,,0,,5,,
Raw,12983630,12987497000000,,,-1291005709936241408,0.0,69.89584653638303,0.7698614676585086,15.837246761397855,163,7,0.0,15,375483312159594,84,16.4,-25.253192901611328,1.844499945640564,0,0.0,0.0,,,,,0,,5,,
Raw,12983630,12987497000000,,,-1291005709936241408,0.0,69.89584653638303,0.7698614676585086,15.837246761397855,163,10,0.0,15,375483308436914,40,21.0,-87.76204681396484,0.7384999990463257,0,0.0,0.0,,,,,0,,5,,
Raw,12983631,12987497000000,,,-1291005709936241408,0.0,69.89584653638303,0.7698614676585086,15.837246761397855,163,13,0.0,15,375483296657369,31,23.3,250.54432678222656,0.640500009059906,0,0.0,0.0,,,,,0,,5,,
Raw,12983631,12987497000000,,,-1291005709936241408,0.0,69.89584653638303,0.7698614676585086,15.837246761397855,163,14,0.0,15,375483344323384,46,20.6,-545.5841674804688,0.7924999594688416,0,0.0,0.0,,,,,0,,5,,
Raw,12983631,12987497000000,,,-1291005709936241408,0.0,69.89584653638303,0.7698614676585086,15.837246761397855,163,21,0.0,15,375483359250838,200,13.3,97.9305419921875,6.635000228881836,0,0.0,0.0,,,,,0,,5,,
Raw,12983631,12987497000000,,,-1291005709936241408,0.0,69.89584653638303,0.7698614676585086,15.837246761397855,163,24,0.0,15,375483344301499,17,28.0,-331.0635070800781,0.03930000215768814,0,0.0,0.0,,,,,0,,5,,
Raw,12983632,12987497000000,,,-1291005709936241408,0.0,69.89584653638303,0.7698614676585086,15.837246761397855,163,26,0.0,15,375483356831379,12,32.2,-116.25902557373047,0.0479000024497509,0,0.0,0.0,,,,,0,,5,,
Raw,12983632,12987497000000,,,-1291005709936241408,0.0,69.89584653638303,0.7698614676585086,15.837246761397855,163,9,0.0,7183,375497361245163,149,15.4,94.04313659667969,5.6020002365112305,0,0.0,0.0,,,,,0,,6,,
Raw,12983632,12987497000000,,,-1291005709936241408,0.0,69.89584653638303,0.7698614676585086,15.837246761397855,163,25,0.0,7183,375497346064899,46,20.7,-309.798095703125,0.7534999847412109,0,0.0,0.0,,,,,0,,6,,
Raw,12983632,12987497000000,,,-1291005709936241408,0.0,69.89584653638303,0.7698614676585086,15.837246761397855,163,31,0.0,7183,375497347934114,895,13.0,410.0733337402344,19.279001235961914,0,0.0,0.0,,,,,0,,6,,
Fix,gps,22.925458,120.294694,45.004517,0.000000,10.720000,1606983480000
NMEA,$GPGSV,3,1,09,03,10,313,28,10,17,177,22,16,30,222,31,22,22,295,33*77,1606983479521
NMEA,$GPGSV,3,2,09,26,63,246,22,31,48,351,09,32,66,098,15,25,19,037,*7F,1606983479521
NMEA,$GPGSV,3,3,09,29,28,078,*4E,1606983479522
NMEA,$GLGSV,3,1,10,74,33,272,22,75,00,000,25,82,03,059,16,73,47,341,14*61,1606983479522
NMEA,$GLGSV,3,2,10,71,61,319,18,72,11,331,13,70,59,170,,80,16,032,*63,1606983479528
NMEA,$GLGSV,3,3,10,69,02,156,,83,07,102,*64,1606983479530
NMEA,$GAGSV,2,1,05,09,78,129,15,25,28,241,21,31,35,030,13,04,23,137,*6A,1606983479531
NMEA,$GAGSV,2,2,05,05,45,322,*5A,1606983479532
NMEA,$PQGSV,1,1,03,193,54,158,12,195,31,139,15,194,66,035,,0,5*66,1606983479533
NMEA,$PQGSV,4,1,16,02,40,240,26,05,00,000,29,07,75,226,16,10,48,223,21,0,4*6A,1606983479534
NMEA,$PQGSV,4,2,16,13,04,210,23,14,05,322,21,21,66,250,13,24,05,257,28,0,4*61,1606983479535
NMEA,$PQGSV,4,3,16,26,42,291,32,01,52,129,,03,59,202,,04,37,115,,0,4*64,1606983479537
NMEA,$PQGSV,4,4,16,06,69,036,,08,00,000,,09,53,338,,16,68,026,,0,4*62,1606983479539
NMEA,$GNGSA,A,3,03,10,16,22,26,32,,,,,,,1.5,1.2,0.8,1*3E,1606983479542
NMEA,$GNGSA,A,2,74,,,,,,,,,,,,1.5,1.2,0.8,2*3F,1606983479546
NMEA,$GNGSA,A,2,25,,,,,,,,,,,,1.5,1.2,0.8,3*3A,1606983479548
NMEA,$PQGSA,A,2,24,,,,,,,,,,,,1.5,1.2,0.8,4*34,1606983479548
NMEA,$GNVTG,,T,,M,0.0,N,0.0,K,A*3D,1606983479548
NMEA,$GNRMC,081800.00,A,2255.527505,N,12017.681662,E,0.0,,031220,2.8,W,A*16,1606983479549
NMEA,$GNGGA,081800.00,2255.527505,N,12017.681662,E,1,09,1.2,27.5,M,17.5,M,,*42,1606983479549
Fix,gps,22.925459,120.294696,45.003418,0.000000,10.720000,1606983481000
Raw,12984604,12988497000000,,,-1291005709936241408,0.0,70.54612069623545,2.464503913293578,15.719957456931574,163,10,0.0,207,40680361963272,31,23.1,-175.2910614013672,0.8679999709129333,0,0.0,0.0,,,,,0,,3,,
Raw,12984605,12988497000000,,,-1291005709936241408,0.0,70.54612069623545,2.464503913293578,15.719957456931574,163,11,0.0,207,40680355888877,27,24.9,-362.2020568847656,0.8389999866485596,0,0.0,0.0,,,,,0,,3,,
Raw,12984605,12988497000000,,,-1291005709936241408,0.0,70.54612069623545,2.464503913293578,15.719957456931574,163,18,0.0,207,40680352426810,110,15.9,-117.78606414794922,3.619500160217285,0,0.0,0.0,,,,,0,,3,,
Raw,12984605,12988497000000,,,-1291005709936241408,0.0,70.54612069623545,2.464503913293578,15.719957456931574,163,9,0.0,207,40680364928126,258,14.1,269.1507568359375,9.0625,0,0.0,0.0,,,,,0,,3,,
Raw,12984605,12988497000000,,,-1291005709936241408,0.0,70.54612069623545,2.464503913293578,15.719957456931574,163,7,0.0,207,40680367483318,70,18.3,-314.5853576660156,2.707000255584717,0,0.0,0.0,,,,,0,,3,,
Raw,12984605,12988497000000,,,-1291005709936241408,0.0,70.54612069623545,2.464503913293578,15.719957456931574,163,8,0.0,207,40680355325644,299,13.4,-755.300537109375,9.79900074005127,0,0.0,0.0,,,,,0,,3,,
Raw,12984606,12988497000000,,,-1291005709936241408,0.0,70.54612069623545,2.464503913293578,15.719957456931574,163,3,0.0,15,375498351466514,19,27.8,-397.7593994140625,0.05780000239610672,0,0.0,0.0,,,,,0,,1,,
Raw,12984606,12988497000000,,,-1291005709936241408,0.0,70.54612069623545,2.464503913293578,15.719957456931574,163,10,0.0,15,375498353873210,53,19.1,660.3285522460938,1.0160000324249268,0,0.0,0.0,,,,,0,,1,,
Raw,12984606,12988497000000,,,-1291005709936241408,0.0,70.54612069623545,2.464503913293578,15.719957456931574,163,16,0.0,15,375498357981735,14,30.6,-584.9599609375,0.05130000039935112,0,0.0,0.0,,,,,0,,1,,
Raw,12984606,12988497000000,,,-1291005709936241408,0.0,70.54612069623545,2.464503913293578,15.719957456931574,163,22,0.0,15,375498353924394,11,33.1,-179.81101989746094,0.04240000247955322,0,0.0,0.0,,,,,0,,1,,
Raw,12984606,12988497000000,,,-1291005709936241408,0.0,70.54612069623545,2.464503913293578,15.719957456931574,163,26,0.0,15,375498364847133,35,22.3,-188.04820251464844,0.7924999594688416,0,0.0,0.0,,,,,0,,1,,
Raw,12984606,12988497000000,,,-1291005709936241408,0.0,70.54612069623545,2.464503913293578,15.719957456931574,163,31,0.0,15,375498361989662,1497,8.7,49.62859344482422,25.43800163269043,0,0.0,0.0,,,,,0,,1,,
Raw,12984607,12988497000000,,,-1291005709936241408,0.0,70.54612069623545,2.464503913293578,15.719957456931574,163,32,0.0,15,375498364675635,124,14.5,129.43775939941406,3.6125001907348633,0,0.0,0.0,,,,,0,,1,,
Raw,12984607,12988497000000,,,-1291005709936241408,0.0,70.54612069623545,2.464503913293578,15.719957456931574,163,2,0.0,783,375484308272219,35,26.3,3.571934700012207,2.7735002040863037,0,0.0,0.0,,,,,0,,5,,
Raw,12984607,12988497000000,,,-1291005709936241408,0.0,70.54612069623545,2.464503913293578,15.719957456931574,163,5,0.0,783,375484300090622,17,28.2,3.043826103210449,0.44350001215934753,0,0.0,0.0,,,,,0,,5,,
Raw,12984607,12988497000000,,,-1291005709936241408,0.0,70.54612069623545,2.464503913293578,15.719957456931574,163,7,0.0,15,375484312159678,97,16.4,-25.253192901611328,3.3445000648498535,0,0.0,0.0,,,,,0,,5,,
Raw,12984607,12988497000000,,,-1291005709936241408,0.0,70.54612069623545,2.464503913293578,15.719957456931574,163,10,0.0,15,375484308437190,46,20.9,-88.15573120117188,0.7384999990463257,0,0.0,0.0,,,,,0,,5,,
Raw,12984608,12988497000000,,,-1291005709936241408,0.0,70.54612069623545,2.464503913293578,15.719957456931574,163,13,0.0,15,375484296656563,31,23.2,250.03541564941406,0.640500009059906,0,0.0,0.0,,,,,0,,5,,
Raw,12984608,12988497000000,,,-1291005709936241408,0.0,70.54612069623545,2.464503913293578,15.719957456931574,163,14,0.0,15,375484344325212,40,21.6,-546.02587890625,0.7324999570846558,0,0.0,0.0,,,,,0,,5,,
Raw,12984608,12988497000000,,,-1291005709936241408,0.0,70.54612069623545,2.464503913293578,15.719957456931574,163,21,0.0,15,375484359250511,245,13.3,97.9305419921875,8.135000228881836,0,0.0,0.0,,,,,0,,5,,
Raw,12984608,12988497000000,,,-1291005709936241408,0.0,70.54612069623545,2.464503913293578,15.719957456931574,163,24,0.0,15,375484344302610,17,28.4,-330.92755126953125,0.03930000215768814,0,0.0,0.0,,,,,0,,5,,
Raw,12984608,12988497000000,,,-1291005709936241408,0.0,70.54612069623545,2.464503913293578,15.719957456931574,163,26,0.0,15,375484356831767,13,31.9,-116.11969757080078,0.04920000210404396,0,0.0,0.0,,,,,0,,5,,
Raw,12984609,12988497000000,,,-1291005709936241408,0.0,70.54612069623545,2.464503913293578,15.719957456931574,163,9,0.0,7183,375498361244912,101,15.9,94.05264282226562,2.6019999980926514,0,0.0,0.0,,,,,0,,6,,
Raw,12984609,12988497000000,,,-1291005709936241408,0.0,70.54612069623545,2.464503913293578,15.719957456931574,163,25,0.0,7183,375498346065884,46,20.3,-309.8171081542969,0.7534999847412109,0,0.0,0.0,,,,,0,,6,,
Raw,12984609,12988497000000,,,-1291005709936241408,0.0,70.54612069623545,2.464503913293578,15.719957456931574,163,31,0.0,7183,375498347932747,1025,13.0,410.0733337402344,20.779001235961914,0,0.0,0.0,,,,,0,,6,,
NMEA,$GPGSV,3,1,09,03,10,313,28,10,17,177,19,16,30,222,31,22,22,295,33*7F,1606983480519
NMEA,$GPGSV,3,2,09,26,63,246,22,31,48,351,09,32,66,098,15,25,19,037,*7F,1606983480520
NMEA,$GPGSV,3,3,09,29,28,078,*4E,1606983480521
NMEA,$GLGSV,3,1,10,74,33,272,23,75,00,000,25,82,03,059,16,73,47,341,14*60,1606983480521
NMEA,$GLGSV,3,2,10,71,61,319,18,72,11,331,13,70,59,170,,80,16,032,*63,1606983480522
NMEA,$GLGSV,3,3,10,69,02,156,,83,07,102,*64,1606983480524
NMEA,$GAGSV,2,1,05,09,78,129,16,25,28,241,20,31,35,030,13,04,23,137,*68,1606983480525
NMEA,$GAGSV,2,2,05,05,45,322,*5A,1606983480526
NMEA,$PQGSV,1,1,03,193,54,158,12,195,31,139,15,194,66,035,,0,5*66,1606983480527
NMEA,$PQGSV,4,1,16,02,40,240,26,05,00,000,28,07,75,226,16,10,48,223,21,0,4*6B,1606983480528
NMEA,$PQGSV,4,2,16,13,04,210,23,14,05,322,22,21,66,250,13,24,05,257,28,0,4*62,1606983480530
NMEA,$PQGSV,4,3,16,26,42,291,32,01,52,129,,03,59,202,,04,37,115,,0,4*64,1606983480530
NMEA,$PQGSV,4,4,16,06,69,036,,08,00,000,,09,53,338,,16,68,026,,0,4*62,1606983480531
NMEA,$GNGSA,A,3,03,10,16,22,26,32,,,,,,,1.5,1.2,0.8,1*3E,1606983480534
NMEA,$GNGSA,A,2,74,,,,,,,,,,,,1.5,1.2,0.8,2*3F,1606983480534
NMEA,$GNGSA,A,2,25,,,,,,,,,,,,1.5,1.2,0.8,3*3A,1606983480535
NMEA,$PQGSA,A,2,24,,,,,,,,,,,,1.5,1.2,0.8,4*34,1606983480536
NMEA,$GNVTG,,T,,M,0.0,N,0.0,K,A*3D,1606983480537
NMEA,$GNRMC,081801.00,A,2255.527514,N,12017.681755,E,0.0,,031220,2.8,W,A*12,1606983480537
NMEA,$GNGGA,081801.00,2255.527514,N,12017.681755,E,1,09,1.2,27.5,M,17.5,M,,*46,1606983480538
Raw,12985684,12989497000000,,,-1291005709936241408,0.0,69.52424882911146,2.8129739981212576,14.741535521961806,163,10,0.0,207,40681361963946,35,22.7,-174.8220672607422,0.9279999732971191,0,0.0,0.0,,,,,0,,3,,
Raw,12985684,12989497000000,,,-1291005709936241408,0.0,69.52424882911146,2.8129739981212576,14.741535521961806,163,11,0.0,207,40681355890031,24,25.7,-362.1439514160156,0.6042999625205994,0,0.0,0.0,,,,,0,,3,,
Raw,12985684,12989497000000,,,-1291005709936241408,0.0,69.52424882911146,2.8129739981212576,14.741535521961806,163,18,0.0,207,40681352427203,134,15.9,-117.78606414794922,5.119500160217285,0,0.0,0.0,,,,,0,,3,,
Raw,12985685,12989497000000,,,-1291005709936241408,0.0,69.52424882911146,2.8129739981212576,14.741535521961806,163,9,0.0,207,40681364927228,318,14.1,269.1507568359375,10.562500953674316,0,0.0,0.0,,,,,0,,3,,
Raw,12985685,12989497000000,,,-1291005709936241408,0.0,69.52424882911146,2.8129739981212576,14.741535521961806,163,7,0.0,207,40681367484299,84,16.1,-314.3985595703125,2.127000093460083,0,0.0,0.0,,,,,0,,3,,
Raw,12985685,12989497000000,,,-1291005709936241408,0.0,69.52424882911146,2.8129739981212576,14.741535521961806,163,8,0.0,207,40681355328164,364,13.4,-755.300537109375,11.29900074005127,0,0.0,0.0,,,,,0,,3,,
Raw,12985685,12989497000000,,,-1291005709936241408,0.0,69.52424882911146,2.8129739981212576,14.741535521961806,163,3,0.0,15,375499351467820,19,27.7,-397.8649597167969,0.05780000239610672,0,0.0,0.0,,,,,0,,1,,
Raw,12985685,12989497000000,,,-1291005709936241408,0.0,69.52424882911146,2.8129739981212576,14.741535521961806,163,10,0.0,15,375499353871020,40,21.1,659.5103149414062,0.8659999966621399,0,0.0,0.0,,,,,0,,1,,
Raw,12985685,12989497000000,,,-1291005709936241408,0.0,69.52424882911146,2.8129739981212576,14.741535521961806,163,16,0.0,15,375499357983663,12,32.1,-585.0901489257812,0.049400001764297485,0,0.0,0.0,,,,,0,,1,,
Raw,12985686,12989497000000,,,-1291005709936241408,0.0,69.52424882911146,2.8129739981212576,14.741535521961806,163,22,0.0,15,375499353925006,10,34.5,-179.93153381347656,0.041600000113248825,0,0.0,0.0,,,,,0,,1,,
Raw,12985686,12989497000000,,,-1291005709936241408,0.0,69.52424882911146,2.8129739981212576,14.741535521961806,163,26,0.0,15,375499364847824,35,22.3,-187.3631591796875,0.7924999594688416,0,0.0,0.0,,,,,0,,1,,
Raw,12985686,12989497000000,,,-1291005709936241408,0.0,69.52424882911146,2.8129739981212576,14.741535521961806,163,31,0.0,15,375499361989497,1665,8.7,49.62859344482422,26.93800163269043,0,0.0,0.0,,,,,0,,1,,
Raw,12985686,12989497000000,,,-1291005709936241408,0.0,69.52424882911146,2.8129739981212576,14.741535521961806,163,32,0.0,15,375499364675203,149,14.5,129.43775939941406,5.112500190734863,0,0.0,0.0,,,,,0,,1,,
Raw,12985686,12989497000000,,,-1291005709936241408,0.0,69.52424882911146,2.8129739981212576,14.741535521961806,163,2,0.0,783,375485308272207,57,26.3,3.571934700012207,4.273499965667725,0,0.0,0.0,,,,,0,,5,,
Raw,12985686,12989497000000,,,-1291005709936241408,0.0,69.52424882911146,2.8129739981212576,14.741535521961806,163,5,0.0,783,375485300090594,17,28.8,7.643171310424805,0.41350001096725464,0,0.0,0.0,,,,,0,,5,,
Raw,12985687,12989497000000,,,-1291005709936241408,0.0,69.52424882911146,2.8129739981212576,14.741535521961806,163,7,0.0,15,375485312159738,73,17.6,-24.60025978088379,1.7645000219345093,0,0.0,0.0,,,,,0,,5,,
Raw,12985687,12989497000000,,,-1291005709936241408,0.0,69.52424882911146,2.8129739981212576,14.741535521961806,163,10,0.0,15,375485308437498,46,20.9,-87.68523406982422,0.7384999990463257,0,0.0,0.0,,,,,0,,5,,
Raw,12985687,12989497000000,,,-1291005709936241408,0.0,69.52424882911146,2.8129739981212576,14.741535521961806,163,13,0.0,15,375485296655701,31,23.8,250.0258331298828,0.6004999876022339,0,0.0,0.0,,,,,0,,5,,
Raw,12985687,12989497000000,,,-1291005709936241408,0.0,69.52424882911146,2.8129739981212576,14.741535521961806,163,14,0.0,15,375485344327023,40,21.8,-546.4003295898438,0.67249995470047,0,0.0,0.0,,,,,0,,5,,
Raw,12985687,12989497000000,,,-1291005709936241408,0.0,69.52424882911146,2.8129739981212576,14.741535521961806,163,21,0.0,15,375485359250242,102,15.1,97.33522033691406,2.694999933242798,0,0.0,0.0,,,,,0,,5,,
Raw,12985688,12989497000000,,,-1291005709936241408,0.0,69.52424882911146,2.8129739981212576,14.741535521961806,163,24,0.0,15,375485344303716,17,28.5,-331.1225280761719,0.03930000215768814,0,0.0,0.0,,,,,0,,5,,
Raw,12985688,12989497000000,,,-1291005709936241408,0.0,69.52424882911146,2.8129739981212576,14.741535521961806,163,26,0.0,15,375485356832154,12,32.6,-116.3053207397461,0.0479000024497509,0,0.0,0.0,,,,,0,,5,,
Raw,12985688,12989497000000,,,-1291005709936241408,0.0,69.52424882911146,2.8129739981212576,14.741535521961806,163,9,0.0,7183,375499361244564,61,18.0,94.09070587158203,0.871999979019165,0,0.0,0.0,,,,,0,,6,,
Raw,12985688,12989497000000,,,-1291005709936241408,0.0,69.52424882911146,2.8129739981212576,14.741535521961806,163,25,0.0,7183,375499346066961,53,19.1,-309.3984680175781,0.8134999871253967,0,0.0,0.0,,,,,0,,6,,
Raw,12985688,12989497000000,,,-1291005709936241408,0.0,69.52424882911146,2.8129739981212576,14.741535521961806,163,31,0.0,7183,375499347931419,339,11.6,406.8573913574219,9.749000549316406,0,0.0,0.0,,,,,0,,6,,
Fix,gps,22.925459,120.294697,45.015442,0.000000,10.720000,1606983482000
NMEA,$GPGSV,3,1,09,03,10,313,28,10,17,177,21,16,30,222,32,22,22,295,35*71,1606983481520
NMEA,$GPGSV,3,2,09,26,63,246,22,31,48,351,09,32,66,098,15,25,19,037,*7F,1606983481521
NMEA,$GPGSV,3,3,09,29,28,078,*4E,1606983481521
NMEA,$GLGSV,3,1,10,74,33,272,23,75,00,000,26,82,03,059,16,73,47,343,14*61,1606983481522
NMEA,$GLGSV,3,2,10,71,61,317,16,72,12,330,13,70,57,171,,80,16,033,*6F,1606983481524
NMEA,$GLGSV,3,3,10,69,01,156,,83,07,102,*67,1606983481528
NMEA,$GAGSV,2,1,05,09,78,129,18,25,28,241,19,31,35,030,12,04,23,137,*6D,1606983481529
NMEA,$GAGSV,2,2,05,05,45,322,*5A,1606983481533
NMEA,$PQGSV,1,1,03,193,54,158,12,194,66,035,,195,31,139,,0,5*62,1606983481535
NMEA,$PQGSV,4,1,16,02,40,240,26,05,00,000,29,07,75,226,18,10,48,223,21,0,4*64,1606983481536
NMEA,$PQGSV,4,2,16,13,04,210,24,14,05,322,22,21,66,250,15,24,05,257,29,0,4*62,1606983481536
NMEA,$PQGSV,4,3,16,26,42,291,33,01,52,129,,03,59,202,,04,37,115,,0,4*65,1606983481537
NMEA,$PQGSV,4,4,16,06,69,036,,08,00,000,,09,53,338,,16,68,026,,0,4*62,1606983481537
NMEA,$GNGSA,A,3,03,10,16,22,26,32,,,,,,,1.5,1.2,0.8,1*3E,1606983481544
NMEA,$GNGSA,A,2,74,,,,,,,,,,,,1.5,1.2,0.8,2*3F,1606983481545
NMEA,$GNGSA,A,2,25,,,,,,,,,,,,1.5,1.2,0.8,3*3A,1606983481546
NMEA,$PQGSA,A,2,24,,,,,,,,,,,,1.5,1.2,0.8,4*34,1606983481546
NMEA,$GNVTG,,T,,M,0.0,N,0.0,K,A*3D,1606983481546
NMEA,$GNRMC,081802.00,A,2255.527518,N,12017.681797,E,0.0,,031220,2.8,W,A*13,1606983481547
NMEA,$GNGGA,081802.00,2255.527518,N,12017.681797,E,1,09,1.2,27.5,M,17.5,M,,*47,1606983481547
Fix,gps,22.925459,120.294697,45.018188,0.000000,10.720000,1606983483000
Raw,12986582,12990497000000,,,-1291005709936241408,0.0,71.5364731149748,2.44941011858106,16.66208923078741,163,10,0.0,207,40682361964625,31,23.4,-174.2030029296875,0.8679999709129333,0,0.0,0.0,,,,,0,,3,,
Raw,12986583,12990497000000,,,-1291005709936241408,0.0,71.5364731149748,2.44941011858106,16.66208923078741,163,11,0.0,207,40682355891193,21,26.1,-361.8643798828125,0.3337000012397766,0,0.0,0.0,,,,,0,,3,,
Raw,12986583,12990497000000,,,-1291005709936241408,0.0,71.5364731149748,2.44941011858106,16.66208923078741,163,18,0.0,207,40682352427596,169,15.9,-117.78606414794922,6.619500160217285,0,0.0,0.0,,,,,0,,3,,
Raw,12986583,12990497000000,,,-1291005709936241408,0.0,71.5364731149748,2.44941011858106,16.66208923078741,163,9,0.0,207,40682364926299,137,14.1,269.2162780761719,4.5625,0,0.0,0.0,,,,,0,,3,,
Raw,12986583,12990497000000,,,-1291005709936241408,0.0,71.5364731149748,2.44941011858106,16.66208923078741,163,7,0.0,207,40682367485347,99,16.1,-314.3985595703125,3.627000093460083,0,0.0,0.0,,,,,0,,3,,
Raw,12986583,12990497000000,,,-1291005709936241408,0.0,71.5364731149748,2.44941011858106,16.66208923078741,163,8,0.0,207,40682355330683,439,13.4,-755.300537109375,12.79900074005127,0,0.0,0.0,,,,,0,,3,,
Raw,12986583,12990497000000,,,-1291005709936241408,0.0,71.5364731149748,2.44941011858106,16.66208923078741,163,3,0.0,15,375500351469153,19,27.7,-397.550048828125,0.05780000239610672,0,0.0,0.0,,,,,0,,1,,
Raw,12986584,12990497000000,,,-1291005709936241408,0.0,71.5364731149748,2.44941011858106,16.66208923078741,163,10,0.0,15,375500353868855,46,20.6,660.7091674804688,0.8659999966621399,0,0.0,0.0,,,,,0,,1,,
Raw,12986584,12990497000000,,,-1291005709936241408,0.0,71.5364731149748,2.44941011858106,16.66208923078741,163,16,0.0,15,375500357985611,14,30.8,-584.8170166015625,0.05130000039935112,0,0.0,0.0,,,,,0,,1,,
Raw,12986584,12990497000000,,,-1291005709936241408,0.0,71.5364731149748,2.44941011858106,16.66208923078741,163,22,0.0,15,375500353925585,11,33.3,-179.61349487304688,0.04240000247955322,0,0.0,0.0,,,,,0,,1,,
Raw,12986584,12990497000000,,,-1291005709936241408,0.0,71.5364731149748,2.44941011858106,16.66208923078741,163,26,0.0,15,375500364848317,35,22.3,-186.52586364746094,0.7924999594688416,0,0.0,0.0,,,,,0,,1,,
Raw,12986584,12990497000000,,,-1291005709936241408,0.0,71.5364731149748,2.44941011858106,16.66208923078741,163,31,0.0,15,375500361989331,1842,8.7,49.62859344482422,28.43800163269043,0,0.0,0.0,,,,,0,,1,,
Raw,12986584,12990497000000,,,-1291005709936241408,0.0,71.5364731149748,2.44941011858106,16.66208923078741,163,32,0.0,15,375500364674771,184,14.5,129.43775939941406,6.612500190734863,0,0.0,0.0,,,,,0,,1,,
Raw,12986585,12990497000000,,,-1291005709936241408,0.0,71.5364731149748,2.44941011858106,16.66208923078741,163,2,0.0,783,375486308272192,31,25.7,2.87099027633667,2.053500175476074,0,0.0,0.0,,,,,0,,5,,
Raw,12986585,12990497000000,,,-1291005709936241408,0.0,71.5364731149748,2.44941011858106,16.66208923078741,163,5,0.0,783,375486300090570,17,28.2,5.165862083435059,0.44350001215934753,0,0.0,0.0,,,,,0,,5,,
Raw,12986585,12990497000000,,,-1291005709936241408,0.0,71.5364731149748,2.44941011858106,16.66208923078741,163,7,0.0,15,375486312159820,86,17.6,-24.60025978088379,3.264500141143799,0,0.0,0.0,,,,,0,,5,,
Raw,12986585,12990497000000,,,-1291005709936241408,0.0,71.5364731149748,2.44941011858106,16.66208923078741,163,10,0.0,15,375486308437788,46,20.4,-87.42597961425781,0.7985000014305115,0,0.0,0.0,,,,,0,,5,,
Raw,12986585,12990497000000,,,-1291005709936241408,0.0,71.5364731149748,2.44941011858106,16.66208923078741,163,13,0.0,15,375486296654898,35,22.6,250.40029907226562,0.6904999613761902,0,0.0,0.0,,,,,0,,5,,
Raw,12986585,12990497000000,,,-1291005709936241408,0.0,71.5364731149748,2.44941011858106,16.66208923078741,163,14,0.0,15,375486344328867,40,21.7,-545.699462890625,0.7324999570846558,0,0.0,0.0,,,,,0,,5,,
Raw,12986585,12990497000000,,,-1291005709936241408,0.0,71.5364731149748,2.44941011858106,16.66208923078741,163,21,0.0,15,375486359249917,121,15.1,97.33522033691406,4.195000171661377,0,0.0,0.0,,,,,0,,5,,
Raw,12986586,12990497000000,,,-1291005709936241408,0.0,71.5364731149748,2.44941011858106,16.66208923078741,163,24,0.0,15,375486344304832,17,28.1,-330.83184814453125,0.03930000215768814,0,0.0,0.0,,,,,0,,5,,
Raw,12986586,12990497000000,,,-1291005709936241408,0.0,71.5364731149748,2.44941011858106,16.66208923078741,163,26,0.0,15,375486356832557,12,32.1,-116.05119323730469,0.0479000024497509,0,0.0,0.0,,,,,0,,5,,
Raw,12986586,12990497000000,,,-1291005709936241408,0.0,71.5364731149748,2.44941011858106,16.66208923078741,163,9,0.0,7183,375500361244250,69,18.0,94.09070587158203,2.371999979019165,0,0.0,0.0,,,,,0,,6,,
Raw,12986586,12990497000000,,,-1291005709936241408,0.0,71.5364731149748,2.44941011858106,16.66208923078741,163,25,0.0,7183,375500346067968,61,18.6,-309.6173095703125,0.8734999895095825,0,0.0,0.0,,,,,0,,6,,
Raw,12986586,12990497000000,,,-1291005709936241408,0.0,71.5364731149748,2.44941011858106,16.66208923078741,163,31,0.0,7183,375500347930062,404,11.6,406.8573913574219,11.249000549316406,0,0.0,0.0,,,,,0,,6,,
NMEA,$GPGSV,3,1,09,03,10,313,28,10,17,177,21,16,30,222,31,22,22,295,33*74,1606983482504
NMEA,$GPGSV,3,2,09,26,63,246,22,31,48,351,09,32,66,098,15,25,19,037,*7F,1606983482504
NMEA,$GPGSV,3,3,09,29,28,078,*4E,1606983482505
NMEA,$GLGSV,3,1,10,74,33,272,23,75,00,000,26,82,03,059,16,73,47,343,14*61,1606983482508
NMEA,$GLGSV,3,2,10,71,61,317,16,72,12,330,13,70,57,171,,80,16,033,*6F,1606983482509
NMEA,$GLGSV,3,3,10,69,01,156,,83,07,102,*67,1606983482509
NMEA,$GAGSV,2,1,05,09,78,129,18,25,28,241,19,31,35,030,12,04,23,137,*6D,1606983482509
NMEA,$GAGSV,2,2,05,05,45,322,*5A,1606983482509
NMEA,$PQGSV,1,1,03,193,54,158,13,194,66,035,,195,31,139,,0,5*63,1606983482511
NMEA,$PQGSV,4,1,16,02,40,240,26,05,00,000,28,07,75,226,18,10,48,223,20,0,4*64,1606983482511
NMEA,$PQGSV,4,2,16,13,04,210,23,14,05,322,22,21,66,250,15,24,05,257,28,0,4*64,1606983482511
NMEA,$PQGSV,4,3,16,26,42,291,32,01,52,129,,03,59,202,,04,37,115,,0,4*64,1606983482511
NMEA,$PQGSV,4,4,16,06,69,036,,08,00,000,,09,53,338,,16,68,026,,0,4*62,1606983482513
NMEA,$GNGSA,A,3,03,10,16,22,26,32,,,,,,,1.5,1.2,0.8,1*3E,1606983482516
NMEA,$GNGSA,A,2,74,,,,,,,,,,,,1.5,1.2,0.8,2*3F,1606983482516
NMEA,$GNGSA,A,2,25,,,,,,,,,,,,1.5,1.2,0.8,3*3A,1606983482517
NMEA,$PQGSA,A,2,24,,,,,,,,,,,,1.5,1.2,0.8,4*34,1606983482517
NMEA,$GNVTG,,T,,M,0.0,N,0.0,K,A*3D,1606983482517
NMEA,$GNRMC,081803.00,A,2255.527520,N,12017.681815,E,0.0,,031220,2.8,W,A*1C,1606983482522
NMEA,$GNGGA,081803.00,2255.527520,N,12017.681815,E,1,09,1.2,27.5,M,17.5,M,,*48,1606983482522
Fix,gps,22.925459,120.294697,45.038391,0.000000,11.792000,1606983484000
Raw,12987590,12991497000000,,,-1291005709936241408,0.0,73.61893221968785,3.148015601993707,14.715040014255113,163,10,0.0,207,40683361965145,35,22.6,-176.61363220214844,0.9279999732971191,0,0.0,0.0,,,,,0,,3,,
Raw,12987590,12991497000000,,,-1291005709936241408,0.0,73.61893221968785,3.148015601993707,14.715040014255113,163,11,0.0,207,40683355892378,21,26.4,-364.5547790527344,0.7489999532699585,0,0.0,0.0,,,,,0,,3,,
Raw,12987590,12991497000000,,,-1291005709936241408,0.0,73.61893221968785,3.148015601993707,14.715040014255113,163,18,0.0,207,40683352427989,213,15.9,-117.78606414794922,8.119500160217285,0,0.0,0.0,,,,,0,,3,,
Raw,12987591,12991497000000,,,-1291005709936241408,0.0,73.61893221968785,3.148015601993707,14.715040014255113,163,9,0.0,207,40683364925401,167,14.1,269.2162780761719,6.062500476837158,0,0.0,0.0,,,,,0,,3,,
Raw,12987592,12991497000000,,,-1291005709936241408,0.0,73.61893221968785,3.148015601993707,14.715040014255113,163,7,0.0,207,40683367486396,123,16.1,-314.3985595703125,5.127000331878662,0,0.0,0.0,,,,,0,,3,,
Raw,12987592,12991497000000,,,-1291005709936241408,0.0,73.61893221968785,3.148015601993707,14.715040014255113,163,8,0.0,207,40683355333202,524,13.4,-755.300537109375,14.29900074005127,0,0.0,0.0,,,,,0,,3,,
Raw,12987592,12991497000000,,,-1291005709936241408,0.0,73.61893221968785,3.148015601993707,14.715040014255113,163,3,0.0,15,375501351470479,17,28.3,-400.1780700683594,0.5130000114440918,0,0.0,0.0,,,,,0,,1,,
Raw,12987593,12991497000000,,,-1291005709936241408,0.0,73.61893221968785,3.148015601993707,14.715040014255113,163,10,0.0,15,375501353866508,35,22.2,657.3504638671875,0.8059999942779541,0,0.0,0.0,,,,,0,,1,,
Raw,12987593,12991497000000,,,-1291005709936241408,0.0,73.61893221968785,3.148015601993707,14.715040014255113,163,16,0.0,15,375501357987562,12,32.1,-587.4175415039062,0.3919999897480011,0,0.0,0.0,,,,,0,,1,,
Raw,12987594,12991497000000,,,-1291005709936241408,0.0,73.61893221968785,3.148015601993707,14.715040014255113,163,22,0.0,15,375501353926174,10,34.0,-181.84840393066406,0.041600000113248825,0,0.0,0.0,,,,,0,,1,,
Raw,12987594,12991497000000,,,-1291005709936241408,0.0,73.61893221968785,3.148015601993707,14.715040014255113,163,26,0.0,15,375501364849001,31,23.4,-189.70376586914062,0.7324999570846558,0,0.0,0.0,,,,,0,,1,,
Raw,12987594,12991497000000,,,-1291005709936241408,0.0,73.61893221968785,3.148015601993707,14.715040014255113,163,31,0.0,15,375501361989165,2030,8.7,49.62859344482422,29.93800163269043,0,0.0,0.0,,,,,0,,1,,
Raw,12987595,12991497000000,,,-1291005709936241408,0.0,73.61893221968785,3.148015601993707,14.715040014255113,163,32,0.0,15,375501364674339,228,14.5,129.43775939941406,8.112500190734863,0,0.0,0.0,,,,,0,,1,,
Raw,12987595,12991497000000,,,-1291005709936241408,0.0,73.61893221968785,3.148015601993707,14.715040014255113,163,2,0.0,783,375487308272182,48,25.7,2.87099027633667,3.553500175476074,0,0.0,0.0,,,,,0,,5,,
Raw,12987596,12991497000000,,,-1291005709936241408,0.0,73.61893221968785,3.148015601993707,14.715040014255113,163,5,0.0,783,375487300090552,24,28.2,5.165862083435059,1.94350004196167,0,0.0,0.0,,,,,0,,5,,
Raw,12987596,12991497000000,,,-1291005709936241408,0.0,73.61893221968785,3.148015601993707,14.715040014255113,163,7,0.0,15,375487312159949,84,16.4,-24.801902770996094,1.844499945640564,0,0.0,0.0,,,,,0,,5,,
Raw,12987596,12991497000000,,,-1291005709936241408,0.0,73.61893221968785,3.148015601993707,14.715040014255113,163,10,0.0,15,375487308438036,40,21.0,-90.8538818359375,0.7384999990463257,0,0.0,0.0,,,,,0,,5,,
Raw,12987597,12991497000000,,,-1291005709936241408,0.0,73.61893221968785,3.148015601993707,14.715040014255113,163,13,0.0,15,375487296654027,40,21.8,247.0780029296875,0.6904999613761902,0,0.0,0.0,,,,,0,,5,,
Raw,12987597,12991497000000,,,-1291005709936241408,0.0,73.61893221968785,3.148015601993707,14.715040014255113,163,14,0.0,15,375487344330687,40,21.3,-548.8681030273438,0.7324999570846558,0,0.0,0.0,,,,,0,,5,,
Raw,12987597,12991497000000,,,-1291005709936241408,0.0,73.61893221968785,3.148015601993707,14.715040014255113,163,21,0.0,15,375487359249592,150,15.1,97.33522033691406,5.695000171661377,0,0.0,0.0,,,,,0,,5,,
Raw,12987598,12991497000000,,,-1291005709936241408,0.0,73.61893221968785,3.148015601993707,14.715040014255113,163,24,0.0,15,375487344305906,21,26.8,-333.2557373046875,0.4625000059604645,0,0.0,0.0,,,,,0,,5,,
Raw,12987598,12991497000000,,,-1291005709936241408,0.0,73.61893221968785,3.148015601993707,14.715040014255113,163,26,0.0,15,375487356832941,13,31.3,-118.44035339355469,0.3605000078678131,0,0.0,0.0,,,,,0,,5,,
Raw,12987599,12991497000000,,,-1291005709936241408,0.0,73.61893221968785,3.148015601993707,14.715040014255113,163,9,0.0,7183,375501361243936,87,18.0,94.09070587158203,3.872000217437744,0,0.0,0.0,,,,,0,,6,,
Raw,12987599,12991497000000,,,-1291005709936241408,0.0,73.61893221968785,3.148015601993707,14.715040014255113,163,25,0.0,7183,375501346069011,61,18.2,-311.6344299316406,0.8734999895095825,0,0.0,0.0,,,,,0,,6,,
Raw,12987599,12991497000000,,,-1291005709936241408,0.0,73.61893221968785,3.148015601993707,14.715040014255113,163,31,0.0,7183,375501347928705,479,11.6,406.8573913574219,12.749000549316406,0,0.0,0.0,,,,,0,,6,,
NMEA,$GPGSV,3,1,09,03,10,313,28,10,17,177,22,16,30,222,32,22,22,295,34*73,1606983483505
NMEA,$GPGSV,3,2,09,26,63,246,23,31,48,351,09,32,66,098,15,25,19,037,*7E,1606983483506
NMEA,$GPGSV,3,3,09,29,28,078,*4E,1606983483506
NMEA,$GLGSV,3,1,10,74,33,272,23,75,00,000,26,82,03,059,16,73,47,343,14*61,1606983483506
NMEA,$GLGSV,3,2,10,71,61,317,16,72,12,330,13,70,57,171,,80,16,033,*6F,1606983483506
NMEA,$GLGSV,3,3,10,69,01,156,,83,07,102,*67,1606983483506
NMEA,$GAGSV,2,1,05,09,78,129,18,25,28,241,18,31,35,030,12,04,23,137,*6C,1606983483507
NMEA,$GAGSV,2,2,05,05,45,322,*5A,1606983483507
NMEA,$PQGSV,1,1,03,193,54,158,13,194,66,035,,195,31,139,,0,5*63,1606983483507
NMEA,$PQGSV,4,1,16,02,40,240,26,05,00,000,28,07,75,226,16,10,48,223,21,0,4*6B,1606983483507
NMEA,$PQGSV,4,2,16,13,04,210,22,14,05,322,21,21,66,250,15,24,05,257,27,0,4*69,1606983483508
NMEA,$PQGSV,4,3,16,26,42,291,31,01,52,129,,03,59,202,,04,37,115,,0,4*67,1606983483508
NMEA,$PQGSV,4,4,16,06,69,036,,08,00,000,,09,53,338,,16,68,026,,0,4*62,1606983483508
NMEA,$GNGSA,A,3,03,10,16,22,26,32,,,,,,,1.5,1.2,0.8,1*3E,1606983483509
NMEA,$GNGSA,A,2,74,,,,,,,,,,,,1.5,1.2,0.8,2*3F,1606983483509
NMEA,$GNGSA,A,2,25,,,,,,,,,,,,1.5,1.2,0.8,3*3A,1606983483509
NMEA,$PQGSA,A,2,24,,,,,,,,,,,,1.5,1.2,0.8,4*34,1606983483509
NMEA,$GNVTG,,T,,M,0.0,N,0.0,K,A*3D,1606983483509
NMEA,$GNRMC,081804.00,A,2255.527520,N,12017.681815,E,0.0,,031220,2.8,W,A*1B,1606983483509
NMEA,$GNGGA,081804.00,2255.527520,N,12017.681815,E,1,09,1.2,27.6,M,17.5,M,,*4C,1606983483510
Raw,12988633,12992497000000,,,-1291005709936241408,0.0,82.87245145766065,-3.3354705635037276,18.547272120764323,163,10,0.0,207,40684361965699,35,22.4,-177.76734924316406,0.9279999732971191,0,0.0,0.0,,,,,0,,3,,
Raw,12988634,12992497000000,,,-1291005709936241408,0.0,82.87245145766065,-3.3354705635037276,18.547272120764323,163,11,0.0,207,40684355893672,24,25.5,-365.3666076660156,0.6042999625205994,0,0.0,0.0,,,,,0,,3,,
Raw,12988634,12992497000000,,,-1291005709936241408,0.0,82.87245145766065,-3.3354705635037276,18.547272120764323,163,18,0.0,207,40684352428382,267,15.9,-117.78606414794922,9.619500160217285,0,0.0,0.0,,,,,0,,3,,
Raw,12988635,12992497000000,,,-1291005709936241408,0.0,82.87245145766065,-3.3354705635037276,18.547272120764323,163,9,0.0,207,40684364924503,207,14.1,269.2162780761719,7.562500476837158,0,0.0,0.0,,,,,0,,3,,
Raw,12988635,12992497000000,,,-1291005709936241408,0.0,82.87245145766065,-3.3354705635037276,18.547272120764323,163,7,0.0,207,40684367487303,103,15.3,-316.39739990234375,2.9670002460479736,0,0.0,0.0,,,,,0,,3,,
Raw,12988636,12992497000000,,,-1291005709936241408,0.0,82.87245145766065,-3.3354705635037276,18.547272120764323,163,8,0.0,207,40684355335722,618,13.4,-755.300537109375,15.79900074005127,0,0.0,0.0,,,,,0,,3,,
Raw,12988637,12992497000000,,,-1291005709936241408,0.0,82.87245145766065,-3.3354705635037276,18.547272120764323,163,3,0.0,15,375502351471788,19,27.9,-401.0145568847656,0.05780000239610672,0,0.0,0.0,,,,,0,,1,,
Raw,12988637,12992497000000,,,-1291005709936241408,0.0,82.87245145766065,-3.3354705635037276,18.547272120764323,163,10,0.0,15,375502353864352,31,23.2,655.9898681640625,0.7459999918937683,0,0.0,0.0,,,,,0,,1,,
Raw,12988638,12992497000000,,,-1291005709936241408,0.0,82.87245145766065,-3.3354705635037276,18.547272120764323,163,16,0.0,15,375502357989548,12,32.8,-588.3008422851562,0.049400001764297485,0,0.0,0.0,,,,,0,,1,,
Raw,12988639,12992497000000,,,-1291005709936241408,0.0,82.87245145766065,-3.3354705635037276,18.547272120764323,163,22,0.0,15,375502353926798,10,34.8,-183.0638885498047,0.041600000113248825,0,0.0,0.0,,,,,0,,1,,
Raw,12988639,12992497000000,,,-1291005709936241408,0.0,82.87245145766065,-3.3354705635037276,18.547272120764323,163,26,0.0,15,375502364849641,35,22.3,-190.4839630126953,0.7924999594688416,0,0.0,0.0,,,,,0,,1,,
Raw,12988641,12992497000000,,,-1291005709936241408,0.0,82.87245145766065,-3.3354705635037276,18.547272120764323,163,31,0.0,15,375502361989000,2227,8.7,49.62859344482422,31.43800163269043,0,0.0,0.0,,,,,0,,1,,
Raw,12988641,12992497000000,,,-1291005709936241408,0.0,82.87245145766065,-3.3354705635037276,18.547272120764323,163,32,0.0,15,375502364673907,283,14.5,129.43775939941406,9.612500190734863,0,0.0,0.0,,,,,0,,1,,
Raw,12988642,12992497000000,,,-1291005709936241408,0.0,82.87245145766065,-3.3354705635037276,18.547272120764323,163,2,0.0,783,375488308272181,24,26.2,3.543128728866577,1.2735000848770142,0,0.0,0.0,,,,,0,,5,,
Raw,12988642,12992497000000,,,-1291005709936241408,0.0,82.87245145766065,-3.3354705635037276,18.547272120764323,163,5,0.0,783,375488300090539,21,27.4,5.213871955871582,1.2335000038146973,0,0.0,0.0,,,,,0,,5,,
Raw,12988643,12992497000000,,,-1291005709936241408,0.0,82.87245145766065,-3.3354705635037276,18.547272120764323,163,7,0.0,15,375488312160032,97,16.4,-24.801902770996094,3.3445000648498535,0,0.0,0.0,,,,,0,,5,,
Raw,12988643,12992497000000,,,-1291005709936241408,0.0,82.87245145766065,-3.3354705635037276,18.547272120764323,163,10,0.0,15,375488308438387,31,23.4,-90.92109680175781,0.6285000443458557,0,0.0,0.0,,,,,0,,5,,
Raw,12988644,12992497000000,,,-1291005709936241408,0.0,82.87245145766065,-3.3354705635037276,18.547272120764323,163,13,0.0,15,375488296653217,31,23.1,246.40586853027344,0.640500009059906,0,0.0,0.0,,,,,0,,5,,
Raw,12988645,12992497000000,,,-1291005709936241408,0.0,82.87245145766065,-3.3354705635037276,18.547272120764323,163,14,0.0,15,375488344332466,46,20.2,-551.0477294921875,0.7924999594688416,0,0.0,0.0,,,,,0,,5,,
Raw,12988645,12992497000000,,,-1291005709936241408,0.0,82.87245145766065,-3.3354705635037276,18.547272120764323,163,21,0.0,15,375488359249240,102,15.7,95.48204040527344,2.694999933242798,0,0.0,0.0,,,,,0,,5,,
Raw,12988646,12992497000000,,,-1291005709936241408,0.0,82.87245145766065,-3.3354705635037276,18.547272120764323,163,24,0.0,15,375488344307044,17,28.2,-334.3609924316406,0.03930000215768814,0,0.0,0.0,,,,,0,,5,,
Raw,12988646,12992497000000,,,-1291005709936241408,0.0,82.87245145766065,-3.3354705635037276,18.547272120764323,163,26,0.0,15,375488356833324,13,31.2,-119.63046264648438,0.04920000210404396,0,0.0,0.0,,,,,0,,5,,
Raw,12988647,12992497000000,,,-1291005709936241408,0.0,82.87245145766065,-3.3354705635037276,18.547272120764323,163,9,0.0,7183,375502361243622,115,18.0,94.09070587158203,5.372000217437744,0,0.0,0.0,,,,,0,,6,,
