# 
# Header Description:
# 
# Version: v2.0.0.1 Platform: 8.0.0 Manufacturer: Sony Model: G8142
# 
# Raw,ElapsedRealtimeMillis,TimeNanos,LeapSecond,TimeUncertaintyNanos,FullBiasNanos,BiasNanos,BiasUncertaintyNanos,DriftNanosPerSecond,DriftUncertaintyNanosPerSecond,HardwareClockDiscontinuityCount,Svid,TimeOffsetNanos,State,ReceivedSvTimeNanos,ReceivedSvTimeUncertaintyNanos,Cn0DbHz,PseudorangeRateMetersPerSecond,PseudorangeRateUncertaintyMetersPerSecond,AccumulatedDeltaRangeState,AccumulatedDeltaRangeMeters,AccumulatedDeltaRangeUncertaintyMeters,CarrierFrequencyHz,CarrierCycles,CarrierPhase,CarrierPhaseUncertainty,MultipathIndicator,SnrInDb,ConstellationType,AgcDb,CarrierFrequencyHz
# 
# Fix,Provider,Latitude,Longitude,Altitude,Speed,Accuracy,(UTC)TimeInMs
# 
# Nav,Svid,Type,Status,MessageId,Sub-messageId,Data(Bytes)
# 
Raw,13409602,13413497000000,,,-1291005709936238080,0.0,117.89116251748055,9.501548642612912,22.89490213429996,163,10,0.0,207,41105362187647,31,23.8,-143.54019165039062,0.8694999814033508,0,0.0,0.0,,,,,0,,3,,
Raw,13409602,13413497000000,,,-1291005709936238080,0.0,117.89116251748055,9.501548642612912,22.89490213429996,163,11,0.0,207,41105356380749,8,36.4,-333.70941162109375,0.2452000081539154,0,0.0,0.0,,,,,0,,3,,
Raw,13409602,13413497000000,,,-1291005709936238080,0.0,117.89116251748055,9.501548642612912,22.89490213429996,163,9,0.0,207,41105364535029,559,14.9,283.0366516113281,15.062500953674316,0,0.0,0.0,,,,,0,,3,,
Raw,13409602,13413497000000,,,-1291005709936238080,0.0,117.89116251748055,9.501548642612912,22.89490213429996,163,7,0.0,207,41105367881357,1164,14.1,-247.33433532714844,4.027000427246094,0,0.0,0.0,,,,,0,,3,,
Raw,13409603,13413497000000,,,-1291005709936238080,0.0,117.89116251748055,9.501548642612912,22.89490213429996,163,3,0.0,15,375923352001032,27,24.3,-356.7816162109375,0.684499979019165,0,0.0,0.0,,,,,0,,1,,
Raw,13409603,13413497000000,,,-1291005709936238080,0.0,117.89116251748055,9.501548642612912,22.89490213429996,163,10,0.0,15,375923352937795,410,14.9,659.1487426757812,12.369500160217285,0,0.0,0.0,,,,,0,,1,,
Raw,13409603,13413497000000,,,-1291005709936238080,0.0,117.89116251748055,9.501548642612912,22.89490213429996,163,16,0.0,15,375923358786782,21,26.5,-552.0657348632812,0.13819999992847443,0,0.0,0.0,,,,,0,,1,,
Raw,13409603,13413497000000,,,-1291005709936238080,0.0,117.89116251748055,9.501548642612912,22.89490213429996,163,22,0.0,15,375923354148289,9,35.2,-137.55857849121094,0.04260000213980675,0,0.0,0.0,,,,,0,,1,,
Raw,13409604,13413497000000,,,-1291005709936238080,0.0,117.89116251748055,9.501548642612912,22.89490213429996,163,32,0.0,15,375923364460389,110,14.8,171.78761291503906,2.112499952316284,0,0.0,0.0,,,,,0,,1,,
Raw,13409604,13413497000000,,,-1291005709936238080,0.0,117.89116251748055,9.501548642612912,22.89490213429996,163,9,0.0,7183,375923361086922,186,17.4,129.29502868652344,7.692000389099121,0,0.0,0.0,,,,,0,,6,,
Raw,13409604,13413497000000,,,-1291005709936238080,0.0,117.89116251748055,9.501548642612912,22.89490213429996,163,24,0.0,7183,375923354017883,61,18.5,102.86324310302734,0.8734999895095825,0,0.0,0.0,,,,,0,,6,,
Raw,13409607,13413497000000,,,-1291005709936238080,0.0,117.89116251748055,9.501548642612912,22.89490213429996,163,25,0.0,7183,375923346487079,14,30.3,-284.9583740234375,0.052800003439188004,0,0.0,0.0,,,,,0,,6,,
Fix,gps,22.925478,120.294635,47.896179,1.420000,12.864000,1606983906000
NMEA,$GPGSV,3,1,10,03,11,312,24,10,14,175,15,16,32,224,27,22,23,291,35*76,1606983905501
NMEA,$GPGSV,3,2,10,32,63,106,15,25,16,037,,26,66,253,,27,00,000,*7F,1606983905502
NMEA,$GPGSV,3,3,10,29,28,075,,31,48,355,*76,1606983905502
NMEA,$GLGSV,3,1,09,74,34,278,24,75,00,000,36,73,45,347,15,71,64,312,14*66,1606983905502
NMEA,$GLGSV,3,2,09,70,54,171,,82,04,056,,80,14,035,,83,09,099,*68,1606983905502
NMEA,$GLGSV,3,3,09,72,15,330,*5D,1606983905503
NMEA,$GAGSV,2,1,06,09,75,137,17,24,68,316,19,25,30,244,30,04,21,139,*68,1606983905506
NMEA,$GAGSV,2,2,06,05,48,320,,31,33,030,*67,1606983905506
NMEA,$PQGSV,1,1,03,193,53,160,17,194,65,033,19,195,32,139,14,0,5*60,1606983905507
NMEA,$PQGSV,4,1,16,02,40,240,26,05,00,000,31,07,76,232,13,09,54,338,16,0,4*6A,1606983905507
NMEA,$PQGSV,4,2,16,10,49,226,15,13,04,209,16,14,07,320,17,21,64,243,18,0,4*66,1606983905507
NMEA,$PQGSV,4,3,16,24,07,260,34,26,42,295,18,01,52,129,,03,59,202,,0,4*6F,1606983905507
NMEA,$PQGSV,4,4,16,04,37,115,,06,71,037,,08,00,000,,16,70,028,,0,4*6F,1606983905507
NMEA,$GNGSA,A,2,03,16,22,,,,,,,,,,1.8,1.5,1.0,1*38,1606983905508
NMEA,$GNGSA,A,2,74,,,,,,,,,,,,1.8,1.5,1.0,2*3C,1606983905509
NMEA,$GNGSA,A,2,25,,,,,,,,,,,,1.8,1.5,1.0,3*39,1606983905509
NMEA,$PQGSA,A,2,24,,,,,,,,,,,,1.8,1.5,1.0,4*37,1606983905509
NMEA,$GNVTG,37.2,T,37.2,M,2.8,N,5.1,K,A*33,1606983905509
NMEA,$GNRMC,082506.00,A,2255.528658,N,12017.678109,E,2.8,37.2,031220,2.8,W,A*04,1606983905509
NMEA,$GNGGA,082506.00,2255.528658,N,12017.678109,E,1,06,1.5,30.4,M,17.5,M,,*4D,1606983905509
Fix,gps,22.925485,120.294642,46.854919,0.270000,12.864000,1606983907000
Raw,13410584,13414497000000,,,-1291005709936238080,0.0,114.3945410149172,7.833427551244762,19.647320810645574,163,10,0.0,207,41106362188198,31,23.2,-144.67515563964844,0.8694999814033508,0,0.0,0.0,,,,,0,,3,,
Raw,13410584,13414497000000,,,-1291005709936238080,0.0,114.3945410149172,7.833427551244762,19.647320810645574,163,11,0.0,207,41106356381862,8,36.0,-334.8150939941406,0.2452000081539154,0,0.0,0.0,,,,,0,,3,,
Raw,13410584,13414497000000,,,-1291005709936238080,0.0,114.3945410149172,7.833427551244762,19.647320810645574,163,9,0.0,207,41106364534084,659,14.9,283.0366516113281,16.5625,0,0.0,0.0,,,,,0,,3,,
Raw,13410584,13414497000000,,,-1291005709936238080,0.0,114.3945410149172,7.833427551244762,19.647320810645574,163,7,0.0,207,41106367882206,1351,13.2,-247.6145477294922,4.897000312805176,0,0.0,0.0,,,,,0,,3,,
Raw,13410584,13414497000000,,,-1291005709936238080,0.0,114.3945410149172,7.833427551244762,19.647320810645574,163,3,0.0,15,375924352002224,40,21.1,-358.656005859375,0.8644999861717224,0,0.0,0.0,,,,,0,,1,,
Raw,13410585,13414497000000,,,-1291005709936238080,0.0,114.3945410149172,7.833427551244762,19.647320810645574,163,10,0.0,15,375924352935596,493,14.9,659.1487426757812,13.869500160217285,0,0.0,0.0,,,,,0,,1,,
Raw,13410585,13414497000000,,,-1291005709936238080,0.0,114.3945410149172,7.833427551244762,19.647320810645574,163,16,0.0,15,375924358788600,16,29.4,-552.9623413085938,0.053700003772974014,0,0.0,0.0,,,,,0,,1,,
Raw,13410585,13414497000000,,,-1291005709936238080,0.0,114.3945410149172,7.833427551244762,19.647320810645574,163,22,0.0,15,375924354148751,7,37.5,-138.61279296875,0.041600000113248825,0,0.0,0.0,,,,,0,,1,,
Raw,13410585,13414497000000,,,-1291005709936238080,0.0,114.3945410149172,7.833427551244762,19.647320810645574,163,32,0.0,15,375924364459795,61,18.4,171.7400360107422,1.0824999809265137,0,0.0,0.0,,,,,0,,1,,
Raw,13410585,13414497000000,,,-1291005709936238080,0.0,114.3945410149172,7.833427551244762,19.647320810645574,163,2,0.0,783,375910308264961,23,26.8,6.308497905731201,1.2335000038146973,0,0.0,0.0,,,,,0,,5,,
Raw,13410586,13414497000000,,,-1291005709936238080,0.0,114.3945410149172,7.833427551244762,19.647320810645574,163,5,0.0,783,375910300079956,12,32.1,8.468941688537598,0.3334999978542328,0,0.0,0.0,,,,,0,,5,,
Raw,13410586,13414497000000,,,-1291005709936238080,0.0,114.3945410149172,7.833427551244762,19.647320810645574,163,7,0.0,15,375910312186413,500,12.6,-13.980475425720215,13.494500160217285,0,0.0,0.0,,,,,0,,5,,
Raw,13410586,13414497000000,,,-1291005709936238080,0.0,114.3945410149172,7.833427551244762,19.647320810645574,163,9,0.0,15,375910310991700,801,15.7,-148.01443481445312,18.431501388549805,0,0.0,0.0,,,,,0,,5,,
Raw,13410586,13414497000000,,,-1291005709936238080,0.0,114.3945410149172,7.833427551244762,19.647320810645574,163,10,0.0,15,375910308552866,110,14.6,-76.85420989990234,2.0185000896453857,0,0.0,0.0,,,,,0,,5,,
Raw,13410586,13414497000000,,,-1291005709936238080,0.0,114.3945410149172,7.833427551244762,19.647320810645574,163,13,0.0,15,375910296308247,244,10.4,239.2523956298828,6.250500202178955,0,0.0,0.0,,,,,0,,5,,
Raw,13410587,13414497000000,,,-1291005709936238080,0.0,114.3945410149172,7.833427551244762,19.647320810645574,163,14,0.0,15,375910345087039,61,18.3,-526.6875,0.9239999651908875,0,0.0,0.0,,,,,0,,5,,
Raw,13410587,13414497000000,,,-1291005709936238080,0.0,114.3945410149172,7.833427551244762,19.647320810645574,163,21,0.0,15,375910359078239,109,17.6,143.1366424560547,4.700000286102295,0,0.0,0.0,,,,,0,,5,,
Raw,13410587,13414497000000,,,-1291005709936238080,0.0,114.3945410149172,7.833427551244762,19.647320810645574,163,24,0.0,15,375910344762845,10,34.1,-319.6441650390625,0.02810000069439411,0,0.0,0.0,,,,,0,,5,,
Raw,13410587,13414497000000,,,-1291005709936238080,0.0,114.3945410149172,7.833427551244762,19.647320810645574,163,26,0.0,15,375910356986390,78,17.7,-102.22261810302734,2.5205001831054688,0,0.0,0.0,,,,,0,,5,,
Raw,13410587,13414497000000,,,-1291005709936238080,0.0,114.3945410149172,7.833427551244762,19.647320810645574,163,9,0.0,7183,375924361086491,239,17.4,129.29502868652344,9.192000389099121,0,0.0,0.0,,,,,0,,6,,
Raw,13410588,13414497000000,,,-1291005709936238080,0.0,114.3945410149172,7.833427551244762,19.647320810645574,163,24,0.0,7183,375924354017520,53,19.4,102.06401824951172,0.8134999871253967,0,0.0,0.0,,,,,0,,6,,
Raw,13410588,13414497000000,,,-1291005709936238080,0.0,114.3945410149172,7.833427551244762,19.647320810645574,163,25,0.0,7183,375924346488026,17,28.8,-287.51470947265625,0.41350001096725464,0,0.0,0.0,,,,,0,,6,,
NMEA,$GPGSV,3,1,10,03,11,312,21,10,14,175,15,16,32,224,29,22,23,291,38*70,1606983906502
NMEA,$GPGSV,3,2,10,32,63,106,18,25,16,037,,26,66,253,,27,00,000,*72,1606983906502
NMEA,$GPGSV,3,3,10,29,28,075,,31,48,355,*76,1606983906503
NMEA,$GLGSV,3,1,09,74,34,278,23,75,00,000,36,73,45,347,15,71,64,312,13*66,1606983906505
NMEA,$GLGSV,3,2,09,70,54,171,,82,04,056,,80,14,035,,83,09,099,*68,1606983906505
NMEA,$GLGSV,3,3,09,72,15,330,*5D,1606983906506
NMEA,$GAGSV,2,1,06,09,75,137,17,24,68,316,19,25,30,244,29,04,21,139,*60,1606983906506
NMEA,$GAGSV,2,2,06,05,48,320,,31,33,030,*67,1606983906506
NMEA,$PQGSV,1,1,03,193,53,160,17,194,65,033,19,195,32,139,14,0,5*60,1606983906506
NMEA,$PQGSV,4,1,16,02,40,240,27,05,00,000,32,07,76,232,13,09,54,338,16,0,4*68,1606983906507
NMEA,$PQGSV,4,2,16,10,49,226,15,13,04,209,10,14,07,320,18,21,64,243,18,0,4*6F,1606983906507
NMEA,$PQGSV,4,3,16,24,07,260,34,26,42,295,18,01,52,129,,03,59,202,,0,4*6F,1606983906507
NMEA,$PQGSV,4,4,16,04,37,115,,06,71,037,,08,00,000,,16,70,028,,0,4*6F,1606983906508
NMEA,$GNGSA,A,3,03,16,22,32,,,,,,,,,1.8,1.5,1.0,1*38,1606983906509
NMEA,$GNGSA,A,2,74,,,,,,,,,,,,1.8,1.5,1.0,2*3C,1606983906510
NMEA,$GNGSA,A,2,25,,,,,,,,,,,,1.8,1.5,1.0,3*39,1606983906510
NMEA,$PQGSA,A,2,24,,,,,,,,,,,,1.8,1.5,1.0,4*37,1606983906511
NMEA,$GNVTG,31.5,T,31.5,M,0.5,N,1.0,K,A*39,1606983906514
NMEA,$GNRMC,082507.00,A,2255.529078,N,12017.678519,E,0.5,31.5,031220,2.8,W,A*0B,1606983906514
NMEA,$GNGGA,082507.00,2255.529078,N,12017.678519,E,1,07,1.5,29.4,M,17.5,M,,*45,1606983906517
Raw,13411686,13415497000000,,,-1291005709936238080,0.0,109.29030395345762,2.4359973443816587,17.61257302235052,163,10,0.0,207,41107362188555,31,23.4,-146.09152221679688,0.8694999814033508,0,0.0,0.0,,,,,0,,3,,
Raw,13411686,13415497000000,,,-1291005709936238080,0.0,109.29030395345762,2.4359973443816587,17.61257302235052,163,11,0.0,207,41107356382984,9,35.1,-335.93951416015625,0.24560000002384186,0,0.0,0.0,,,,,0,,3,,
Raw,13411687,13415497000000,,,-1291005709936238080,0.0,109.29030395345762,2.4359973443816587,17.61257302235052,163,9,0.0,207,41107364533140,770,14.9,283.0366516113281,18.0625,0,0.0,0.0,,,,,0,,3,,
Raw,13411688,13415497000000,,,-1291005709936238080,0.0,109.29030395345762,2.4359973443816587,17.61257302235052,163,7,0.0,207,41107367883031,1366,13.2,-247.7826690673828,5.647000312805176,0,0.0,0.0,,,,,0,,3,,
Raw,13411688,13415497000000,,,-1291005709936238080,0.0,109.29030395345762,2.4359973443816587,17.61257302235052,163,3,0.0,15,375925352003361,35,22.2,-359.1412658691406,0.8044999837875366,0,0.0,0.0,,,,,0,,1,,
Raw,13411689,13415497000000,,,-1291005709936238080,0.0,109.29030395345762,2.4359973443816587,17.61257302235052,163,10,0.0,15,375925352933397,586,14.9,659.1487426757812,15.369501113891602,0,0.0,0.0,,,,,0,,1,,
Raw,13411689,13415497000000,,,-1291005709936238080,0.0,109.29030395345762,2.4359973443816587,17.61257302235052,163,16,0.0,15,375925358790428,17,28.7,-554.1161499023438,0.48350000381469727,0,0.0,0.0,,,,,0,,1,,
Raw,13411690,13415497000000,,,-1291005709936238080,0.0,109.29030395345762,2.4359973443816587,17.61257302235052,163,22,0.0,15,375925354149219,8,36.0,-139.7047119140625,0.0422000028192997,0,0.0,0.0,,,,,0,,1,,
Raw,13411691,13415497000000,,,-1291005709936238080,0.0,109.29030395345762,2.4359973443816587,17.61257302235052,163,32,0.0,15,375925364459263,80,16.8,170.53167724609375,1.1725000143051147,0,0.0,0.0,,,,,0,,1,,
Raw,13411692,13415497000000,,,-1291005709936238080,0.0,109.29030395345762,2.4359973443816587,17.61257302235052,163,2,0.0,783,375911308264940,35,26.8,6.308497905731201,2.7335000038146973,0,0.0,0.0,,,,,0,,5,,
Raw,13411692,13415497000000,,,-1291005709936238080,0.0,109.29030395345762,2.4359973443816587,17.61257302235052,163,5,0.0,783,375911300079938,13,31.3,4.791385650634766,0.3634999990463257,0,0.0,0.0,,,,,0,,5,,
Raw,13411693,13415497000000,,,-1291005709936238080,0.0,109.29030395345762,2.4359973443816587,17.61257302235052,163,7,0.0,15,375911312186459,590,12.6,-13.980475425720215,14.994501113891602,0,0.0,0.0,,,,,0,,5,,
Raw,13411693,13415497000000,,,-1291005709936238080,0.0,109.29030395345762,2.4359973443816587,17.61257302235052,163,9,0.0,15,375911310992194,925,15.7,-148.01443481445312,19.931501388549805,0,0.0,0.0,,,,,0,,5,,
Raw,13411694,13415497000000,,,-1291005709936238080,0.0,109.29030395345762,2.4359973443816587,17.61257302235052,163,10,0.0,15,375911308553172,61,18.4,-78.96664428710938,0.9284999966621399,0,0.0,0.0,,,,,0,,5,,
Raw,13411695,13415497000000,,,-1291005709936238080,0.0,109.29030395345762,2.4359973443816587,17.61257302235052,163,13,0.0,15,375911296307449,285,10.4,239.2523956298828,7.750500202178955,0,0.0,0.0,,,,,0,,5,,
Raw,13411695,13415497000000,,,-1291005709936238080,0.0,109.29030395345762,2.4359973443816587,17.61257302235052,163,14,0.0,15,375911345088796,69,18.3,-526.6875,2.4240000247955322,0,0.0,0.0,,,,,0,,5,,
Raw,13411696,13415497000000,,,-1291005709936238080,0.0,109.29030395345762,2.4359973443816587,17.61257302235052,163,21,0.0,15,375911359077750,111,14.2,141.7251434326172,2.2150001525878906,0,0.0,0.0,,,,,0,,5,,
Raw,13411697,13415497000000,,,-1291005709936238080,0.0,109.29030395345762,2.4359973443816587,17.61257302235052,163,24,0.0,15,375911344763909,11,33.9,-320.79022216796875,0.02890000119805336,0,0.0,0.0,,,,,0,,5,,
Raw,13411697,13415497000000,,,-1291005709936238080,0.0,109.29030395345762,2.4359973443816587,17.61257302235052,163,26,0.0,15,375911356986742,84,16.0,-105.65052795410156,1.8504999876022339,0,0.0,0.0,,,,,0,,5,,
Raw,13411698,13415497000000,,,-1291005709936238080,0.0,109.29030395345762,2.4359973443816587,17.61257302235052,163,9,0.0,7183,375925361086060,303,17.4,129.29502868652344,10.692000389099121,0,0.0,0.0,,,,,0,,6,,
Raw,13411699,13415497000000,,,-1291005709936238080,0.0,109.29030395345762,2.4359973443816587,17.61257302235052,163,24,0.0,7183,375925354017145,53,19.5,101.63585662841797,0.8134999871253967,0,0.0,0.0,,,,,0,,6,,
Raw,13411699,13415497000000,,,-1291005709936238080,0.0,109.29030395345762,2.4359973443816587,17.61257302235052,163,25,0.0,7183,375925346489001,19,27.3,-287.5843811035156,0.06830000132322311,0,0.0,0.0,,,,,0,,6,,
Fix,gps,22.925488,120.294639,46.850281,0.000000,12.864000,1606983908000
NMEA,$GPGSV,3,1,10,03,11,312,22,10,14,175,15,16,32,224,29,22,23,291,36*7D,1606983907503
NMEA,$GPGSV,3,2,10,32,63,106,17,25,16,037,,26,66,253,,27,00,000,*7D,1606983907503
NMEA,$GPGSV,3,3,10,29,28,075,,31,48,355,*76,1606983907503
NMEA,$GLGSV,3,1,09,74,34,278,23,75,00,000,35,73,45,347,15,71,64,312,13*65,1606983907503
NMEA,$GLGSV,3,2,09,70,54,171,,82,04,056,,80,14,035,,83,09,099,*68,1606983907503
NMEA,$GLGSV,3,3,09,72,15,330,*5D,1606983907504
NMEA,$GAGSV,2,1,06,09,75,137,17,24,68,316,20,25,30,244,27,04,21,139,*64,1606983907504
NMEA,$GAGSV,2,2,06,05,48,320,,31,33,030,*67,1606983907504
NMEA,$PQGSV,1,1,03,193,53,160,15,194,65,033,16,195,32,139,14,0,5*6D,1606983907504
NMEA,$PQGSV,4,1,16,02,40,240,27,05,00,000,31,07,76,232,13,09,54,338,16,0,4*6B,1606983907504
NMEA,$PQGSV,4,2,16,10,49,226,18,13,04,209,10,14,07,320,18,21,64,243,14,0,4*6E,1606983907505
NMEA,$PQGSV,4,3,16,24,07,260,34,26,42,295,16,01,52,129,,03,59,202,,0,4*61,1606983907505
NMEA,$PQGSV,4,4,16,04,37,115,,06,71,037,,08,00,000,,16,70,028,,0,4*6F,1606983907505
NMEA,$GNGSA,A,3,03,16,22,32,,,,,,,,,1.8,1.5,1.0,1*38,1606983907506
NMEA,$GNGSA,A,2,74,,,,,,,,,,,,1.8,1.5,1.0,2*3C,1606983907506
NMEA,$GNGSA,A,2,25,,,,,,,,,,,,1.8,1.5,1.0,3*39,1606983907507
NMEA,$PQGSA,A,2,24,,,,,,,,,,,,1.8,1.5,1.0,4*37,1606983907507
NMEA,$GNVTG,,T,,M,0.0,N,0.0,K,A*3D,1606983907507
NMEA,$GNRMC,082508.00,A,2255.529281,N,12017.678326,E,0.0,,031220,2.8,W,A*16,1606983907507
NMEA,$GNGGA,082508.00,2255.529281,N,12017.678326,E,1,07,1.5,29.4,M,17.5,M,,*44,1606983907508
NMEA,$GPGSV,3,1,10,03,11,312,25,10,14,175,15,16,32,224,29,22,23,291,38*74,1606983908502
Raw,13412588,13416497000000,,,-1291005709936238080,0.0,127.43785919155926,-0.21497675162489296,19.202909487179582,163,10,0.0,207,41108362189159,31,23.9,-146.02586364746094,0.8694999814033508,0,0.0,0.0,,,,,0,,3,,
Raw,13412588,13416497000000,,,-1291005709936238080,0.0,127.43785919155926,-0.21497675162489296,19.202909487179582,163,11,0.0,207,41108356384073,9,35.3,-335.5220947265625,0.24560000002384186,0,0.0,0.0,,,,,0,,3,,
Raw,13412589,13416497000000,,,-1291005709936238080,0.0,127.43785919155926,-0.21497675162489296,19.202909487179582,163,9,0.0,207,41108364532196,890,14.9,283.0366516113281,19.5625,0,0.0,0.0,,,,,0,,3,,
Raw,13412589,13416497000000,,,-1291005709936238080,0.0,127.43785919155926,-0.21497675162489296,19.202909487179582,163,7,0.0,207,41108367883857,1403,13.2,-247.7826690673828,7.147000312805176,0,0.0,0.0,,,,,0,,3,,
Raw,13412589,13416497000000,,,-1291005709936238080,0.0,127.43785919155926,-0.21497675162489296,19.202909487179582,163,3,0.0,15,375926352004628,27,24.9,-358.96044921875,0.6345000267028809,0,0.0,0.0,,,,,0,,1,,
Raw,13412590,13416497000000,,,-1291005709936238080,0.0,127.43785919155926,-0.21497675162489296,19.202909487179582,163,10,0.0,15,375926352931199,689,14.9,659.1487426757812,16.8695011138916,0,0.0,0.0,,,,,0,,1,,
Raw,13412590,13416497000000,,,-1291005709936238080,0.0,127.43785919155926,-0.21497675162489296,19.202909487179582,163,16,0.0,15,375926358792257,17,28.9,-553.6689453125,0.48350000381469727,0,0.0,0.0,,,,,0,,1,,
Raw,13412591,13416497000000,,,-1291005709936238080,0.0,127.43785919155926,-0.21497675162489296,19.202909487179582,163,22,0.0,15,375926354149670,7,37.9,-139.24395751953125,0.041600000113248825,0,0.0,0.0,,,,,0,,1,,
Raw,13412591,13416497000000,,,-1291005709936238080,0.0,127.43785919155926,-0.21497675162489296,19.202909487179582,163,32,0.0,15,375926364458678,93,15.5,170.71246337890625,1.2625000476837158,0,0.0,0.0,,,,,0,,1,,
Raw,13412592,13416497000000,,,-1291005709936238080,0.0,127.43785919155926,-0.21497675162489296,19.202909487179582,163,2,0.0,783,375912308264946,23,26.9,6.644567012786865,1.2335000038146973,0,0.0,0.0,,,,,0,,5,,
Raw,13412592,13416497000000,,,-1291005709936238080,0.0,127.43785919155926,-0.21497675162489296,19.202909487179582,163,5,0.0,783,375912300079926,13,31.8,7.028645992279053,0.3334999978542328,0,0.0,0.0,,,,,0,,5,,
Raw,13412592,13416497000000,,,-1291005709936238080,0.0,127.43785919155926,-0.21497675162489296,19.202909487179582,163,7,0.0,15,375912312186506,691,12.6,-13.980475425720215,16.4945011138916,0,0.0,0.0,,,,,0,,5,,
Raw,13412593,13416497000000,,,-1291005709936238080,0.0,127.43785919155926,-0.21497675162489296,19.202909487179582,163,9,0.0,15,375912310992687,1059,15.7,-148.01443481445312,21.431501388549805,0,0.0,0.0,,,,,0,,5,,
Raw,13412593,13416497000000,,,-1291005709936238080,0.0,127.43785919155926,-0.21497675162489296,19.202909487179582,163,10,0.0,15,375912308553429,80,16.8,-78.79380798339844,1.0084999799728394,0,0.0,0.0,,,,,0,,5,,
Raw,13412594,13416497000000,,,-1291005709936238080,0.0,127.43785919155926,-0.21497675162489296,19.202909487179582,163,13,0.0,15,375912296306651,336,10.4,239.2523956298828,9.250500679016113,0,0.0,0.0,,,,,0,,5,,
Raw,13412594,13416497000000,,,-1291005709936238080,0.0,127.43785919155926,-0.21497675162489296,19.202909487179582,163,14,0.0,15,375912345090572,84,16.6,-529.2992553710938,1.8339999914169312,0,0.0,0.0,,,,,0,,5,,
Raw,13412594,13416497000000,,,-1291005709936238080,0.0,127.43785919155926,-0.21497675162489296,19.202909487179582,163,21,0.0,15,375912359077278,127,14.2,141.7251434326172,3.7150001525878906,0,0.0,0.0,,,,,0,,5,,
Raw,13412595,13416497000000,,,-1291005709936238080,0.0,127.43785919155926,-0.21497675162489296,19.202909487179582,163,24,0.0,15,375912344764979,10,34.0,-320.3949279785156,0.02810000069439411,0,0.0,0.0,,,,,0,,5,,
Raw,13412595,13416497000000,,,-1291005709936238080,0.0,127.43785919155926,-0.21497675162489296,19.202909487179582,163,26,0.0,15,375912356987015,70,17.8,-103.68212890625,0.9404999613761902,0,0.0,0.0,,,,,0,,5,,
Raw,13412595,13416497000000,,,-1291005709936238080,0.0,127.43785919155926,-0.21497675162489296,19.202909487179582,163,9,0.0,7183,375926361085629,376,17.4,129.29502868652344,12.192000389099121,0,0.0,0.0,,,,,0,,6,,
Raw,13412596,13416497000000,,,-1291005709936238080,0.0,127.43785919155926,-0.21497675162489296,19.202909487179582,163,24,0.0,7183,375926354016825,46,20.4,102.24478912353516,0.7534999847412109,0,0.0,0.0,,,,,0,,6,,
Raw,13412596,13416497000000,,,-1291005709936238080,0.0,127.43785919155926,-0.21497675162489296,19.202909487179582,163,25,0.0,7183,375926346489978,19,27.8,-288.41448974609375,0.06830000132322311,0,0.0,0.0,,,,,0,,6,,
Fix,gps,22.925489,120.294633,46.846924,0.000000,12.864000,1606983909000
NMEA,$GPGSV,3,2,10,32,63,106,16,25,16,037,,26,66,253,,27,00,000,*7C,1606983908502
NMEA,$GPGSV,3,3,10,29,28,075,,31,48,355,*76,1606983908503
NMEA,$GLGSV,3,1,09,74,34,278,24,75,00,000,35,73,45,347,15,71,64,312,13*62,1606983908503
NMEA,$GLGSV,3,2,09,70,54,171,,82,04,056,,80,14,035,,83,09,099,*68,1606983908504
NMEA,$GLGSV,3,3,09,72,15,330,*5D,1606983908505
NMEA,$GAGSV,2,1,06,09,75,137,17,24,68,316,20,25,30,244,28,04,21,139,*6B,1606983908505
NMEA,$GAGSV,2,2,06,05,48,320,,31,33,030,*67,1606983908507
NMEA,$PQGSV,1,1,03,193,53,160,15,194,65,033,19,195,32,139,14,0,5*62,1606983908507
NMEA,$PQGSV,4,1,16,02,40,240,27,05,00,000,32,07,76,232,13,09,54,338,16,0,4*68,1606983908507
NMEA,$PQGSV,4,2,16,10,49,226,17,13,04,209,10,14,07,320,17,21,64,243,14,0,4*6E,1606983908507
NMEA,$PQGSV,4,3,16,24,07,260,34,26,42,295,18,01,52,129,,03,59,202,,0,4*6F,1606983908508
NMEA,$PQGSV,4,4,16,04,37,115,,06,71,037,,08,00,000,,16,70,028,,0,4*6F,1606983908508
NMEA,$GNGSA,A,3,03,16,22,32,,,,,,,,,1.8,1.5,1.0,1*38,1606983908509
NMEA,$GNGSA,A,2,74,,,,,,,,,,,,1.8,1.5,1.0,2*3C,1606983908509
NMEA,$GNGSA,A,2,25,,,,,,,,,,,,1.8,1.5,1.0,3*39,1606983908509
NMEA,$PQGSA,A,2,24,,,,,,,,,,,,1.8,1.5,1.0,4*37,1606983908509
NMEA,$GNVTG,,T,,M,0.0,N,0.0,K,A*3D,1606983908509
NMEA,$GNRMC,082509.00,A,2255.529338,N,12017.677980,E,0.0,,031220,2.8,W,A*1D,1606983908509
NMEA,$GNGGA,082509.00,2255.529338,N,12017.677980,E,1,07,1.5,29.4,M,17.5,M,,*4F,1606983908510
Fix,gps,22.925490,120.294626,46.911987,0.000000,13.936001,1606983910000
Raw,13413581,13417497000000,,,-1291005709936238080,0.0,128.48543701693416,1.1303347944646847,21.427307405226564,163,10,0.0,207,41109362189597,31,23.7,-147.3296661376953,0.8694999814033508,0,0.0,0.0,,,,,0,,3,,
Raw,13413582,13417497000000,,,-1291005709936238080,0.0,128.48543701693416,1.1303347944646847,21.427307405226564,163,11,0.0,207,41109356385229,10,34.5,-336.98052978515625,0.24610000848770142,0,0.0,0.0,,,,,0,,3,,
Raw,13413582,13417497000000,,,-1291005709936238080,0.0,128.48543701693416,1.1303347944646847,21.427307405226564,163,9,0.0,207,41109364531252,1021,14.9,283.0366516113281,21.062501907348633,0,0.0,0.0,,,,,0,,3,,
Raw,13413583,13417497000000,,,-1291005709936238080,0.0,128.48543701693416,1.1303347944646847,21.427307405226564,163,7,0.0,207,41109367884747,1617,12.0,-248.0161895751953,7.642000198364258,0,0.0,0.0,,,,,0,,3,,
Raw,13413583,13417497000000,,,-1291005709936238080,0.0,128.48543701693416,1.1303347944646847,21.427307405226564,163,3,0.0,15,375927352005755,24,25.1,-360.56988525390625,0.39980000257492065,0,0.0,0.0,,,,,0,,1,,
Raw,13413584,13417497000000,,,-1291005709936238080,0.0,128.48543701693416,1.1303347944646847,21.427307405226564,163,10,0.0,15,375927352929000,802,14.9,659.1487426757812,18.3695011138916,0,0.0,0.0,,,,,0,,1,,
Raw,13413584,13417497000000,,,-1291005709936238080,0.0,128.48543701693416,1.1303347944646847,21.427307405226564,163,16,0.0,15,375927358794128,17,28.6,-555.1030883789062,0.07530000060796738,0,0.0,0.0,,,,,0,,1,,
Raw,13413585,13417497000000,,,-1291005709936238080,0.0,128.48543701693416,1.1303347944646847,21.427307405226564,163,22,0.0,15,375927354150147,7,37.0,-140.68026733398438,0.041600000113248825,0,0.0,0.0,,,,,0,,1,,
Raw,13413585,13417497000000,,,-1291005709936238080,0.0,128.48543701693416,1.1303347944646847,21.427307405226564,163,32,0.0,15,375927364458108,102,15.5,170.71246337890625,2.762500047683716,0,0.0,0.0,,,,,0,,1,,
Raw,13413586,13417497000000,,,-1291005709936238080,0.0,128.48543701693416,1.1303347944646847,21.427307405226564,163,2,0.0,783,375913308264954,19,27.4,6.250885009765625,0.4984999895095825,0,0.0,0.0,,,,,0,,5,,
Raw,13413586,13417497000000,,,-1291005709936238080,0.0,128.48543701693416,1.1303347944646847,21.427307405226564,163,5,0.0,783,375913300079915,12,32.5,2.7461647987365723,0.34849998354911804,0,0.0,0.0,,,,,0,,5,,
Raw,13413586,13417497000000,,,-1291005709936238080,0.0,128.48543701693416,1.1303347944646847,21.427307405226564,163,9,0.0,15,375913310993181,1203,15.7,-148.01443481445312,22.931501388549805,0,0.0,0.0,,,,,0,,5,,
Raw,13413587,13417497000000,,,-1291005709936238080,0.0,128.48543701693416,1.1303347944646847,21.427307405226564,163,10,0.0,15,375913308553692,89,16.8,-78.79380798339844,2.508500099182129,0,0.0,0.0,,,,,0,,5,,
Raw,13413587,13417497000000,,,-1291005709936238080,0.0,128.48543701693416,1.1303347944646847,21.427307405226564,163,14,0.0,15,375913345092338,97,16.6,-529.2992553710938,3.3340001106262207,0,0.0,0.0,,,,,0,,5,,
Raw,13413588,13417497000000,,,-1291005709936238080,0.0,128.48543701693416,1.1303347944646847,21.427307405226564,163,21,0.0,15,375913359076826,84,16.1,140.5056915283203,1.8550000190734863,0,0.0,0.0,,,,,0,,5,,
Raw,13413588,13417497000000,,,-1291005709936238080,0.0,128.48543701693416,1.1303347944646847,21.427307405226564,163,24,0.0,15,375913344766049,11,33.1,-321.921875,0.02890000119805336,0,0.0,0.0,,,,,0,,5,,
Raw,13413589,13417497000000,,,-1291005709936238080,0.0,128.48543701693416,1.1303347944646847,21.427307405226564,163,26,0.0,15,375913356987431,40,21.0,-107.1484375,0.750499963760376,0,0.0,0.0,,,,,0,,5,,
Raw,13413589,13417497000000,,,-1291005709936238080,0.0,128.48543701693416,1.1303347944646847,21.427307405226564,163,9,0.0,7183,375927361085197,459,17.4,129.29502868652344,13.692000389099121,0,0.0,0.0,,,,,0,,6,,
Raw,13413589,13417497000000,,,-1291005709936238080,0.0,128.48543701693416,1.1303347944646847,21.427307405226564,163,24,0.0,7183,375927354016486,40,21.1,100.83661651611328,0.6934999823570251,0,0.0,0.0,,,,,0,,6,,
Raw,13413590,13417497000000,,,-1291005709936238080,0.0,128.48543701693416,1.1303347944646847,21.427307405226564,163,25,0.0,7183,375927346490918,21,26.4,-289.8900451660156,0.15320000052452087,0,0.0,0.0,,,,,0,,6,,
NMEA,$GPGSV,3,1,10,03,11,312,25,10,14,175,15,16,32,224,29,22,23,291,37*7B,1606983909501
NMEA,$GPGSV,3,2,10,32,63,106,16,25,16,037,,26,66,253,,27,00,000,*7C,1606983909501
NMEA,$GPGSV,3,3,10,29,28,075,,31,48,355,*76,1606983909501
NMEA,$GLGSV,3,1,09,74,34,278,24,75,00,000,35,73,45,347,15,71,64,312,12*63,1606983909501
NMEA,$GLGSV,3,2,09,70,54,171,,82,04,056,,80,14,035,,83,09,099,*68,1606983909501
NMEA,$GLGSV,3,3,09,72,15,330,*5D,1606983909502
NMEA,$GAGSV,2,1,06,09,75,137,17,24,68,316,21,25,30,244,26,04,21,139,*64,1606983909502
NMEA,$GAGSV,2,2,06,05,48,320,,31,33,030,*67,1606983909502
NMEA,$PQGSV,1,1,03,193,53,160,18,194,65,033,19,195,32,139,14,0,5*6F,1606983909502
NMEA,$PQGSV,4,1,16,02,40,240,27,05,00,000,33,09,54,338,16,10,49,226,17,0,4*62,1606983909502
NMEA,$PQGSV,4,2,16,14,07,320,17,21,64,243,16,24,07,260,33,26,42,295,21,0,4*66,1606983909503
NMEA,$PQGSV,4,3,16,01,52,129,,03,59,202,,04,37,115,,06,71,037,,0,4*69,1606983909503
NMEA,$PQGSV,4,4,16,07,76,232,,08,00,000,,13,04,209,,16,70,028,,0,4*66,1606983909505
NMEA,$GNGSA,A,3,03,16,22,32,,,,,,,,,1.8,1.5,1.0,1*38,1606983909506
NMEA,$GNGSA,A,2,74,,,,,,,,,,,,1.8,1.5,1.0,2*3C,1606983909506
NMEA,$GNGSA,A,2,25,,,,,,,,,,,,1.8,1.5,1.0,3*39,1606983909507
NMEA,$PQGSA,A,2,24,,,,,,,,,,,,1.8,1.5,1.0,4*37,1606983909507
NMEA,$GNVTG,,T,,M,0.0,N,0.0,K,A*3D,1606983909507
NMEA,$GNRMC,082510.00,A,2255.529372,N,12017.677567,E,0.0,,031220,2.8,W,A*1E,1606983909507
NMEA,$GNGGA,082510.00,2255.529372,N,12017.677567,E,1,07,1.5,29.4,M,17.5,M,,*4C,1606983909507
Raw,13414691,13418497000000,,,-1291005709936238080,0.0,133.85809143073857,-3.2502582320149567,20.489571932445365,163,10,0.0,207,41110362190069,35,22.9,-146.5042266845703,0.9294999837875366,0,0.0,0.0,,,,,0,,3,,
Raw,13414694,13418497000000,,,-1291005709936238080,0.0,133.85809143073857,-3.2502582320149567,20.489571932445365,163,11,0.0,207,41110356386363,10,34.9,-337.0584411621094,0.24610000848770142,0,0.0,0.0,,,,,0,,3,,
Raw,13414701,13418497000000,,,-1291005709936238080,0.0,133.85809143073857,-3.2502582320149567,20.489571932445365,163,9,0.0,207,41110364530308,1161,14.9,283.0366516113281,22.562501907348633,0,0.0,0.0,,,,,0,,3,,
Raw,13414704,13418497000000,,,-1291005709936238080,0.0,133.85809143073857,-3.2502582320149567,20.489571932445365,163,7,0.0,207,41110367885575,1667,12.0,-248.0161895751953,9.142000198364258,0,0.0,0.0,,,,,0,,3,,
Raw,13414707,13418497000000,,,-1291005709936238080,0.0,133.85809143073857,-3.2502582320149567,20.489571932445365,163,3,0.0,15,375928352007016,21,26.9,-360.7214660644531,0.12919999659061432,0,0.0,0.0,,,,,0,,1,,
Raw,13414709,13418497000000,,,-1291005709936238080,0.0,133.85809143073857,-3.2502582320149567,20.489571932445365,163,10,0.0,15,375928352926801,925,14.9,659.1487426757812,19.8695011138916,0,0.0,0.0,,,,,0,,1,,
Raw,13414713,13418497000000,,,-1291005709936238080,0.0,133.85809143073857,-3.2502582320149567,20.489571932445365,163,16,0.0,15,375928358795971,19,27.9,-555.1758422851562,0.06830000132322311,0,0.0,0.0,,,,,0,,1,,
Raw,13414716,13418497000000,,,-1291005709936238080,0.0,133.85809143073857,-3.2502582320149567,20.489571932445365,163,22,0.0,15,375928354150621,6,38.1,-140.720947265625,0.04110000282526016,0,0.0,0.0,,,,,0,,1,,
Raw,13414719,13418497000000,,,-1291005709936238080,0.0,133.85809143073857,-3.2502582320149567,20.489571932445365,163,32,0.0,15,375928364457632,110,14.0,169.75146484375,2.2325000762939453,0,0.0,0.0,,,,,0,,1,,
Raw,13414723,13418497000000,,,-1291005709936238080,0.0,133.85809143073857,-3.2502582320149567,20.489571932445365,163,2,0.0,783,375914308264933,26,27.4,6.250885009765625,1.998500108718872,0,0.0,0.0,,,,,0,,5,,
Raw,13414724,13418497000000,,,-1291005709936238080,0.0,133.85809143073857,-3.2502582320149567,20.489571932445365,163,5,0.0,783,375914300079901,12,32.6,4.589743614196777,0.3334999978542328,0,0.0,0.0,,,,,0,,5,,
Raw,13414725,13418497000000,,,-1291005709936238080,0.0,133.85809143073857,-3.2502582320149567,20.489571932445365,163,9,0.0,15,375914310993675,1357,15.7,-148.01443481445312,24.431501388549805,0,0.0,0.0,,,,,0,,5,,
Raw,13414725,13418497000000,,,-1291005709936238080,0.0,133.85809143073857,-3.2502582320149567,20.489571932445365,163,10,0.0,15,375914308553955,107,16.8,-78.79380798339844,4.008500099182129,0,0.0,0.0,,,,,0,,5,,
Raw,13414726,13418497000000,,,-1291005709936238080,0.0,133.85809143073857,-3.2502582320149567,20.489571932445365,163,14,0.0,15,375914345094072,83,16.9,-530.1730346679688,1.7540000677108765,0,0.0,0.0,,,,,0,,5,,
Raw,13414726,13418497000000,,,-1291005709936238080,0.0,133.85809143073857,-3.2502582320149567,20.489571932445365,163,21,0.0,15,375914359076300,61,18.4,138.57569885253906,0.9449999928474426,0,0.0,0.0,,,,,0,,5,,
Raw,13414727,13418497000000,,,-1291005709936238080,0.0,133.85809143073857,-3.2502582320149567,20.489571932445365,163,24,0.0,15,375914344767125,11,33.3,-322.00982666015625,0.02890000119805336,0,0.0,0.0,,,,,0,,5,,
Raw,13414728,13418497000000,,,-1291005709936238080,0.0,133.85809143073857,-3.2502582320149567,20.489571932445365,163,26,0.0,15,375914356987759,46,20.0,-107.62853240966797,0.8104999661445618,0,0.0,0.0,,,,,0,,5,,
Raw,13414728,13418497000000,,,-1291005709936238080,0.0,133.85809143073857,-3.2502582320149567,20.489571932445365,163,9,0.0,7183,375928361084766,553,17.4,129.29502868652344,15.192000389099121,0,0.0,0.0,,,,,0,,6,,
Raw,13414729,13418497000000,,,-1291005709936238080,0.0,133.85809143073857,-3.2502582320149567,20.489571932445365,163,24,0.0,7183,375928354016163,46,20.0,101.06497192382812,0.7534999847412109,0,0.0,0.0,,,,,0,,6,,
Raw,13414730,13418497000000,,,-1291005709936238080,0.0,133.85809143073857,-3.2502582320149567,20.489571932445365,163,25,0.0,7183,375928346491892,19,27.5,-289.0137939453125,0.06830000132322311,0,0.0,0.0,,,,,0,,6,,
Fix,gps,22.925490,120.294617,47.400085,0.000000,12.864000,1606983911000
NMEA,$GPGSV,3,1,10,03,11,312,27,10,14,175,15,16,32,224,28,22,23,291,38*77,1606983910515
NMEA,$GPGSV,3,2,10,32,63,106,14,25,16,037,,26,66,253,,27,00,000,*7E,1606983910523
NMEA,$GPGSV,3,3,10,29,28,075,,31,48,355,*76,1606983910525
NMEA,$GLGSV,3,1,09,74,34,278,23,75,00,000,35,73,45,347,15,71,64,312,12*64,1606983910527
NMEA,$GLGSV,3,2,09,70,54,171,,82,04,056,,80,14,035,,83,09,099,*68,1606983910527
NMEA,$GLGSV,3,3,09,72,15,330,*5D,1606983910527
NMEA,$GAGSV,2,1,06,09,75,137,17,24,68,316,20,25,30,244,28,04,21,139,*6B,1606983910528
NMEA,$GAGSV,2,2,06,05,48,320,,31,33,030,*67,1606983910528
NMEA,$PQGSV,1,1,03,193,53,160,18,194,65,033,17,195,32,139,14,0,5*61,1606983910528
NMEA,$PQGSV,4,1,16,02,40,240,27,05,00,000,33,09,54,338,16,10,49,226,17,0,4*62,1606983910528
NMEA,$PQGSV,4,2,16,14,07,320,17,21,64,243,18,24,07,260,33,26,42,295,20,0,4*69,1606983910528
NMEA,$PQGSV,4,3,16,01,52,129,,03,59,202,,04,37,115,,06,71,037,,0,4*69,1606983910528
NMEA,$PQGSV,4,4,16,07,76,232,,08,00,000,,13,04,209,,16,70,028,,0,4*66,1606983910529
NMEA,$GNGSA,A,3,03,16,22,32,,,,,,,,,1.8,1.5,1.0,1*38,1606983910529
NMEA,$GNGSA,A,2,74,,,,,,,,,,,,1.8,1.5,1.0,2*3C,1606983910530
NMEA,$GNGSA,A,2,25,,,,,,,,,,,,1.8,1.5,1.0,3*39,1606983910530
NMEA,$PQGSA,A,2,24,,,,,,,,,,,,1.8,1.5,1.0,4*37,1606983910530
NMEA,$GNVTG,,T,,M,0.0,N,0.0,K,A*3D,1606983910530
NMEA,$GNRMC,082511.00,A,2255.529425,N,12017.677003,E,0.0,,031220,2.8,W,A*1D,1606983910531
NMEA,$GNGGA,082511.00,2255.529425,N,12017.677003,E,1,07,1.5,29.9,M,17.5,M,,*42,1606983910531
Fix,gps,22.925492,120.294617,46.290466,0.000000,13.936001,1606983912000
Raw,13415600,13419497000000,,,-1291005709936238080,0.0,125.9338459931314,-3.240257004945607,18.965566489221075,163,10,0.0,207,41111362190481,35,22.9,-145.43492126464844,0.9294999837875366,0,0.0,0.0,,,,,0,,3,,
Raw,13415601,13419497000000,,,-1291005709936238080,0.0,125.9338459931314,-3.240257004945607,18.965566489221075,163,11,0.0,207,41111356387457,10,34.8,-335.6766662597656,0.24610000848770142,0,0.0,0.0,,,,,0,,3,,
Raw,13415601,13419497000000,,,-1291005709936238080,0.0,125.9338459931314,-3.240257004945607,18.965566489221075,163,9,0.0,207,41111364529364,1311,14.9,283.0366516113281,24.062501907348633,0,0.0,0.0,,,,,0,,3,,
Raw,13415602,13419497000000,,,-1291005709936238080,0.0,125.9338459931314,-3.240257004945607,18.965566489221075,163,7,0.0,207,41111367886402,1727,12.0,-248.0161895751953,10.642000198364258,0,0.0,0.0,,,,,0,,3,,
Raw,13415603,13419497000000,,,-1291005709936238080,0.0,125.9338459931314,-3.240257004945607,18.965566489221075,163,3,0.0,15,375929352008257,21,26.9,-359.8291320800781,0.12919999659061432,0,0.0,0.0,,,,,0,,1,,
Raw,13415603,13419497000000,,,-1291005709936238080,0.0,125.9338459931314,-3.240257004945607,18.965566489221075,163,10,0.0,15,375929352924603,1058,14.9,659.1487426757812,21.3695011138916,0,0.0,0.0,,,,,0,,1,,
Raw,13415604,13419497000000,,,-1291005709936238080,0.0,125.9338459931314,-3.240257004945607,18.965566489221075,163,16,0.0,15,375929358797845,21,26.3,-554.0009765625,0.13819999992847443,0,0.0,0.0,,,,,0,,1,,
Raw,13415604,13419497000000,,,-1291005709936238080,0.0,125.9338459931314,-3.240257004945607,18.965566489221075,163,22,0.0,15,375929354151078,7,37.2,-139.30169677734375,0.041600000113248825,0,0.0,0.0,,,,,0,,1,,
Raw,13415605,13419497000000,,,-1291005709936238080,0.0,125.9338459931314,-3.240257004945607,18.965566489221075,163,32,0.0,15,375929364457065,125,14.0,169.75146484375,3.7325000762939453,0,0.0,0.0,,,,,0,,1,,
Raw,13415605,13419497000000,,,-1291005709936238080,0.0,125.9338459931314,-3.240257004945607,18.965566489221075,163,2,0.0,783,375915308264920,21,27.3,-1.8051713705062866,1.2335000038146973,0,0.0,0.0,,,,,0,,5,,
Raw,13415606,13419497000000,,,-1291005709936238080,0.0,125.9338459931314,-3.240257004945607,18.965566489221075,163,5,0.0,783,375915300079877,12,32.3,4.906609058380127,0.3334999978542328,0,0.0,0.0,,,,,0,,5,,
Raw,13415607,13419497000000,,,-1291005709936238080,0.0,125.9338459931314,-3.240257004945607,18.965566489221075,163,9,0.0,15,375915310994168,1521,15.7,-148.01443481445312,25.931501388549805,0,0.0,0.0,,,,,0,,5,,
Raw,13415607,13419497000000,,,-1291005709936238080,0.0,125.9338459931314,-3.240257004945607,18.965566489221075,163,10,0.0,15,375915308554155,102,15.3,-80.32051849365234,2.678499937057495,0,0.0,0.0,,,,,0,,5,,
Raw,13415608,13419497000000,,,-1291005709936238080,0.0,125.9338459931314,-3.240257004945607,18.965566489221075,163,14,0.0,15,375915345095841,97,16.9,-530.1730346679688,3.254000186920166,0,0.0,0.0,,,,,0,,5,,
Raw,13415609,13419497000000,,,-1291005709936238080,0.0,125.9338459931314,-3.240257004945607,18.965566489221075,163,21,0.0,15,375915359075857,70,17.6,141.19703674316406,1.024999976158142,0,0.0,0.0,,,,,0,,5,,
Raw,13415609,13419497000000,,,-1291005709936238080,0.0,125.9338459931314,-3.240257004945607,18.965566489221075,163,24,0.0,15,375915344768205,11,33.6,-320.6533508300781,0.02890000119805336,0,0.0,0.0,,,,,0,,5,,
Raw,13415610,13419497000000,,,-1291005709936238080,0.0,125.9338459931314,-3.240257004945607,18.965566489221075,163,26,0.0,15,375915356988157,46,20.6,-106.58191680908203,0.8104999661445618,0,0.0,0.0,,,,,0,,5,,
Raw,13415611,13419497000000,,,-1291005709936238080,0.0,125.9338459931314,-3.240257004945607,18.965566489221075,163,9,0.0,7183,375929361084335,656,17.4,129.29502868652344,16.692001342773438,0,0.0,0.0,,,,,0,,6,,
Raw,13415611,13419497000000,,,-1291005709936238080,0.0,125.9338459931314,-3.240257004945607,18.965566489221075,163,24,0.0,7183,375929354015826,54,20.0,101.06497192382812,2.253499984741211,0,0.0,0.0,,,,,0,,6,,
Raw,13415612,13419497000000,,,-1291005709936238080,0.0,125.9338459931314,-3.240257004945607,18.965566489221075,163,25,0.0,7183,375929346492858,17,28.2,-288.2187805175781,0.41350001096725464,0,0.0,0.0,,,,,0,,6,,
NMEA,$GPGSV,3,1,10,03,11,312,27,10,14,175,15,16,32,224,26,22,23,291,37*76,1606983911503
NMEA,$GPGSV,3,2,10,32,63,106,14,25,16,037,,26,66,253,,27,00,000,*7E,1606983911503
NMEA,$GPGSV,3,3,10,29,28,075,,31,48,355,*76,1606983911504
NMEA,$GLGSV,3,1,09,74,34,278,23,75,00,000,35,73,45,347,15,71,64,312,12*64,1606983911504
NMEA,$GLGSV,3,2,09,70,54,171,,82,04,056,,80,14,035,,83,09,099,*68,1606983911504
NMEA,$GLGSV,3,3,09,72,15,330,*5D,1606983911504
NMEA,$GAGSV,2,1,06,09,75,137,17,24,68,316,20,25,30,244,28,04,21,139,*6B,1606983911504
NMEA,$GAGSV,2,2,06,05,48,320,,31,33,030,*67,1606983911504
NMEA,$PQGSV,1,1,03,193,53,160,18,194,65,033,17,195,32,139,14,0,5*61,1606983911504
NMEA,$PQGSV,4,1,16,02,40,240,27,05,00,000,32,09,54,338,16,10,49,226,15,0,4*61,1606983911504
NMEA,$PQGSV,4,2,16,14,07,320,17,21,64,243,18,24,07,260,34,26,42,295,21,0,4*6F,1606983911505
NMEA,$PQGSV,4,3,16,01,52,129,,03,59,202,,04,37,115,,06,71,037,,0,4*69,1606983911505
NMEA,$PQGSV,4,4,16,07,76,232,,08,00,000,,13,04,209,,16,70,028,,0,4*66,1606983911505
NMEA,$GNGSA,A,3,03,16,22,32,,,,,,,,,4.6,4.5,1.0,1*36,1606983911505
NMEA,$GNGSA,A,2,74,,,,,,,,,,,,4.6,4.5,1.0,2*32,1606983911506
NMEA,$GNGSA,A,2,25,,,,,,,,,,,,4.6,4.5,1.0,3*37,1606983911506
NMEA,$PQGSA,A,2,24,,,,,,,,,,,,4.6,4.5,1.0,4*39,1606983911506
NMEA,$GNVTG,,T,,M,0.0,N,0.0,K,A*3D,1606983911506
NMEA,$GNRMC,082512.00,A,2255.529492,N,12017.677017,E,0.0,,031220,2.8,W,A*17,1606983911506
NMEA,$GNGGA,082512.00,2255.529492,N,12017.677017,E,1,07,4.5,28.8,M,17.5,M,,*4D,1606983911506
NMEA,$GPGSV,3,1,10,03,11,312,26,10,14,175,15,16,32,224,29,22,23,291,36*79,1606983912502
Raw,13416582,13420497000000,,,-1291005709936238336,0.0,130.68306725472212,-1.7803311491107632,18.128118851229313,163,10,0.0,207,41112362191072,46,20.7,-145.03160095214844,1.0494999885559082,0,0.0,0.0,,,,,0,,3,,
Raw,13416583,13420497000000,,,-1291005709936238336,0.0,130.68306725472212,-1.7803311491107632,18.128118851229313,163,11,0.0,207,41112356388593,10,34.8,-335.07080078125,0.24610000848770142,0,0.0,0.0,,,,,0,,3,,
Raw,13416583,13420497000000,,,-1291005709936238336,0.0,130.68306725472212,-1.7803311491107632,18.128118851229313,163,9,0.0,207,41112364528420,1472,14.9,283.0366516113281,25.562501907348633,0,0.0,0.0,,,,,0,,3,,
Raw,13416583,13420497000000,,,-1291005709936238336,0.0,130.68306725472212,-1.7803311491107632,18.128118851229313,163,7,0.0,207,41112367887229,1797,12.0,-248.0161895751953,12.142000198364258,0,0.0,0.0,,,,,0,,3,,
Raw,13416584,13420497000000,,,-1291005709936238336,0.0,130.68306725472212,-1.7803311491107632,18.128118851229313,163,3,0.0,15,375930352009477,21,26.3,-359.6761779785156,0.12919999659061432,0,0.0,0.0,,,,,0,,1,,
Raw,13416584,13420497000000,,,-1291005709936238336,0.0,130.68306725472212,-1.7803311491107632,18.128118851229313,163,10,0.0,15,375930352922404,1201,14.9,659.1487426757812,22.8695011138916,0,0.0,0.0,,,,,0,,1,,
Raw,13416585,13420497000000,,,-1291005709936238336,0.0,130.68306725472212,-1.7803311491107632,18.128118851229313,163,16,0.0,15,375930358799657,17,28.7,-553.1256713867188,0.06030000001192093,0,0.0,0.0,,,,,0,,1,,
Raw,13416585,13420497000000,,,-1291005709936238336,0.0,130.68306725472212,-1.7803311491107632,18.128118851229313,163,22,0.0,15,375930354151542,8,36.1,-138.66250610351562,0.0422000028192997,0,0.0,0.0,,,,,0,,1,,
Raw,13416585,13420497000000,,,-1291005709936238336,0.0,130.68306725472212,-1.7803311491107632,18.128118851229313,163,32,0.0,15,375930364456466,64,18.0,171.84469604492188,1.8324999809265137,0,0.0,0.0,,,,,0,,1,,
Raw,13416586,13420497000000,,,-1291005709936238336,0.0,130.68306725472212,-1.7803311491107632,18.128118851229313,163,2,0.0,783,375916308264904,19,27.5,6.222079753875732,0.48350000381469727,0,0.0,0.0,,,,,0,,5,,
Raw,13416586,13420497000000,,,-1291005709936238336,0.0,130.68306725472212,-1.7803311491107632,18.128118851229313,163,5,0.0,783,375916300079877,13,31.8,6.6349639892578125,0.3334999978542328,0,0.0,0.0,,,,,0,,5,,
Raw,13416587,13420497000000,,,-1291005709936238336,0.0,130.68306725472212,-1.7803311491107632,18.128118851229313,163,9,0.0,15,375916310994662,1696,15.7,-148.01443481445312,27.431501388549805,0,0.0,0.0,,,,,0,,5,,
Raw,13416587,13420497000000,,,-1291005709936238336,0.0,130.68306725472212,-1.7803311491107632,18.128118851229313,163,10,0.0,15,375916308554478,70,17.8,-76.51813507080078,0.9284999966621399,0,0.0,0.0,,,,,0,,5,,
Raw,13416587,13420497000000,,,-1291005709936238336,0.0,130.68306725472212,-1.7803311491107632,18.128118851229313,163,14,0.0,15,375916345097634,84,16.0,-529.481689453125,1.8339999914169312,0,0.0,0.0,,,,,0,,5,,
Raw,13416588,13420497000000,,,-1291005709936238336,0.0,130.68306725472212,-1.7803311491107632,18.128118851229313,163,21,0.0,15,375916359075386,79,17.6,141.19703674316406,2.5250000953674316,0,0.0,0.0,,,,,0,,5,,
Raw,13416588,13420497000000,,,-1291005709936238336,0.0,130.68306725472212,-1.7803311491107632,18.128118851229313,163,24,0.0,15,375916344769261,10,34.6,-320.1490173339844,0.27250000834465027,0,0.0,0.0,,,,,0,,5,,
Raw,13416589,13420497000000,,,-1291005709936238336,0.0,130.68306725472212,-1.7803311491107632,18.128118851229313,163,26,0.0,15,375916356988545,46,20.1,-104.28704071044922,0.8104999661445618,0,0.0,0.0,,,,,0,,5,,
Raw,13416589,13420497000000,,,-1291005709936238336,0.0,130.68306725472212,-1.7803311491107632,18.128118851229313,163,9,0.0,7183,375930361084026,288,12.6,127.52530670166016,8.881999969482422,0,0.0,0.0,,,,,0,,6,,
Raw,13416589,13420497000000,,,-1291005709936238336,0.0,130.68306725472212,-1.7803311491107632,18.128118851229313,163,24,0.0,7183,375930354015458,64,18.8,102.73004150390625,1.6234999895095825,0,0.0,0.0,,,,,0,,6,,
Raw,13416590,13420497000000,,,-1291005709936238336,0.0,130.68306725472212,-1.7803311491107632,18.128118851229313,163,25,0.0,7183,375930346493821,17,28.9,-287.83819580078125,0.41350001096725464,0,0.0,0.0,,,,,0,,6,,
Fix,gps,22.925495,120.294624,45.131409,0.000000,13.936001,1606983913000
NMEA,$GPGSV,3,2,10,32,63,106,18,25,16,037,,26,66,253,,27,00,000,*72,1606983912502
NMEA,$GPGSV,3,3,10,29,28,075,,31,48,355,*76,1606983912504
NMEA,$GLGSV,3,1,09,74,34,278,21,75,00,000,35,73,45,347,15,71,64,312,12*66,1606983912505
NMEA,$GLGSV,3,2,09,70,54,171,,82,04,056,,80,14,035,,83,09,099,*68,1606983912506
NMEA,$GLGSV,3,3,09,72,15,330,*5D,1606983912506
NMEA,$GAGSV,2,1,06,09,75,137,13,24,68,316,19,25,30,244,29,04,21,139,*64,1606983912507
NMEA,$GAGSV,2,2,06,05,48,320,,31,33,030,*67,1606983912507
NMEA,$PQGSV,1,1,03,193,53,160,18,194,65,033,17,195,32,139,14,0,5*61,1606983912508
NMEA,$PQGSV,4,1,16,02,40,240,28,05,00,000,32,09,54,338,16,10,49,226,18,0,4*63,1606983912508
NMEA,$PQGSV,4,2,16,14,07,320,16,21,64,243,18,24,07,260,35,26,42,295,20,0,4*6E,1606983912508
NMEA,$PQGSV,4,3,16,01,52,129,,03,59,202,,04,37,115,,06,71,037,,0,4*69,1606983912509
NMEA,$PQGSV,4,4,16,07,76,232,,08,00,000,,13,04,209,,16,70,028,,0,4*66,1606983912509
NMEA,$GNGSA,A,2,03,16,22,,,,,,,,,,4.6,4.5,1.0,1*36,1606983912510
NMEA,$GNGSA,A,2,74,,,,,,,,,,,,4.6,4.5,1.0,2*32,1606983912511
NMEA,$GNGSA,A,2,25,,,,,,,,,,,,4.6,4.5,1.0,3*37,1606983912511
NMEA,$PQGSA,A,2,24,,,,,,,,,,,,4.6,4.5,1.0,4*39,1606983912511
NMEA,$GNVTG,,T,,M,0.0,N,0.0,K,A*3D,1606983912514
NMEA,$GNRMC,082513.00,A,2255.529696,N,12017.677428,E,0.0,,031220,2.8,W,A*18,1606983912515
NMEA,$GNGGA,082513.00,2255.529696,N,12017.677428,E,1,06,4.5,27.7,M,17.5,M,,*43,1606983912516
Fix,gps,22.925497,120.294623,45.753723,0.000000,13.936001,1606983914000
NMEA,$GPGSV,3,1,10,03,11,312,24,10,14,175,13,16,32,224,29,22,23,291,36*7D,1606983913503
Raw,13417685,13421497000000,,,-1291005709936238336,0.0,131.0736552113667,-1.8563148668612282,18.277459480932574,163,10,0.0,207,41113362191381,40,21.3,-144.00918579101562,0.9894999861717224,0,0.0,0.0,,,,,0,,3,,
Raw,13417686,13421497000000,,,-1291005709936238336,0.0,131.0736552113667,-1.8563148668612282,18.277459480932574,163,11,0.0,207,41113356389730,10,34.8,-334.3587646484375,0.24610000848770142,0,0.0,0.0,,,,,0,,3,,
Raw,13417687,13421497000000,,,-1291005709936238336,0.0,131.0736552113667,-1.8563148668612282,18.277459480932574,163,9,0.0,207,41113364527857,111,15.3,283.6265563964844,3.7125000953674316,0,0.0,0.0,,,,,0,,3,,
Raw,13417687,13421497000000,,,-1291005709936238336,0.0,131.0736552113667,-1.8563148668612282,18.277459480932574,163,7,0.0,207,41113367888057,1877,12.0,-248.0161895751953,13.642000198364258,0,0.0,0.0,,,,,0,,3,,
Raw,13417688,13421497000000,,,-1291005709936238336,0.0,131.0736552113667,-1.8563148668612282,18.277459480932574,163,3,0.0,15,375931352010595,27,24.4,-357.8186950683594,0.684499979019165,0,0.0,0.0,,,,,0,,1,,
Raw,13417689,13421497000000,,,-1291005709936238336,0.0,131.0736552113667,-1.8563148668612282,18.277459480932574,163,10,0.0,15,375931352920213,260,12.6,656.5607299804688,8.214500427246094,0,0.0,0.0,,,,,0,,1,,
Raw,13417689,13421497000000,,,-1291005709936238336,0.0,131.0736552113667,-1.8563148668612282,18.277459480932574,163,16,0.0,15,375931358801522,17,28.7,-552.4025268554688,0.06030000001192093,0,0.0,0.0,,,,,0,,1,,
Raw,13417690,13421497000000,,,-1291005709936238336,0.0,131.0736552113667,-1.8563148668612282,18.277459480932574,163,22,0.0,15,375931354152004,8,36.4,-137.92137145996094,0.0422000028192997,0,0.0,0.0,,,,,0,,1,,
Raw,13417690,13421497000000,,,-1291005709936238336,0.0,131.0736552113667,-1.8563148668612282,18.277459480932574,163,32,0.0,15,375931364455774,46,20.4,172.10159301757812,0.92249995470047,0,0.0,0.0,,,,,0,,1,,
Raw,13417691,13421497000000,,,-1291005709936238336,0.0,131.0736552113667,-1.8563148668612282,18.277459480932574,163,2,0.0,783,375917308264883,26,27.5,6.222079753875732,1.9835001230239868,0,0.0,0.0,,,,,0,,5,,
Raw,13417692,13421497000000,,,-1291005709936238336,0.0,131.0736552113667,-1.8563148668612282,18.277459480932574,163,5,0.0,783,375917300079852,12,32.2,6.721382141113281,0.3334999978542328,0,0.0,0.0,,,,,0,,5,,
Raw,13417692,13421497000000,,,-1291005709936238336,0.0,131.0736552113667,-1.8563148668612282,18.277459480932574,163,9,0.0,15,375917310995156,1880,15.7,-148.01443481445312,28.931501388549805,0,0.0,0.0,,,,,0,,5,,
Raw,13417693,13421497000000,,,-1291005709936238336,0.0,131.0736552113667,-1.8563148668612282,18.277459480932574,163,10,0.0,15,375917308554671,70,17.7,-78.3041000366211,1.0084999799728394,0,0.0,0.0,,,,,0,,5,,
Raw,13417694,13421497000000,,,-1291005709936238336,0.0,131.0736552113667,-1.8563148668612282,18.277459480932574,163,14,0.0,15,375917345099401,97,16.0,-529.481689453125,3.3340001106262207,0,0.0,0.0,,,,,0,,5,,
Raw,13417694,13421497000000,,,-1291005709936238336,0.0,131.0736552113667,-1.8563148668612282,18.277459480932574,163,21,0.0,15,375917359074915,97,17.6,141.19703674316406,4.025000095367432,0,0.0,0.0,,,,,0,,5,,
Raw,13417695,13421497000000,,,-1291005709936238336,0.0,131.0736552113667,-1.8563148668612282,18.277459480932574,163,24,0.0,15,375917344770322,10,34.8,-319.4113464355469,0.02810000069439411,0,0.0,0.0,,,,,0,,5,,
Raw,13417695,13421497000000,,,-1291005709936238336,0.0,131.0736552113667,-1.8563148668612282,18.277459480932574,163,26,0.0,15,375917356988892,53,19.4,-104.57510375976562,0.8704999685287476,0,0.0,0.0,,,,,0,,5,,
Raw,13417696,13421497000000,,,-1291005709936238336,0.0,131.0736552113667,-1.8563148668612282,18.277459480932574,163,9,0.0,7183,375931361083705,61,18.5,127.48724365234375,0.871999979019165,0,0.0,0.0,,,,,0,,6,,
Raw,13417697,13421497000000,,,-1291005709936238336,0.0,131.0736552113667,-1.8563148668612282,18.277459480932574,163,24,0.0,7183,375931354015130,53,19.2,103.56732940673828,0.8134999871253967,0,0.0,0.0,,,,,0,,6,,
Raw,13417697,13421497000000,,,-1291005709936238336,0.0,131.0736552113667,-1.8563148668612282,18.277459480932574,163,25,0.0,7183,375931346494779,16,29.5,-287.581298828125,0.3935000002384186,0,0.0,0.0,,,,,0,,6,,
NMEA,$GPGSV,3,2,10,32,63,106,20,25,16,037,,26,66,253,,27,00,000,*79,1606983913503
NMEA,$GPGSV,3,3,10,29,28,075,,31,48,355,*76,1606983913504
NMEA,$GLGSV,3,1,09,74,34,278,21,75,00,000,35,73,45,347,15,71,64,312,12*66,1606983913504
NMEA,$GLGSV,3,2,09,70,54,171,,82,04,056,,80,14,035,,83,09,099,*68,1606983913504
NMEA,$GLGSV,3,3,09,72,15,330,*5D,1606983913506
NMEA,$GAGSV,2,1,06,09,75,137,19,24,68,316,19,25,30,244,30,04,21,139,*66,1606983913507
NMEA,$GAGSV,2,2,06,05,48,320,,31,33,030,*67,1606983913507
NMEA,$PQGSV,1,1,03,193,53,160,18,194,65,033,20,195,32,139,14,0,5*65,1606983913508
NMEA,$PQGSV,4,1,16,02,40,240,28,05,00,000,32,09,54,338,16,10,49,226,18,0,4*63,1606983913508
NMEA,$PQGSV,4,2,16,14,07,320,16,21,64,243,18,24,07,260,35,26,42,295,19,0,4*64,1606983913508
NMEA,$PQGSV,4,3,16,01,52,129,,03,59,202,,04,37,115,,06,71,037,,0,4*69,1606983913508
NMEA,$PQGSV,4,4,16,07,76,232,,08,00,000,,13,04,209,,16,70,028,,0,4*66,1606983913509
NMEA,$GNGSA,A,2,03,16,22,,,,,,,,,,1.8,1.5,1.0,1*38,1606983913511
NMEA,$GNGSA,A,2,74,,,,,,,,,,,,1.8,1.5,1.0,2*3C,1606983913511
NMEA,$GNGSA,A,2,25,,,,,,,,,,,,1.8,1.5,1.0,3*39,1606983913512
NMEA,$PQGSA,A,2,24,,,,,,,,,,,,1.8,1.5,1.0,4*37,1606983913512
NMEA,$GNVTG,,T,,M,0.0,N,0.0,K,A*3D,1606983913512
NMEA,$GNRMC,082514.00,A,2255.529792,N,12017.677383,E,0.0,,031220,2.8,W,A*1C,1606983913512
NMEA,$GNGGA,082514.00,2255.529792,N,12017.677383,E,1,06,1.5,28.3,M,17.5,M,,*49,1606983913512
Fix,gps,22.925499,120.294631,44.730347,0.860000,12.864000,1606983915000
Raw,13418620,13422497000000,,,-1291005709936238080,0.0,128.0091528315097,0.9935141391247351,17.765821651959854,163,10,0.0,207,41114362192150,40,21.9,-143.33383178710938,0.9894999861717224,0,0.0,0.0,,,,,0,,3,,
Raw,13418623,13422497000000,,,-1291005709936238080,0.0,128.0091528315097,0.9935141391247351,17.765821651959854,163,11,0.0,207,41114356390825,9,35.6,-334.41851806640625,0.24560000002384186,0,0.0,0.0,,,,,0,,3,,
Raw,13418624,13422497000000,,,-1291005709936238080,0.0,128.0091528315097,0.9935141391247351,17.765821651959854,163,9,0.0,207,41114364526911,136,15.3,283.6265563964844,5.212500095367432,0,0.0,0.0,,,,,0,,3,,
Raw,13418626,13422497000000,,,-1291005709936238080,0.0,128.0091528315097,0.9935141391247351,17.765821651959854,163,7,0.0,207,41114367888884,1967,12.0,-248.0161895751953,15.142001152038574,0,0.0,0.0,,,,,0,,3,,
Raw,13418628,13422497000000,,,-1291005709936238080,0.0,128.0091528315097,0.9935141391247351,17.765821651959854,163,3,0.0,15,375932352011814,24,25.8,-357.9207763671875,0.39980000257492065,0,0.0,0.0,,,,,0,,1,,
Raw,13418629,13422497000000,,,-1291005709936238080,0.0,128.0091528315097,0.9935141391247351,17.765821651959854,163,10,0.0,15,375932352918023,315,12.6,656.5607299804688,9.714500427246094,0,0.0,0.0,,,,,0,,1,,
Raw,13418632,13422497000000,,,-1291005709936238080,0.0,128.0091528315097,0.9935141391247351,17.765821651959854,163,16,0.0,15,375932358803391,16,29.3,-552.4830322265625,0.053700003772974014,0,0.0,0.0,,,,,0,,1,,
Raw,13418633,13422497000000,,,-1291005709936238080,0.0,128.0091528315097,0.9935141391247351,17.765821651959854,163,22,0.0,15,375932354152454,8,36.4,-137.92913818359375,0.0422000028192997,0,0.0,0.0,,,,,0,,1,,
Raw,13418635,13422497000000,,,-1291005709936238080,0.0,128.0091528315097,0.9935141391247351,17.765821651959854,163,32,0.0,15,375932364455124,61,18.8,173.2433624267578,1.002500057220459,0,0.0,0.0,,,,,0,,1,,
Raw,13418636,13422497000000,,,-1291005709936238080,0.0,128.0091528315097,0.9935141391247351,17.765821651959854,163,2,0.0,783,375918308264878,26,25.8,4.436112403869629,1.2735000848770142,0,0.0,0.0,,,,,0,,5,,
Raw,13418638,13422497000000,,,-1291005709936238080,0.0,128.0091528315097,0.9935141391247351,17.765821651959854,163,5,0.0,783,375918300079829,12,32.1,5.2618818283081055,0.3334999978542328,0,0.0,0.0,,,,,0,,5,,
Raw,13418640,13422497000000,,,-1291005709936238080,0.0,128.0091528315097,0.9935141391247351,17.765821651959854,163,9,0.0,15,375918310995650,2074,15.7,-148.01443481445312,30.431501388549805,0,0.0,0.0,,,,,0,,5,,
Raw,13418641,13422497000000,,,-1291005709936238080,0.0,128.0091528315097,0.9935141391247351,17.765821651959854,163,10,0.0,15,375918308555005,61,18.3,-77.14226531982422,0.9284999966621399,0,0.0,0.0,,,,,0,,5,,
Raw,13418641,13422497000000,,,-1291005709936238080,0.0,128.0091528315097,0.9935141391247351,17.765821651959854,163,14,0.0,15,375918345101151,73,17.0,-528.0606079101562,1.7540000677108765,0,0.0,0.0,,,,,0,,5,,
Raw,13418642,13422497000000,,,-1291005709936238080,0.0,128.0091528315097,0.9935141391247351,17.765821651959854,163,21,0.0,15,375918359074444,126,17.6,141.19703674316406,5.525000095367432,0,0.0,0.0,,,,,0,,5,,
Raw,13418642,13422497000000,,,-1291005709936238080,0.0,128.0091528315097,0.9935141391247351,17.765821651959854,163,24,0.0,15,375918344771396,9,35.5,-319.5152282714844,0.0276000015437603,0,0.0,0.0,,,,,0,,5,,
Raw,13418643,13422497000000,,,-1291005709936238080,0.0,128.0091528315097,0.9935141391247351,17.765821651959854,163,26,0.0,15,375918356989264,53,19.0,-103.94137573242188,0.8704999685287476,0,0.0,0.0,,,,,0,,5,,
Raw,13418644,13422497000000,,,-1291005709936238080,0.0,128.0091528315097,0.9935141391247351,17.765821651959854,163,9,0.0,7183,375932361083210,61,18.2,127.26840209960938,0.871999979019165,0,0.0,0.0,,,,,0,,6,,
Raw,13418644,13422497000000,,,-1291005709936238080,0.0,128.0091528315097,0.9935141391247351,17.765821651959854,163,24,0.0,7183,375932354014807,61,18.6,101.97838592529297,0.8734999895095825,0,0.0,0.0,,,,,0,,6,,
Raw,13418645,13422497000000,,,-1291005709936238080,0.0,128.0091528315097,0.9935141391247351,17.765821651959854,163,25,0.0,7183,375932346495734,14,30.3,-286.6279296875,0.052800003439188004,0,0.0,0.0,,,,,0,,6,,
NMEA,$GPGSV,3,1,10,03,11,312,26,10,14,175,13,16,32,224,29,22,23,291,36*7F,1606983914513
NMEA,$GPGSV,3,2,10,32,63,106,19,25,16,037,,26,66,253,,27,00,000,*73,1606983914513
NMEA,$GPGSV,3,3,10,29,28,075,,31,48,355,*76,1606983914515
NMEA,$GLGSV,3,1,09,74,34,278,22,75,00,000,36,73,45,347,15,71,64,312,12*66,1606983914518
NMEA,$GLGSV,3,2,09,70,54,171,,82,04,056,,80,14,035,,83,09,099,*68,1606983914521
NMEA,$GLGSV,3,3,09,72,15,330,*5D,1606983914522
NMEA,$GAGSV,2,1,06,09,75,137,18,24,68,316,19,25,30,244,30,04,21,139,*67,1606983914524
NMEA,$GAGSV,2,2,06,05,48,320,,31,33,030,*67,1606983914525
NMEA,$PQGSV,1,1,03,193,53,160,14,194,65,033,20,195,32,139,14,0,5*69,1606983914525
NMEA,$PQGSV,4,1,16,02,40,240,26,05,00,000,32,09,54,338,16,10,49,226,18,0,4*6D,1606983914526
NMEA,$PQGSV,4,2,16,14,07,320,17,21,64,243,18,24,07,260,36,26,42,295,19,0,4*66,1606983914526
NMEA,$PQGSV,4,3,16,01,52,129,,03,59,202,,04,37,115,,06,71,037,,0,4*69,1606983914526
NMEA,$PQGSV,4,4,16,07,76,232,,08,00,000,,13,04,209,,16,70,028,,0,4*66,1606983914527
NMEA,$GNGSA,A,3,03,16,22,32,,,,,,,,,1.8,1.5,1.0,1*38,1606983914528
NMEA,$GNGSA,A,2,74,,,,,,,,,,,,1.8,1.5,1.0,2*3C,1606983914528
NMEA,$GNGSA,A,2,25,,,,,,,,,,,,1.8,1.5,1.0,3*39,1606983914528
NMEA,$PQGSA,A,2,24,,,,,,,,,,,,1.8,1.5,1.0,4*37,1606983914528
NMEA,$GNVTG,39.6,T,39.6,M,1.7,N,3.1,K,A*39,1606983914528
NMEA,$GNRMC,082515.00,A,2255.529963,N,12017.677840,E,1.7,39.6,031220,2.8,W,A*0D,1606983914529
NMEA,$GNGGA,082515.00,2255.529963,N,12017.677840,E,1,07,1.5,27.3,M,17.5,M,,*42,1606983914529
NMEA,$GPGSV,3,1,10,03,11,312,26,10,14,175,16,16,32,224,29,22,23,291,36*7A,1606983915514
Fix,gps,22.925500,120.294630,45.830139,0.270000,12.864000,1606983916000
Raw,13419621,13423497000000,,,-1291005709936238336,0.0,120.24333409499377,0.2754679914713635,17.98453922098059,163,10,0.0,207,41115362192656,40,21.9,-144.90028381347656,0.9894999861717224,0,0.0,0.0,,,,,0,,3,,
Raw,13419621,13423497000000,,,-1291005709936238336,0.0,120.24333409499377,0.2754679914713635,17.98453922098059,163,11,0.0,207,41115356391935,9,35.3,-334.79547119140625,0.24560000002384186,0,0.0,0.0,,,,,0,,3,,
Raw,13419622,13423497000000,,,-1291005709936238336,0.0,120.24333409499377,0.2754679914713635,17.98453922098059,163,9,0.0,207,41115364525622,56,19.4,282.04412841796875,1.8725000619888306,0,0.0,0.0,,,,,0,,3,,
Raw,13419622,13423497000000,,,-1291005709936238336,0.0,120.24333409499377,0.2754679914713635,17.98453922098059,163,7,0.0,207,41115367889711,2067,12.0,-248.0161895751953,16.642000198364258,0,0.0,0.0,,,,,0,,3,,
Raw,13419622,13423497000000,,,-1291005709936238336,0.0,120.24333409499377,0.2754679914713635,17.98453922098059,163,3,0.0,15,375933352012987,21,26.3,-358.2230224609375,0.12919999659061432,0,0.0,0.0,,,,,0,,1,,
Raw,13419623,13423497000000,,,-1291005709936238336,0.0,120.24333409499377,0.2754679914713635,17.98453922098059,163,10,0.0,15,375933352915991,84,16.0,655.5997314453125,2.0245001316070557,0,0.0,0.0,,,,,0,,1,,
Raw,13419623,13423497000000,,,-1291005709936238336,0.0,120.24333409499377,0.2754679914713635,17.98453922098059,163,16,0.0,15,375933358805217,17,28.7,-552.8388061523438,0.06030000001192093,0,0.0,0.0,,,,,0,,1,,
Raw,13419624,13423497000000,,,-1291005709936238336,0.0,120.24333409499377,0.2754679914713635,17.98453922098059,163,22,0.0,15,375933354152907,8,36.4,-138.28787231445312,0.0422000028192997,0,0.0,0.0,,,,,0,,1,,
Raw,13419624,13423497000000,,,-1291005709936238336,0.0,120.24333409499377,0.2754679914713635,17.98453922098059,163,31,0.0,15,375933361913580,488,21.0,53.2727165222168,1.2829999923706055,0,0.0,0.0,,,,,0,,1,,
