# 
# Header Description:
# 
# Version: v2.0.0.1 Platform: 8.0.0 Manufacturer: Sony Model: G8142
# 
# Raw,ElapsedRealtimeMillis,TimeNanos,LeapSecond,TimeUncertaintyNanos,FullBiasNanos,BiasNanos,BiasUncertaintyNanos,DriftNanosPerSecond,DriftUncertaintyNanosPerSecond,HardwareClockDiscontinuityCount,Svid,TimeOffsetNanos,State,ReceivedSvTimeNanos,ReceivedSvTimeUncertaintyNanos,Cn0DbHz,PseudorangeRateMetersPerSecond,PseudorangeRateUncertaintyMetersPerSecond,AccumulatedDeltaRangeState,AccumulatedDeltaRangeMeters,AccumulatedDeltaRangeUncertaintyMeters,CarrierFrequencyHz,CarrierCycles,CarrierPhase,CarrierPhaseUncertainty,MultipathIndicator,SnrInDb,ConstellationType,AgcDb,CarrierFrequencyHz
# 
# Fix,Provider,Latitude,Longitude,Altitude,Speed,Accuracy,(UTC)TimeInMs
# 
# Nav,Svid,Type,Status,MessageId,Sub-messageId,Data(Bytes)
# 
Raw,14328615,14332497000000,,,-1291005709936234496,0.0,103.85216592112556,-0.39362792737785013,20.230097916703755,163,10,0.0,207,42024362541579,46,20.0,-91.44438171386719,1.0494999885559082,0,0.0,0.0,,,,,0,,3,,
Raw,14328615,14332497000000,,,-1291005709936234496,0.0,103.85216592112556,-0.39362792737785013,20.230097916703755,163,11,0.0,207,42024357321711,14,30.0,-283.8104248046875,0.25130000710487366,0,0.0,0.0,,,,,0,,3,,
Raw,14328615,14332497000000,,,-1291005709936234496,0.0,103.85216592112556,-0.39362792737785013,20.230097916703755,163,9,0.0,207,42024363635725,933,12.1,302.5218811035156,19.801000595092773,0,0.0,0.0,,,,,0,,3,,
Raw,14328615,14332497000000,,,-1291005709936234496,0.0,103.85216592112556,-0.39362792737785013,20.230097916703755,163,7,0.0,207,42024368420824,532,13.1,-100.27874755859375,14.43850040435791,0,0.0,0.0,,,,,0,,3,,
Raw,14328616,14332497000000,,,-1291005709936234496,0.0,103.85216592112556,-0.39362792737785013,20.230097916703755,163,3,0.0,15,376842352964334,46,20.8,-272.4149169921875,0.8644999861717224,0,0.0,0.0,,,,,0,,1,,
Raw,14328616,14332497000000,,,-1291005709936234496,0.0,103.85216592112556,-0.39362792737785013,20.230097916703755,163,16,0.0,15,376842360367996,21,26.9,-480.92962646484375,0.1112000048160553,0,0.0,0.0,,,,,0,,1,,
Raw,14328616,14332497000000,,,-1291005709936234496,0.0,103.85216592112556,-0.39362792737785013,20.230097916703755,163,22,0.0,15,376842354438314,14,30.7,-54.75297164916992,0.046800002455711365,0,0.0,0.0,,,,,0,,1,,
Raw,14328616,14332497000000,,,-1291005709936234496,0.0,103.85216592112556,-0.39362792737785013,20.230097916703755,163,27,0.0,15,376842349396372,53,19.0,-682.7546997070312,1.0099999904632568,0,0.0,0.0,,,,,0,,1,,
Raw,14328616,14332497000000,,,-1291005709936234496,0.0,103.85216592112556,-0.39362792737785013,20.230097916703755,163,29,0.0,15,376842356536855,1097,15.9,129.40921020507812,7.58050012588501,0,0.0,0.0,,,,,0,,1,,
Raw,14328617,14332497000000,,,-1291005709936234496,0.0,103.85216592112556,-0.39362792737785013,20.230097916703755,163,31,0.0,15,376842361734007,35,22.1,60.14231872558594,0.7879999876022339,0,0.0,0.0,,,,,0,,1,,
Raw,14328617,14332497000000,,,-1291005709936234496,0.0,103.85216592112556,-0.39362792737785013,20.230097916703755,163,32,0.0,15,376842363792497,124,14.8,262.1295166015625,3.6110000610351562,0,0.0,0.0,,,,,0,,1,,
Raw,14328617,14332497000000,,,-1291005709936234496,0.0,103.85216592112556,-0.39362792737785013,20.230097916703755,163,1,0.0,783,376828309247698,2531,20.0,4.397704124450684,33.81500244140625,0,0.0,0.0,,,,,0,,5,,
Raw,14328617,14332497000000,,,-1291005709936234496,0.0,103.85216592112556,-0.39362792737785013,20.230097916703755,163,2,0.0,783,376828308252538,65,21.0,3.4567108154296875,3.75350022315979,0,0.0,0.0,,,,,0,,5,,
Raw,14328617,14332497000000,,,-1291005709936234496,0.0,103.85216592112556,-0.39362792737785013,20.230097916703755,163,5,0.0,783,376828300060188,35,26.3,7.316705226898193,2.7735002040863037,0,0.0,0.0,,,,,0,,5,,
Raw,14328618,14332497000000,,,-1291005709936234496,0.0,103.85216592112556,-0.39362792737785013,20.230097916703755,163,10,0.0,15,376828308758383,70,17.2,-60.90532302856445,1.0084999799728394,0,0.0,0.0,,,,,0,,5,,
Raw,14328618,14332497000000,,,-1291005709936234496,0.0,103.85216592112556,-0.39362792737785013,20.230097916703755,163,16,0.0,15,376828312619967,1691,15.9,-90.6618423461914,27.344501495361328,0,0.0,0.0,,,,,0,,5,,
Raw,14328618,14332497000000,,,-1291005709936234496,0.0,103.85216592112556,-0.39362792737785013,20.230097916703755,163,24,0.0,15,376828345707508,7,37.3,-301.8345642089844,0.02810000069439411,0,0.0,0.0,,,,,0,,5,,
Raw,14328618,14332497000000,,,-1291005709936234496,0.0,103.85216592112556,-0.39362792737785013,20.230097916703755,163,3,0.0,7183,376842337746270,3718,12.4,-513.5550537109375,34.71200180053711,0,0.0,0.0,,,,,0,,6,,
Raw,14328619,14332497000000,,,-1291005709936234496,0.0,103.85216592112556,-0.39362792737785013,20.230097916703755,163,5,0.0,7183,376842352142685,1022,14.7,-290.8353271484375,9.14050006866455,0,0.0,0.0,,,,,0,,6,,
Raw,14328619,14332497000000,,,-1291005709936234496,0.0,103.85216592112556,-0.39362792737785013,20.230097916703755,163,24,0.0,7183,376842353639699,120,15.1,140.4842987060547,4.1020002365112305,0,0.0,0.0,,,,,0,,6,,
Raw,14328619,14332497000000,,,-1291005709936234496,0.0,103.85216592112556,-0.39362792737785013,20.230097916703755,163,25,0.0,7183,376842347299185,27,24.9,-246.42080688476562,0.5550000071525574,0,0.0,0.0,,,,,0,,6,,
Fix,gps,22.925459,120.294685,47.893005,0.000000,11.792000,1606984825000
NMEA,$GPGSV,3,1,11,03,15,305,21,11,00,000,22,16,39,230,27,22,24,284,31*7A,1606984824498
NMEA,$GPGSV,3,2,11,27,04,191,19,29,28,067,16,31,48,007,22,32,59,120,15*7C,1606984824499
NMEA,$GPGSV,3,3,11,10,09,172,,25,10,039,,26,69,274,*43,1606984824499
NMEA,$GLGSV,3,1,10,74,35,288,20,75,00,000,30,73,41,357,12,71,69,291,13*60,1606984824499
NMEA,$GLGSV,3,2,10,70,45,174,,82,04,047,,80,09,040,,84,04,146,*62,1606984824499
NMEA,$GLGSV,3,3,10,83,12,091,,72,22,327,*67,1606984824500
NMEA,$GAGSV,2,1,07,03,02,320,12,05,53,317,15,24,65,330,15,25,33,250,25*6B,1606984824501
NMEA,$GAGSV,2,2,07,04,16,143,,09,70,150,,31,28,033,*58,1606984824501
NMEA,$PQGSV,1,1,03,194,63,032,13,195,35,137,13,193,50,163,,0,5*65,1606984824501
NMEA,$PQGSV,4,1,14,01,52,129,20,02,40,240,21,05,00,000,26,10,49,232,17,0,4*6E,1606984824501
NMEA,$PQGSV,4,2,14,16,73,033,16,24,09,265,37,03,59,202,,04,37,115,,0,4*6C,1606984824502
NMEA,$PQGSV,4,3,14,07,76,248,,09,56,338,,13,02,208,,21,60,229,,0,4*65,1606984824502
NMEA,$PQGSV,4,4,14,22,25,168,,26,44,303,,0,4*62,1606984824502
NMEA,$GNGSA,A,3,03,16,22,31,,,,,,,,,2.1,1.9,1.0,1*3D,1606984824503
NMEA,$GNGSA,A,2,25,,,,,,,,,,,,2.1,1.9,1.0,3*3F,1606984824503
NMEA,$PQGSA,A,2,24,,,,,,,,,,,,2.1,1.9,1.0,4*31,1606984824503
NMEA,$GNVTG,,T,,M,0.0,N,0.0,K,A*3D,1606984824504
NMEA,$GNRMC,084025.00,A,2255.527513,N,12017.681114,E,0.0,,031220,2.8,W,A*1D,1606984824504
NMEA,$GNGGA,084025.00,2255.527513,N,12017.681114,E,1,06,1.9,30.4,M,17.5,M,,*4A,1606984824504
Raw,14329734,14333497000000,,,-1291005709936234496,0.0,102.48094622511417,-6.531932759164125,21.166441651626663,163,10,0.0,207,42025362541726,46,20.2,-92.46678161621094,1.0494999885559082,0,0.0,0.0,,,,,0,,3,,
Raw,14329734,14333497000000,,,-1291005709936234496,0.0,102.48094622511417,-6.531932759164125,21.166441651626663,163,11,0.0,207,42025357322716,13,31.3,-284.1530456542969,0.2506999969482422,0,0.0,0.0,,,,,0,,3,,
Raw,14329734,14333497000000,,,-1291005709936234496,0.0,102.48094622511417,-6.531932759164125,21.166441651626663,163,9,0.0,207,42025363634716,1064,12.1,302.5218811035156,21.301000595092773,0,0.0,0.0,,,,,0,,3,,
Raw,14329735,14333497000000,,,-1291005709936234496,0.0,102.48094622511417,-6.531932759164125,21.166441651626663,163,7,0.0,207,42025368421375,167,13.3,-100.85786437988281,5.43850040435791,0,0.0,0.0,,,,,0,,3,,
Raw,14329735,14333497000000,,,-1291005709936234496,0.0,102.48094622511417,-6.531932759164125,21.166441651626663,163,3,0.0,15,376843352965163,70,17.7,-272.81451416015625,1.094499945640564,0,0.0,0.0,,,,,0,,1,,
Raw,14329735,14333497000000,,,-1291005709936234496,0.0,102.48094622511417,-6.531932759164125,21.166441651626663,163,16,0.0,15,376843360369606,19,27.3,-481.2252197265625,0.04130000248551369,0,0.0,0.0,,,,,0,,1,,
Raw,14329735,14333497000000,,,-1291005709936234496,0.0,102.48094622511417,-6.531932759164125,21.166441651626663,163,22,0.0,15,376843354438505,16,29.9,-55.03814697265625,0.047700002789497375,0,0.0,0.0,,,,,0,,1,,
Raw,14329735,14333497000000,,,-1291005709936234496,0.0,102.48094622511417,-6.531932759164125,21.166441651626663,163,27,0.0,15,376843349398533,80,16.6,-681.717529296875,1.1799999475479126,0,0.0,0.0,,,,,0,,1,,
Raw,14329736,14333497000000,,,-1291005709936234496,0.0,102.48094622511417,-6.531932759164125,21.166441651626663,163,29,0.0,15,376843356536424,1122,15.5,129.36163330078125,8.330500602722168,0,0.0,0.0,,,,,0,,1,,
Raw,14329736,14333497000000,,,-1291005709936234496,0.0,102.48094622511417,-6.531932759164125,21.166441651626663,163,31,0.0,15,376843361733769,40,21.2,60.399208068847656,0.8479999899864197,0,0.0,0.0,,,,,0,,1,,
Raw,14329736,14333497000000,,,-1291005709936234496,0.0,102.48094622511417,-6.531932759164125,21.166441651626663,163,32,0.0,15,376843363791749,126,13.8,260.4644470214844,2.2310001850128174,0,0.0,0.0,,,,,0,,1,,
Raw,14329736,14333497000000,,,-1291005709936234496,0.0,102.48094622511417,-6.531932759164125,21.166441651626663,163,1,0.0,783,376829309247684,2759,20.0,4.397704124450684,35.31500244140625,0,0.0,0.0,,,,,0,,5,,
Raw,14329736,14333497000000,,,-1291005709936234496,0.0,102.48094622511417,-6.531932759164125,21.166441651626663,163,2,0.0,783,376829308252526,93,21.0,3.4567108154296875,5.253499984741211,0,0.0,0.0,,,,,0,,5,,
Raw,14329736,14333497000000,,,-1291005709936234496,0.0,102.48094622511417,-6.531932759164125,21.166441651626663,163,5,0.0,783,376829300060181,23,26.9,-0.42248690128326416,1.2335000038146973,0,0.0,0.0,,,,,0,,5,,
Raw,14329737,14333497000000,,,-1291005709936234496,0.0,102.48094622511417,-6.531932759164125,21.166441651626663,163,10,0.0,15,376829308758686,70,17.3,-59.52264404296875,1.0084999799728394,0,0.0,0.0,,,,,0,,5,,
Raw,14329737,14333497000000,,,-1291005709936234496,0.0,102.48094622511417,-6.531932759164125,21.166441651626663,163,16,0.0,15,376829312620269,1875,15.9,-90.6618423461914,28.844501495361328,0,0.0,0.0,,,,,0,,5,,
Raw,14329737,14333497000000,,,-1291005709936234496,0.0,102.48094622511417,-6.531932759164125,21.166441651626663,163,21,0.0,15,376829358502925,1065,14.5,230.8794708251953,6.458500385284424,0,0.0,0.0,,,,,0,,5,,
Raw,14329737,14333497000000,,,-1291005709936234496,0.0,102.48094622511417,-6.531932759164125,21.166441651626663,163,24,0.0,15,376829345708521,7,37.2,-302.13214111328125,0.02810000069439411,0,0.0,0.0,,,,,0,,5,,
Raw,14329737,14333497000000,,,-1291005709936234496,0.0,102.48094622511417,-6.531932759164125,21.166441651626663,163,3,0.0,7183,376843337747983,3950,12.4,-513.5550537109375,36.21200180053711,0,0.0,0.0,,,,,0,,6,,
Raw,14329737,14333497000000,,,-1291005709936234496,0.0,102.48094622511417,-6.531932759164125,21.166441651626663,163,5,0.0,7183,376843352143661,314,14.5,-290.9875793457031,10.26550006866455,0,0.0,0.0,,,,,0,,6,,
Raw,14329738,14333497000000,,,-1291005709936234496,0.0,102.48094622511417,-6.531932759164125,21.166441651626663,163,24,0.0,7183,376843353639193,73,17.3,138.83827209472656,1.6920000314712524,0,0.0,0.0,,,,,0,,6,,
Raw,14329738,14333497000000,,,-1291005709936234496,0.0,102.48094622511417,-6.531932759164125,21.166441651626663,163,25,0.0,7183,376843347300027,31,23.6,-246.20196533203125,0.6050000190734863,0,0.0,0.0,,,,,0,,6,,
Fix,gps,22.925459,120.294685,47.900269,0.000000,11.792000,1606984826000
NMEA,$GPGSV,3,1,11,03,15,305,18,11,00,000,22,16,39,230,27,22,24,284,30*71,1606984825498
NMEA,$GPGSV,3,2,11,27,04,191,17,29,28,067,16,31,48,007,21,32,59,120,14*70,1606984825498
NMEA,$GPGSV,3,3,11,10,09,172,,25,10,039,,26,69,274,*43,1606984825498
NMEA,$GLGSV,3,1,10,74,35,288,20,75,00,000,31,73,41,357,12,71,69,291,13*61,1606984825499
NMEA,$GLGSV,3,2,10,70,45,174,,82,04,047,,80,09,040,,84,04,146,*62,1606984825500
NMEA,$GLGSV,3,3,10,83,12,091,,72,22,327,*67,1606984825500
NMEA,$GAGSV,2,1,07,03,02,320,12,05,53,317,15,24,65,330,17,25,33,250,24*68,1606984825501
NMEA,$GAGSV,2,2,07,04,16,143,,09,70,150,,31,28,033,*58,1606984825502
NMEA,$PQGSV,1,1,03,194,63,032,18,195,35,137,13,193,50,163,,0,5*6E,1606984825502
NMEA,$PQGSV,4,1,14,01,52,129,20,02,40,240,21,05,00,000,27,10,49,232,17,0,4*6F,1606984825502
NMEA,$PQGSV,4,2,14,16,73,033,16,21,60,229,15,24,09,265,37,03,59,202,,0,4*61,1606984825503
NMEA,$PQGSV,4,3,14,04,37,115,,07,76,248,,09,56,338,,13,02,208,,0,4*6C,1606984825504
NMEA,$PQGSV,4,4,14,22,25,168,,26,44,303,,0,4*62,1606984825506
NMEA,$GNGSA,A,3,03,16,22,31,,,,,,,,,2.1,1.8,1.0,1*3C,1606984825507
NMEA,$GNGSA,A,2,25,,,,,,,,,,,,2.1,1.8,1.0,3*3E,1606984825508
NMEA,$PQGSA,A,2,24,,,,,,,,,,,,2.1,1.8,1.0,4*30,1606984825508
NMEA,$GNVTG,,T,,M,0.0,N,0.0,K,A*3D,1606984825509
NMEA,$GNRMC,084026.00,A,2255.527511,N,12017.681098,E,0.0,,031220,2.8,W,A*19,1606984825509
NMEA,$GNGGA,084026.00,2255.527511,N,12017.681098,E,1,06,1.8,30.4,M,17.5,M,,*4F,1606984825509
Fix,gps,22.925459,120.294685,47.904785,0.000000,10.720000,1606984827000
Raw,14330595,14334497000000,,,-1291005709936234496,0.0,96.95660264696926,-7.92539677003552,21.082095975184217,163,10,0.0,207,42026362542118,40,21.9,-90.96600341796875,0.9894999861717224,0,0.0,0.0,,,,,0,,3,,
Raw,14330595,14334497000000,,,-1291005709936234496,0.0,96.95660264696926,-7.92539677003552,21.082095975184217,163,11,0.0,207,42026357323635,14,30.8,-283.7074279785156,0.25130000710487366,0,0.0,0.0,,,,,0,,3,,
Raw,14330596,14334497000000,,,-1291005709936234496,0.0,96.95660264696926,-7.92539677003552,21.082095975184217,163,9,0.0,207,42026363633707,1205,12.1,302.5218811035156,22.801000595092773,0,0.0,0.0,,,,,0,,3,,
Raw,14330596,14334497000000,,,-1291005709936234496,0.0,96.95660264696926,-7.92539677003552,21.082095975184217,163,7,0.0,207,42026368421711,203,13.3,-100.85786437988281,6.93850040435791,0,0.0,0.0,,,,,0,,3,,
Raw,14330596,14334497000000,,,-1291005709936234496,0.0,96.95660264696926,-7.92539677003552,21.082095975184217,163,3,0.0,15,376844352966080,53,19.3,-272.5290832519531,1.0145000219345093,0,0.0,0.0,,,,,0,,1,,
Raw,14330596,14334497000000,,,-1291005709936234496,0.0,96.95660264696926,-7.92539677003552,21.082095975184217,163,16,0.0,15,376844360371214,19,27.8,-480.7163391113281,0.04130000248551369,0,0.0,0.0,,,,,0,,1,,
Raw,14330596,14334497000000,,,-1291005709936234496,0.0,96.95660264696926,-7.92539677003552,21.082095975184217,163,22,0.0,15,376844354438673,14,30.8,-54.56755828857422,0.046800002455711365,0,0.0,0.0,,,,,0,,1,,
Raw,14330596,14334497000000,,,-1291005709936234496,0.0,96.95660264696926,-7.92539677003552,21.082095975184217,163,27,0.0,15,376844349401097,70,17.3,-683.5538940429688,1.1799999475479126,0,0.0,0.0,,,,,0,,1,,
Raw,14330597,14334497000000,,,-1291005709936234496,0.0,96.95660264696926,-7.92539677003552,21.082095975184217,163,29,0.0,15,376844356535993,1302,15.3,128.98104858398438,9.180500030517578,0,0.0,0.0,,,,,0,,1,,
Raw,14330597,14334497000000,,,-1291005709936234496,0.0,96.95660264696926,-7.92539677003552,21.082095975184217,163,31,0.0,15,376844361733577,35,22.9,60.20891571044922,0.7279999852180481,0,0.0,0.0,,,,,0,,1,,
Raw,14330597,14334497000000,,,-1291005709936234496,0.0,96.95660264696926,-7.92539677003552,21.082095975184217,163,32,0.0,15,376844363790881,141,13.8,260.4644470214844,3.7310001850128174,0,0.0,0.0,,,,,0,,1,,
Raw,14330597,14334497000000,,,-1291005709936234496,0.0,96.95660264696926,-7.92539677003552,21.082095975184217,163,1,0.0,783,376830309247669,2997,20.0,4.397704124450684,36.81500244140625,0,0.0,0.0,,,,,0,,5,,
Raw,14330597,14334497000000,,,-1291005709936234496,0.0,96.95660264696926,-7.92539677003552,21.082095975184217,163,2,0.0,783,376830308252562,42,22.1,-4.743375778198242,2.19350004196167,0,0.0,0.0,,,,,0,,5,,
Raw,14330597,14334497000000,,,-1291005709936234496,0.0,96.95660264696926,-7.92539677003552,21.082095975184217,163,5,0.0,783,376830300060172,17,28.2,5.847602844238281,0.44350001215934753,0,0.0,0.0,,,,,0,,5,,
Raw,14330598,14334497000000,,,-1291005709936234496,0.0,96.95660264696926,-7.92539677003552,21.082095975184217,163,10,0.0,15,376830308758795,61,18.8,-59.724281311035156,0.8585000038146973,0,0.0,0.0,,,,,0,,5,,
Raw,14330598,14334497000000,,,-1291005709936234496,0.0,96.95660264696926,-7.92539677003552,21.082095975184217,163,14,0.0,15,376830346639099,801,16.4,-481.8559265136719,5.540500164031982,0,0.0,0.0,,,,,0,,5,,
Raw,14330598,14334497000000,,,-1291005709936234496,0.0,96.95660264696926,-7.92539677003552,21.082095975184217,163,16,0.0,15,376830312620572,2069,15.9,-90.6618423461914,30.344501495361328,0,0.0,0.0,,,,,0,,5,,
Raw,14330598,14334497000000,,,-1291005709936234496,0.0,96.95660264696926,-7.92539677003552,21.082095975184217,163,21,0.0,15,376830358502164,1086,14.2,230.70663452148438,7.208500385284424,0,0.0,0.0,,,,,0,,5,,
Raw,14330599,14334497000000,,,-1291005709936234496,0.0,96.95660264696926,-7.92539677003552,21.082095975184217,163,24,0.0,15,376830345709520,7,37.9,-301.7751770019531,0.02810000069439411,0,0.0,0.0,,,,,0,,5,,
Raw,14330599,14334497000000,,,-1291005709936234496,0.0,96.95660264696926,-7.92539677003552,21.082095975184217,163,3,0.0,7183,376844337749696,4192,12.4,-513.5550537109375,37.71200180053711,0,0.0,0.0,,,,,0,,6,,
Raw,14330599,14334497000000,,,-1291005709936234496,0.0,96.95660264696926,-7.92539677003552,21.082095975184217,163,5,0.0,7183,376844352144750,47,20.6,-298.6754455566406,1.1404999494552612,0,0.0,0.0,,,,,0,,6,,
Raw,14330599,14334497000000,,,-1291005709936234496,0.0,96.95660264696926,-7.92539677003552,21.082095975184217,163,24,0.0,7183,376844353638729,86,17.3,138.83827209472656,3.192000150680542,0,0.0,0.0,,,,,0,,6,,
Raw,14330599,14334497000000,,,-1291005709936234496,0.0,96.95660264696926,-7.92539677003552,21.082095975184217,163,25,0.0,7183,376844347300846,27,24.1,-246.630126953125,0.5550000071525574,0,0.0,0.0,,,,,0,,6,,
NMEA,$GPGSV,3,1,11,03,15,305,19,11,00,000,22,16,39,230,28,22,24,284,31*7E,1606984826499
NMEA,$GPGSV,3,2,11,27,04,191,17,29,28,067,15,31,48,007,23,32,59,120,14*71,1606984826499
NMEA,$GPGSV,3,3,11,10,09,172,,25,10,039,,26,69,274,*43,1606984826499
NMEA,$GLGSV,3,1,10,74,35,288,22,75,00,000,31,73,41,357,12,71,69,291,13*63,1606984826500
NMEA,$GLGSV,3,2,10,70,45,174,,82,04,047,,80,09,040,,84,04,146,*62,1606984826500
NMEA,$GLGSV,3,3,10,83,12,091,,72,22,327,*67,1606984826500
NMEA,$GAGSV,2,1,07,03,02,320,12,05,53,317,21,24,65,330,17,25,33,250,24*6F,1606984826500
NMEA,$GAGSV,2,2,07,04,16,143,,09,70,150,,31,28,033,*58,1606984826500
NMEA,$PQGSV,1,1,03,194,63,032,19,195,35,137,13,193,50,163,,0,5*6F,1606984826502
NMEA,$PQGSV,4,1,15,01,52,129,20,02,40,240,22,05,00,000,28,10,49,232,19,0,4*6C,1606984826503
NMEA,$PQGSV,4,2,15,14,11,317,16,16,73,033,16,21,60,229,14,24,09,265,38,0,4*66,1606984826504
NMEA,$PQGSV,4,3,15,03,59,202,,04,37,115,,07,76,248,,09,56,338,,0,4*68,1606984826504
NMEA,$PQGSV,4,4,15,13,02,208,,22,25,168,,26,44,303,,0,4*59,1606984826504
NMEA,$GNGSA,A,3,03,16,22,31,,,,,,,,,2.0,1.8,1.0,1*3D,1606984826505
NMEA,$GNGSA,A,2,74,,,,,,,,,,,,2.0,1.8,1.0,2*3A,1606984826506
NMEA,$GNGSA,A,2,25,,,,,,,,,,,,2.0,1.8,1.0,3*3F,1606984826506
NMEA,$PQGSA,A,2,24,,,,,,,,,,,,2.0,1.8,1.0,4*31,1606984826506
NMEA,$GNVTG,,T,,M,0.0,N,0.0,K,A*3D,1606984826506
NMEA,$GNRMC,084027.00,A,2255.527511,N,12017.681089,E,0.0,,031220,2.8,W,A*18,1606984826506
NMEA,$GNGGA,084027.00,2255.527511,N,12017.681089,E,1,07,1.8,30.4,M,17.5,M,,*4F,1606984826507
Raw,14331625,14335497000000,,,-1291005709936234496,0.0,88.23155803838745,-7.203118223292787,19.070247443970043,163,10,0.0,207,42027362542299,40,21.7,-90.96600341796875,0.9894999861717224,0,0.0,0.0,,,,,0,,3,,
Raw,14331625,14335497000000,,,-1291005709936234496,0.0,88.23155803838745,-7.203118223292787,19.070247443970043,163,11,0.0,207,42027357324596,14,30.5,-283.53436279296875,0.25130000710487366,0,0.0,0.0,,,,,0,,3,,
Raw,14331625,14335497000000,,,-1291005709936234496,0.0,88.23155803838745,-7.203118223292787,19.070247443970043,163,9,0.0,207,42027363632534,371,10.4,301.7728271484375,10.321000099182129,0,0.0,0.0,,,,,0,,3,,
Raw,14331625,14335497000000,,,-1291005709936234496,0.0,88.23155803838745,-7.203118223292787,19.070247443970043,163,7,0.0,207,42027368422048,249,13.3,-100.85786437988281,8.43850040435791,0,0.0,0.0,,,,,0,,3,,
Raw,14331626,14335497000000,,,-1291005709936234496,0.0,88.23155803838745,-7.203118223292787,19.070247443970043,163,3,0.0,15,376845352967068,61,18.4,-272.3578186035156,1.094499945640564,0,0.0,0.0,,,,,0,,1,,
Raw,14331626,14335497000000,,,-1291005709936234496,0.0,88.23155803838745,-7.203118223292787,19.070247443970043,163,16,0.0,15,376845360372809,19,27.8,-480.4863586425781,0.04130000248551369,0,0.0,0.0,,,,,0,,1,,
Raw,14331626,14335497000000,,,-1291005709936234496,0.0,88.23155803838745,-7.203118223292787,19.070247443970043,163,22,0.0,15,376845354438871,16,29.5,-54.35091018676758,0.047700002789497375,0,0.0,0.0,,,,,0,,1,,
Raw,14331626,14335497000000,,,-1291005709936234496,0.0,88.23155803838745,-7.203118223292787,19.070247443970043,163,27,0.0,15,376845349403377,79,17.3,-683.5538940429688,2.680000066757202,0,0.0,0.0,,,,,0,,1,,
Raw,14331626,14335497000000,,,-1291005709936234496,0.0,88.23155803838745,-7.203118223292787,19.070247443970043,163,29,0.0,15,376845356535558,1331,15.3,128.73367309570312,9.930500030517578,0,0.0,0.0,,,,,0,,1,,
Raw,14331626,14335497000000,,,-1291005709936234496,0.0,88.23155803838745,-7.203118223292787,19.070247443970043,163,31,0.0,15,376845361733352,31,23.2,60.874942779541016,0.7279999852180481,0,0.0,0.0,,,,,0,,1,,
Raw,14331627,14335497000000,,,-1291005709936234496,0.0,88.23155803838745,-7.203118223292787,19.070247443970043,163,32,0.0,15,376845363790012,166,13.8,260.4644470214844,5.2310004234313965,0,0.0,0.0,,,,,0,,1,,
Raw,14331627,14335497000000,,,-1291005709936234496,0.0,88.23155803838745,-7.203118223292787,19.070247443970043,163,24,0.0,15,376831345710528,7,37.4,-301.6153869628906,0.02810000069439411,0,0.0,0.0,,,,,0,,5,,
Raw,14331627,14335497000000,,,-1291005709936234496,0.0,88.23155803838745,-7.203118223292787,19.070247443970043,163,5,0.0,7183,376845352145721,53,19.6,-297.6858825683594,0.8104999661445618,0,0.0,0.0,,,,,0,,6,,
Raw,14331627,14335497000000,,,-1291005709936234496,0.0,88.23155803838745,-7.203118223292787,19.070247443970043,163,24,0.0,7183,376845353638318,73,17.3,138.37203979492188,1.6920000314712524,0,0.0,0.0,,,,,0,,6,,
Raw,14331627,14335497000000,,,-1291005709936234496,0.0,88.23155803838745,-7.203118223292787,19.070247443970043,163,25,0.0,7183,376845347301677,35,22.7,-246.13536071777344,0.6450000405311584,0,0.0,0.0,,,,,0,,6,,
Fix,gps,22.925459,120.294685,47.910034,0.000000,10.720000,1606984828000
NMEA,$GPGSV,3,1,11,03,15,305,18,11,00,000,22,16,39,230,28,22,24,284,30*7E,1606984827521
NMEA,$GPGSV,3,2,11,27,04,191,17,29,28,067,15,31,48,007,23,32,59,120,14*71,1606984827526
NMEA,$GPGSV,3,3,11,10,09,172,,25,10,039,,26,69,274,*43,1606984827527
NMEA,$GLGSV,3,1,10,74,35,288,22,75,00,000,31,73,41,357,10,71,69,291,13*61,1606984827527
NMEA,$GLGSV,3,2,10,70,45,174,,82,04,047,,80,09,040,,84,04,146,*62,1606984827528
NMEA,$GLGSV,3,3,10,83,12,091,,72,22,327,*67,1606984827529
NMEA,$GAGSV,2,1,07,05,53,317,20,24,65,330,17,25,33,250,23,03,02,320,*6A,1606984827529
NMEA,$GAGSV,2,2,07,04,16,143,,09,70,150,,31,28,033,*58,1606984827529
NMEA,$PQGSV,1,1,03,194,63,032,16,195,35,137,13,193,50,163,,0,5*60,1606984827529
NMEA,$PQGSV,4,1,14,02,40,240,22,05,00,000,28,10,49,232,19,14,11,317,16,0,4*64,1606984827530
NMEA,$PQGSV,4,2,14,16,73,033,16,21,60,229,14,24,09,265,37,03,59,202,,0,4*60,1606984827530
NMEA,$PQGSV,4,3,14,04,37,115,,07,76,248,,09,56,338,,13,02,208,,0,4*6C,1606984827530
NMEA,$PQGSV,4,4,14,22,25,168,,26,44,303,,0,4*62,1606984827531
NMEA,$GNGSA,A,3,03,16,22,31,,,,,,,,,2.0,1.8,1.0,1*3D,1606984827532
NMEA,$GNGSA,A,2,74,,,,,,,,,,,,2.0,1.8,1.0,2*3A,1606984827532
NMEA,$GNGSA,A,2,05,25,,,,,,,,,,,2.0,1.8,1.0,3*3A,1606984827532
NMEA,$PQGSA,A,2,24,,,,,,,,,,,,2.0,1.8,1.0,4*31,1606984827532
NMEA,$GNVTG,,T,,M,0.0,N,0.0,K,A*3D,1606984827533
NMEA,$GNRMC,084028.00,A,2255.527510,N,12017.681082,E,0.0,,031220,2.8,W,A*1D,1606984827533
NMEA,$GNGGA,084028.00,2255.527510,N,12017.681082,E,1,08,1.8,30.4,M,17.5,M,,*45,1606984827533
Raw,14332622,14336497000000,,,-1291005709936234496,0.0,82.22846372518688,-6.562719988786389,19.015983982514793,163,10,0.0,207,42028362542699,40,21.3,-89.74662017822266,0.9894999861717224,0,0.0,0.0,,,,,0,,3,,
Raw,14332622,14336497000000,,,-1291005709936234496,0.0,82.22846372518688,-6.562719988786389,19.015983982514793,163,11,0.0,207,42028357325500,13,31.6,-282.0541687011719,0.2506999969482422,0,0.0,0.0,,,,,0,,3,,
Raw,14332622,14336497000000,,,-1291005709936234496,0.0,82.22846372518688,-6.562719988786389,19.015983982514793,163,9,0.0,207,42028363631528,438,10.4,301.7728271484375,11.821000099182129,0,0.0,0.0,,,,,0,,3,,
Raw,14332623,14336497000000,,,-1291005709936234496,0.0,82.22846372518688,-6.562719988786389,19.015983982514793,163,7,0.0,207,42028368422164,90,16.2,-102.46440887451172,2.878499984741211,0,0.0,0.0,,,,,0,,3,,
Raw,14332623,14336497000000,,,-1291005709936234496,0.0,82.22846372518688,-6.562719988786389,19.015983982514793,163,3,0.0,15,376846352968046,70,17.7,-270.3787536621094,1.094499945640564,0,0.0,0.0,,,,,0,,1,,
Raw,14332623,14336497000000,,,-1291005709936234496,0.0,82.22846372518688,-6.562719988786389,19.015983982514793,163,16,0.0,15,376846360374402,19,27.9,-478.9488220214844,0.04130000248551369,0,0.0,0.0,,,,,0,,1,,
Raw,14332623,14336497000000,,,-1291005709936234496,0.0,82.22846372518688,-6.562719988786389,19.015983982514793,163,22,0.0,15,376846354439043,16,29.6,-52.83513641357422,0.047700002789497375,0,0.0,0.0,,,,,0,,1,,
Raw,14332623,14336497000000,,,-1291005709936234496,0.0,82.22846372518688,-6.562719988786389,19.015983982514793,163,27,0.0,15,376846349405657,98,17.3,-683.5538940429688,4.180000305175781,0,0.0,0.0,,,,,0,,1,,
Raw,14332624,14336497000000,,,-1291005709936234496,0.0,82.22846372518688,-6.562719988786389,19.015983982514793,163,29,0.0,15,376846356535124,331,15.0,128.61949157714844,11.055500030517578,0,0.0,0.0,,,,,0,,1,,
Raw,14332624,14336497000000,,,-1291005709936234496,0.0,82.22846372518688,-6.562719988786389,19.015983982514793,163,31,0.0,15,376846361733128,31,23.1,62.463897705078125,0.7279999852180481,0,0.0,0.0,,,,,0,,1,,
Raw,14332624,14336497000000,,,-1291005709936234496,0.0,82.22846372518688,-6.562719988786389,19.015983982514793,163,32,0.0,15,376846363789180,132,13.9,261.8060302734375,2.9810001850128174,0,0.0,0.0,,,,,0,,1,,
Raw,14332624,14336497000000,,,-1291005709936234496,0.0,82.22846372518688,-6.562719988786389,19.015983982514793,163,2,0.0,783,376832308252594,87,22.1,-4.743375778198242,5.19350004196167,0,0.0,0.0,,,,,0,,5,,
Raw,14332624,14336497000000,,,-1291005709936234496,0.0,82.22846372518688,-6.562719988786389,19.015983982514793,163,5,0.0,783,376832300060149,19,27.4,5.789990425109863,0.48350000381469727,0,0.0,0.0,,,,,0,,5,,
Raw,14332624,14336497000000,,,-1291005709936234496,0.0,82.22846372518688,-6.562719988786389,19.015983982514793,163,10,0.0,15,376832308759193,80,16.9,-57.8422966003418,1.0084999799728394,0,0.0,0.0,,,,,0,,5,,
Raw,14332625,14336497000000,,,-1291005709936234496,0.0,82.22846372518688,-6.562719988786389,19.015983982514793,163,14,0.0,15,376832346642317,954,15.1,-482.42242431640625,7.130500316619873,0,0.0,0.0,,,,,0,,5,,
Raw,14332625,14336497000000,,,-1291005709936234496,0.0,82.22846372518688,-6.562719988786389,19.015983982514793,163,16,0.0,15,376832312621177,2486,15.9,-90.6618423461914,33.34450149536133,0,0.0,0.0,,,,,0,,5,,
Raw,14332625,14336497000000,,,-1291005709936234496,0.0,82.22846372518688,-6.562719988786389,19.015983982514793,163,21,0.0,15,376832358500672,1002,14.8,230.38978576660156,8.618500709533691,0,0.0,0.0,,,,,0,,5,,
Raw,14332625,14336497000000,,,-1291005709936234496,0.0,82.22846372518688,-6.562719988786389,19.015983982514793,163,24,0.0,15,376832345711534,7,37.5,-300.1440734863281,0.02810000069439411,0,0.0,0.0,,,,,0,,5,,
Raw,14332625,14336497000000,,,-1291005709936234496,0.0,82.22846372518688,-6.562719988786389,19.015983982514793,163,5,0.0,7183,376846352146725,46,20.2,-296.90570068359375,0.750499963760376,0,0.0,0.0,,,,,0,,6,,
Raw,14332626,14336497000000,,,-1291005709936234496,0.0,82.22846372518688,-6.562719988786389,19.015983982514793,163,24,0.0,7183,376846353637856,86,17.3,138.37203979492188,3.192000150680542,0,0.0,0.0,,,,,0,,6,,
Raw,14332626,14336497000000,,,-1291005709936234496,0.0,82.22846372518688,-6.562719988786389,19.015983982514793,163,25,0.0,7183,376846347302479,27,24.0,-243.96600341796875,0.5550000071525574,0,0.0,0.0,,,,,0,,6,,
Fix,gps,22.925458,120.294685,47.913086,0.000000,10.720000,1606984829000
NMEA,$GPGSV,3,1,11,03,15,305,18,11,00,000,22,16,39,230,28,22,24,284,30*7E,1606984828513
NMEA,$GPGSV,3,2,11,27,04,191,17,29,28,067,15,31,48,007,23,32,59,120,14*71,1606984828520
NMEA,$GPGSV,3,3,11,10,09,172,,25,10,039,,26,69,274,*43,1606984828523
NMEA,$GLGSV,3,1,10,74,35,288,21,75,00,000,32,73,41,357,10,71,69,291,16*64,1606984828524
NMEA,$GLGSV,3,2,10,70,45,174,,82,04,047,,80,09,040,,84,04,146,*62,1606984828525
NMEA,$GLGSV,3,3,10,83,12,091,,72,22,327,*67,1606984828526
NMEA,$GAGSV,2,1,07,05,53,317,20,24,65,330,17,25,33,250,24,03,02,320,*6D,1606984828526
NMEA,$GAGSV,2,2,07,04,16,143,,09,70,150,,31,28,033,*58,1606984828526
NMEA,$PQGSV,1,1,03,193,50,163,15,194,63,032,17,195,35,137,13,0,5*65,1606984828526
NMEA,$PQGSV,4,1,15,02,40,240,22,05,00,000,27,10,49,232,17,14,11,317,15,0,4*67,1606984828527
NMEA,$PQGSV,4,2,15,16,73,033,16,21,60,229,15,24,09,265,38,01,52,129,,0,4*6C,1606984828527
NMEA,$PQGSV,4,3,15,03,59,202,,04,37,115,,07,76,248,,09,56,338,,0,4*68,1606984828527
NMEA,$PQGSV,4,4,15,13,02,208,,22,25,168,,26,44,303,,0,4*59,1606984828527
NMEA,$GNGSA,A,3,03,16,22,31,,,,,,,,,2.0,1.8,1.0,1*3D,1606984828528
NMEA,$GNGSA,A,2,74,,,,,,,,,,,,2.0,1.8,1.0,2*3A,1606984828528
NMEA,$GNGSA,A,2,05,25,,,,,,,,,,,2.0,1.8,1.0,3*3A,1606984828528
NMEA,$PQGSA,A,2,24,,,,,,,,,,,,2.0,1.8,1.0,4*31,1606984828529
NMEA,$GNVTG,,T,,M,0.0,N,0.0,K,A*3D,1606984828529
NMEA,$GNRMC,084029.00,A,2255.527509,N,12017.681077,E,0.0,,031220,2.8,W,A*1E,1606984828529
NMEA,$GNGGA,084029.00,2255.527509,N,12017.681077,E,1,08,1.8,30.4,M,17.5,M,,*46,1606984828529
Fix,gps,22.925458,120.294685,47.916870,0.000000,10.720000,1606984830000
Raw,14333625,14337497000000,,,-1291005709936234496,0.0,80.38606029003859,-2.0090143564756175,19.965756794852016,163,10,0.0,207,42029362542995,40,21.1,-89.38080596923828,0.9894999861717224,0,0.0,0.0,,,,,0,,3,,
Raw,14333625,14337497000000,,,-1291005709936234496,0.0,80.38606029003859,-2.0090143564756175,19.965756794852016,163,11,0.0,207,42029357326505,13,31.2,-281.1397705078125,0.2506999969482422,0,0.0,0.0,,,,,0,,3,,
Raw,14333625,14337497000000,,,-1291005709936234496,0.0,80.38606029003859,-2.0090143564756175,19.965756794852016,163,9,0.0,207,42029363630521,515,10.4,301.7728271484375,13.321000099182129,0,0.0,0.0,,,,,0,,3,,
Raw,14333626,14337497000000,,,-1291005709936234496,0.0,80.38606029003859,-2.0090143564756175,19.965756794852016,163,7,0.0,207,42029368422674,70,17.6,-101.47432708740234,1.2884999513626099,0,0.0,0.0,,,,,0,,3,,
Raw,14333626,14337497000000,,,-1291005709936234496,0.0,80.38606029003859,-2.0090143564756175,19.965756794852016,163,3,0.0,15,376847352968912,70,17.9,-269.7317810058594,1.094499945640564,0,0.0,0.0,,,,,0,,1,,
Raw,14333626,14337497000000,,,-1291005709936234496,0.0,80.38606029003859,-2.0090143564756175,19.965756794852016,163,16,0.0,15,376847360376038,19,27.5,-478.0821838378906,0.04130000248551369,0,0.0,0.0,,,,,0,,1,,
Raw,14333626,14337497000000,,,-1291005709936234496,0.0,80.38606029003859,-2.0090143564756175,19.965756794852016,163,22,0.0,15,376847354439210,16,29.5,-51.91072463989258,0.047700002789497375,0,0.0,0.0,,,,,0,,1,,
Raw,14333626,14337497000000,,,-1291005709936234496,0.0,80.38606029003859,-2.0090143564756175,19.965756794852016,163,27,0.0,15,376847349407938,127,17.3,-683.5538940429688,5.680000305175781,0,0.0,0.0,,,,,0,,1,,
Raw,14333626,14337497000000,,,-1291005709936234496,0.0,80.38606029003859,-2.0090143564756175,19.965756794852016,163,29,0.0,15,376847356534843,96,15.6,129.2284393310547,1.9704999923706055,0,0.0,0.0,,,,,0,,1,,
Raw,14333627,14337497000000,,,-1291005709936234496,0.0,80.38606029003859,-2.0090143564756175,19.965756794852016,163,31,0.0,15,376847361732902,31,23.8,63.33924865722656,0.6679999828338623,0,0.0,0.0,,,,,0,,1,,
Raw,14333627,14337497000000,,,-1291005709936234496,0.0,80.38606029003859,-2.0090143564756175,19.965756794852016,163,32,0.0,15,376847363788306,152,13.9,261.8060302734375,4.480999946594238,0,0.0,0.0,,,,,0,,1,,
Raw,14333627,14337497000000,,,-1291005709936234496,0.0,80.38606029003859,-2.0090143564756175,19.965756794852016,163,2,0.0,783,376833308252546,48,21.4,-6.682973861694336,2.253499984741211,0,0.0,0.0,,,,,0,,5,,
Raw,14333627,14337497000000,,,-1291005709936234496,0.0,80.38606029003859,-2.0090143564756175,19.965756794852016,163,5,0.0,783,376833300060138,17,28.3,5.300290107727051,0.44350001215934753,0,0.0,0.0,,,,,0,,5,,
Raw,14333628,14337497000000,,,-1291005709936234496,0.0,80.38606029003859,-2.0090143564756175,19.965756794852016,163,10,0.0,15,376833308759397,53,19.7,-57.794288635253906,0.8585000038146973,0,0.0,0.0,,,,,0,,5,,
Raw,14333628,14337497000000,,,-1291005709936234496,0.0,80.38606029003859,-2.0090143564756175,19.965756794852016,163,14,0.0,15,376833346643940,977,15.4,-482.94091796875,7.880500316619873,0,0.0,0.0,,,,,0,,5,,
Raw,14333628,14337497000000,,,-1291005709936234496,0.0,80.38606029003859,-2.0090143564756175,19.965756794852016,163,16,0.0,15,376833312621479,2710,15.9,-90.6618423461914,34.84450149536133,0,0.0,0.0,,,,,0,,5,,
Raw,14333628,14337497000000,,,-1291005709936234496,0.0,80.38606029003859,-2.0090143564756175,19.965756794852016,163,21,0.0,15,376833358499898,1163,14.7,230.43780517578125,9.458500862121582,0,0.0,0.0,,,,,0,,5,,
Raw,14333628,14337497000000,,,-1291005709936234496,0.0,80.38606029003859,-2.0090143564756175,19.965756794852016,163,24,0.0,15,376833345712532,7,37.5,-299.31903076171875,0.02810000069439411,0,0.0,0.0,,,,,0,,5,,
Raw,14333628,14337497000000,,,-1291005709936234496,0.0,80.38606029003859,-2.0090143564756175,19.965756794852016,163,5,0.0,7183,376847352147764,53,19.8,-296.3062744140625,0.8104999661445618,0,0.0,0.0,,,,,0,,6,,
Raw,14333629,14337497000000,,,-1291005709936234496,0.0,80.38606029003859,-2.0090143564756175,19.965756794852016,163,24,0.0,7183,376847353637392,73,17.6,142.06373596191406,1.6920000314712524,0,0.0,0.0,,,,,0,,6,,
Raw,14333629,14337497000000,,,-1291005709936234496,0.0,80.38606029003859,-2.0090143564756175,19.965756794852016,163,25,0.0,7183,376847347303272,27,24.7,-243.96600341796875,0.5550000071525574,0,0.0,0.0,,,,,0,,6,,
NMEA,$GPGSV,3,1,11,03,15,305,18,11,00,000,22,16,39,230,28,22,24,284,30*7E,1606984829511
NMEA,$GPGSV,3,2,11,27,04,191,17,29,28,067,16,31,48,007,24,32,59,120,14*75,1606984829511
NMEA,$GPGSV,3,3,11,10,09,172,,25,10,039,,26,69,274,*43,1606984829512
NMEA,$GLGSV,3,1,10,74,35,288,21,75,00,000,31,73,41,357,10,71,69,291,18*69,1606984829513
NMEA,$GLGSV,3,2,10,70,45,174,,82,04,047,,80,09,040,,84,04,146,*62,1606984829514
NMEA,$GLGSV,3,3,10,83,12,091,,72,22,327,*67,1606984829515
NMEA,$GAGSV,2,1,07,05,53,317,20,24,65,330,18,25,33,250,25,03,02,320,*63,1606984829519
NMEA,$GAGSV,2,2,07,04,16,143,,09,70,150,,31,28,033,*58,1606984829526
NMEA,$PQGSV,1,1,03,193,50,163,15,194,63,032,17,195,35,137,13,0,5*65,1606984829528
NMEA,$PQGSV,4,1,15,02,40,240,21,05,00,000,28,10,49,232,20,14,11,317,15,0,4*6F,1606984829528
NMEA,$PQGSV,4,2,15,16,73,033,16,21,60,229,15,24,09,265,38,01,52,129,,0,4*6C,1606984829529
NMEA,$PQGSV,4,3,15,03,59,202,,04,37,115,,07,76,248,,09,56,338,,0,4*68,1606984829530
NMEA,$PQGSV,4,4,15,13,02,208,,22,25,168,,26,44,303,,0,4*59,1606984829531
NMEA,$GNGSA,A,3,03,16,22,31,,,,,,,,,2.0,1.8,1.0,1*3D,1606984829534
NMEA,$GNGSA,A,2,74,,,,,,,,,,,,2.0,1.8,1.0,2*3A,1606984829535
NMEA,$GNGSA,A,2,05,25,,,,,,,,,,,2.0,1.8,1.0,3*3A,1606984829536
NMEA,$PQGSA,A,2,24,,,,,,,,,,,,2.0,1.8,1.0,4*31,1606984829536
NMEA,$GNVTG,,T,,M,0.0,N,0.0,K,A*3D,1606984829537
NMEA,$GNRMC,084030.00,A,2255.527508,N,12017.681072,E,0.0,,031220,2.8,W,A*12,1606984829538
NMEA,$GNGGA,084030.00,2255.527508,N,12017.681072,E,1,08,1.8,30.4,M,17.5,M,,*4A,1606984829542
Fix,gps,22.925458,120.294684,47.915955,0.000000,10.720000,1606984831000
Raw,14334594,14338497000000,,,-1291005709936234496,0.0,81.23825682559982,0.7800762270792585,19.91099071721023,163,10,0.0,207,42030362543219,70,17.9,-89.35266876220703,1.2795000076293945,0,0.0,0.0,,,,,0,,3,,
Raw,14334594,14338497000000,,,-1291005709936234496,0.0,81.23825682559982,0.7800762270792585,19.91099071721023,163,11,0.0,207,42030357327430,14,30.3,-282.3868103027344,0.25130000710487366,0,0.0,0.0,,,,,0,,3,,
Raw,14334595,14338497000000,,,-1291005709936234496,0.0,81.23825682559982,0.7800762270792585,19.91099071721023,163,9,0.0,207,42030363629514,602,10.4,301.7728271484375,14.821000099182129,0,0.0,0.0,,,,,0,,3,,
Raw,14334595,14338497000000,,,-1291005709936234496,0.0,81.23825682559982,0.7800762270792585,19.91099071721023,163,7,0.0,207,42030368423013,79,17.6,-101.47432708740234,2.7885000705718994,0,0.0,0.0,,,,,0,,3,,
Raw,14334596,14338497000000,,,-1291005709936234496,0.0,81.23825682559982,0.7800762270792585,19.91099071721023,163,3,0.0,15,376848352969812,79,17.9,-269.7317810058594,2.5945000648498535,0,0.0,0.0,,,,,0,,1,,
Raw,14334596,14338497000000,,,-1291005709936234496,0.0,81.23825682559982,0.7800762270792585,19.91099071721023,163,16,0.0,15,376848360377581,19,27.1,-479.1908264160156,0.04130000248551369,0,0.0,0.0,,,,,0,,1,,
Raw,14334597,14338497000000,,,-1291005709936234496,0.0,81.23825682559982,0.7800762270792585,19.91099071721023,163,22,0.0,15,376848354439372,16,29.1,-53.0701789855957,0.047700002789497375,0,0.0,0.0,,,,,0,,1,,
Raw,14334597,14338497000000,,,-1291005709936234496,0.0,81.23825682559982,0.7800762270792585,19.91099071721023,163,27,0.0,15,376848349410037,141,13.7,-681.4891967773438,3.7400002479553223,0,0.0,0.0,,,,,0,,1,,
Raw,14334598,14338497000000,,,-1291005709936234496,0.0,81.23825682559982,0.7800762270792585,19.91099071721023,163,29,0.0,15,376848356534412,110,15.6,129.2284393310547,3.4705002307891846,0,0.0,0.0,,,,,0,,1,,
Raw,14334599,14338497000000,,,-1291005709936234496,0.0,81.23825682559982,0.7800762270792585,19.91099071721023,163,31,0.0,15,376848361732743,35,22.8,62.27360153198242,0.7279999852180481,0,0.0,0.0,,,,,0,,1,,
Raw,14334599,14338497000000,,,-1291005709936234496,0.0,81.23825682559982,0.7800762270792585,19.91099071721023,163,32,0.0,15,376848363787433,182,13.9,261.8060302734375,5.9810004234313965,0,0.0,0.0,,,,,0,,1,,
Raw,14334600,14338497000000,,,-1291005709936234496,0.0,81.23825682559982,0.7800762270792585,19.91099071721023,163,2,0.0,783,376834308252569,65,21.4,-6.682973861694336,3.75350022315979,0,0.0,0.0,,,,,0,,5,,
Raw,14334600,14338497000000,,,-1291005709936234496,0.0,81.23825682559982,0.7800762270792585,19.91099071721023,163,5,0.0,783,376834300060115,19,27.9,4.86820125579834,0.44350001215934753,0,0.0,0.0,,,,,0,,5,,
Raw,14334601,14338497000000,,,-1291005709936234496,0.0,81.23825682559982,0.7800762270792585,19.91099071721023,163,10,0.0,15,376834308759613,70,17.4,-58.696868896484375,1.0084999799728394,0,0.0,0.0,,,,,0,,5,,
Raw,14334602,14338497000000,,,-1291005709936234496,0.0,81.23825682559982,0.7800762270792585,19.91099071721023,163,14,0.0,15,376834346645558,1003,15.6,-483.142578125,8.630500793457031,0,0.0,0.0,,,,,0,,5,,
Raw,14334602,14338497000000,,,-1291005709936234496,0.0,81.23825682559982,0.7800762270792585,19.91099071721023,163,16,0.0,15,376834312621782,2944,15.9,-90.6618423461914,36.34450149536133,0,0.0,0.0,,,,,0,,5,,
Raw,14334603,14338497000000,,,-1291005709936234496,0.0,81.23825682559982,0.7800762270792585,19.91099071721023,163,21,0.0,15,376834358499118,1194,14.3,230.4473876953125,10.208500862121582,0,0.0,0.0,,,,,0,,5,,
Raw,14334604,14338497000000,,,-1291005709936234496,0.0,81.23825682559982,0.7800762270792585,19.91099071721023,163,24,0.0,15,376834345713534,8,36.6,-300.58642578125,0.028700001537799835,0,0.0,0.0,,,,,0,,5,,
Raw,14334604,14338497000000,,,-1291005709936234496,0.0,81.23825682559982,0.7800762270792585,19.91099071721023,163,5,0.0,7183,376848352148704,53,19.3,-296.7820129394531,0.8104999661445618,0,0.0,0.0,,,,,0,,6,,
Raw,14334605,14338497000000,,,-1291005709936234496,0.0,81.23825682559982,0.7800762270792585,19.91099071721023,163,24,0.0,7183,376848353636918,86,17.6,142.06373596191406,3.192000150680542,0,0.0,0.0,,,,,0,,6,,
Raw,14334606,14338497000000,,,-1291005709936234496,0.0,81.23825682559982,0.7800762270792585,19.91099071721023,163,25,0.0,7183,376848347304105,31,23.0,-244.555908203125,0.6050000190734863,0,0.0,0.0,,,,,0,,6,,
NMEA,$GPGSV,3,1,11,03,15,305,18,11,00,000,22,16,39,230,27,22,24,284,29*79,1606984830499
NMEA,$GPGSV,3,2,11,27,04,191,14,29,28,067,16,31,48,007,23,32,59,120,14*71,1606984830500
NMEA,$GPGSV,3,3,11,10,09,172,,25,10,039,,26,69,274,*43,1606984830500
NMEA,$GLGSV,3,1,10,74,35,288,18,75,00,000,30,73,41,357,10,71,69,291,18*62,1606984830501
NMEA,$GLGSV,3,2,10,70,45,174,,82,04,047,,80,09,040,,84,04,146,*62,1606984830501
NMEA,$GLGSV,3,3,10,83,12,091,,72,22,327,*67,1606984830501
NMEA,$GAGSV,2,1,07,05,53,317,19,24,65,330,18,25,33,250,23,03,02,320,*6F,1606984830501
NMEA,$GAGSV,2,2,07,04,16,143,,09,70,150,,31,28,033,*58,1606984830502
NMEA,$PQGSV,1,1,03,193,50,163,15,194,63,032,17,195,35,137,13,0,5*65,1606984830502
NMEA,$PQGSV,4,1,15,02,40,240,21,05,00,000,28,10,49,232,17,14,11,317,16,0,4*68,1606984830502
NMEA,$PQGSV,4,2,15,16,73,033,16,21,60,229,14,24,09,265,37,01,52,129,,0,4*62,1606984830502
NMEA,$PQGSV,4,3,15,03,59,202,,04,37,115,,07,76,248,,09,56,338,,0,4*68,1606984830502
NMEA,$PQGSV,4,4,15,13,02,208,,22,25,168,,26,44,303,,0,4*59,1606984830503
NMEA,$GNGSA,A,3,03,16,22,31,,,,,,,,,2.3,2.0,1.0,1*35,1606984830503
NMEA,$GNGSA,A,2,74,,,,,,,,,,,,2.3,2.0,1.0,2*32,1606984830504
NMEA,$GNGSA,A,2,05,25,,,,,,,,,,,2.3,2.0,1.0,3*32,1606984830504
NMEA,$PQGSA,A,2,24,,,,,,,,,,,,2.3,2.0,1.0,4*39,1606984830504
NMEA,$GNVTG,,T,,M,0.0,N,0.0,K,A*3D,1606984830505
NMEA,$GNRMC,084031.00,A,2255.527508,N,12017.681068,E,0.0,,031220,2.8,W,A*18,1606984830505
NMEA,$GNGGA,084031.00,2255.527508,N,12017.681068,E,1,08,2.0,30.4,M,17.5,M,,*4B,1606984830505
Raw,14335744,14339497000000,,,-1291005709936234496,0.0,75.57193021057174,-2.9198294438639554,20.92311338559874,163,10,0.0,207,42031362543517,79,17.9,-89.35266876220703,2.7795000076293945,0,0.0,0.0,,,,,0,,3,,
Raw,14335744,14339497000000,,,-1291005709936234496,0.0,75.57193021057174,-2.9198294438639554,20.92311338559874,163,11,0.0,207,42031357328357,14,30.8,-281.07647705078125,0.25130000710487366,0,0.0,0.0,,,,,0,,3,,
Raw,14335745,14339497000000,,,-1291005709936234496,0.0,75.57193021057174,-2.9198294438639554,20.92311338559874,163,9,0.0,207,42031363628508,699,10.4,301.7728271484375,16.321001052856445,0,0.0,0.0,,,,,0,,3,,
Raw,14335746,14339497000000,,,-1291005709936234496,0.0,75.57193021057174,-2.9198294438639554,20.92311338559874,163,7,0.0,207,42031368423346,73,17.4,-99.5128402709961,2.0385000705718994,0,0.0,0.0,,,,,0,,3,,
Raw,14335746,14339497000000,,,-1291005709936234496,0.0,75.57193021057174,-2.9198294438639554,20.92311338559874,163,3,0.0,15,376849352970734,49,20.0,-269.2750549316406,1.684499979019165,0,0.0,0.0,,,,,0,,1,,
Raw,14335747,14339497000000,,,-1291005709936234496,0.0,75.57193021057174,-2.9198294438639554,20.92311338559874,163,16,0.0,15,376849360379169,16,29.4,-477.88800048828125,0.02670000120997429,0,0.0,0.0,,,,,0,,1,,
Raw,14335748,14339497000000,,,-1291005709936234496,0.0,75.57193021057174,-2.9198294438639554,20.92311338559874,163,22,0.0,15,376849354439552,11,33.7,-51.74425506591797,0.04390000179409981,0,0.0,0.0,,,,,0,,1,,
Raw,14335748,14339497000000,,,-1291005709936234496,0.0,75.57193021057174,-2.9198294438639554,20.92311338559874,163,27,0.0,15,376849349412321,70,17.8,-683.0115356445312,1.0899999141693115,0,0.0,0.0,,,,,0,,1,,
Raw,14335749,14339497000000,,,-1291005709936234496,0.0,75.57193021057174,-2.9198294438639554,20.92311338559874,163,29,0.0,15,376849356533981,134,15.6,129.2284393310547,4.9704999923706055,0,0.0,0.0,,,,,0,,1,,
Raw,14335750,14339497000000,,,-1291005709936234496,0.0,75.57193021057174,-2.9198294438639554,20.92311338559874,163,31,0.0,15,376849361732434,27,24.3,63.101383209228516,0.6679999828338623,0,0.0,0.0,,,,,0,,1,,
Raw,14335750,14339497000000,,,-1291005709936234496,0.0,75.57193021057174,-2.9198294438639554,20.92311338559874,163,32,0.0,15,376849363786478,102,15.7,264.29888916015625,2.761000156402588,0,0.0,0.0,,,,,0,,1,,
Raw,14335751,14339497000000,,,-1291005709936234496,0.0,75.57193021057174,-2.9198294438639554,20.92311338559874,163,2,0.0,783,376835308252591,93,21.4,-6.682973861694336,5.253499984741211,0,0.0,0.0,,,,,0,,5,,
Raw,14335752,14339497000000,,,-1291005709936234496,0.0,75.57193021057174,-2.9198294438639554,20.92311338559874,163,5,0.0,783,376835300060112,17,28.1,2.0836286544799805,0.44350001215934753,0,0.0,0.0,,,,,0,,5,,
Raw,14335752,14339497000000,,,-1291005709936234496,0.0,75.57193021057174,-2.9198294438639554,20.92311338559874,163,10,0.0,15,376835308759765,61,18.0,-57.60224914550781,0.9284999966621399,0,0.0,0.0,,,,,0,,5,,
Raw,14335753,14339497000000,,,-1291005709936234496,0.0,75.57193021057174,-2.9198294438639554,20.92311338559874,163,21,0.0,15,376835358498345,343,14.4,230.5818328857422,10.958500862121582,0,0.0,0.0,,,,,0,,5,,
Raw,14335753,14339497000000,,,-1291005709936234496,0.0,75.57193021057174,-2.9198294438639554,20.92311338559874,163,24,0.0,15,376835345714534,6,38.6,-299.291748046875,0.0276000015437603,0,0.0,0.0,,,,,0,,5,,
Raw,14335754,14339497000000,,,-1291005709936234496,0.0,75.57193021057174,-2.9198294438639554,20.92311338559874,163,5,0.0,7183,376849352149710,46,20.0,-295.2501525878906,0.750499963760376,0,0.0,0.0,,,,,0,,6,,
Raw,14335755,14339497000000,,,-1291005709936234496,0.0,75.57193021057174,-2.9198294438639554,20.92311338559874,163,24,0.0,7183,376849353636489,73,17.4,140.91246032714844,1.6920000314712524,0,0.0,0.0,,,,,0,,6,,
Raw,14335755,14339497000000,,,-1291005709936234496,0.0,75.57193021057174,-2.9198294438639554,20.92311338559874,163,25,0.0,7183,376849347304914,53,19.4,-243.8994140625,0.8149999976158142,0,0.0,0.0,,,,,0,,6,,
Fix,gps,22.925458,120.294684,47.917969,0.000000,10.720000,1606984832000
NMEA,$GPGSV,3,1,11,03,15,305,20,11,00,000,22,16,39,230,29,22,24,284,34*70,1606984831497
NMEA,$GPGSV,3,2,11,27,04,191,18,29,28,067,16,31,48,007,24,32,59,120,16*78,1606984831497
NMEA,$GPGSV,3,3,11,10,09,172,,25,10,039,,26,69,274,*43,1606984831498
NMEA,$GLGSV,3,1,10,74,35,288,18,75,00,000,31,73,41,357,10,71,69,291,17*6C,1606984831498
NMEA,$GLGSV,3,2,10,70,45,174,,82,04,047,,80,09,040,,84,04,146,*62,1606984831498
NMEA,$GLGSV,3,3,10,83,12,091,,72,22,327,*67,1606984831499
NMEA,$GAGSV,2,1,07,05,53,317,20,24,65,330,17,25,33,250,19,03,02,320,*63,1606984831500
NMEA,$GAGSV,2,2,07,04,16,143,,09,70,150,,31,28,033,*58,1606984831500
NMEA,$PQGSV,1,1,03,194,63,032,19,195,35,137,13,193,50,163,,0,5*6F,1606984831500
NMEA,$PQGSV,4,1,14,02,40,240,21,05,00,000,28,10,49,232,18,21,60,229,14,0,4*68,1606984831501
NMEA,$PQGSV,4,2,14,24,09,265,39,01,52,129,,03,59,202,,04,37,115,,0,4*6A,1606984831501
NMEA,$PQGSV,4,3,14,07,76,248,,09,56,338,,13,02,208,,16,73,033,,0,4*6A,1606984831501
NMEA,$PQGSV,4,4,14,22,25,168,,26,44,303,,0,4*62,1606984831501
NMEA,$GNGSA,A,2,16,22,31,,,,,,,,,,2.0,1.8,1.0,1*3F,1606984831503
NMEA,$GNGSA,A,2,74,,,,,,,,,,,,2.0,1.8,1.0,2*3A,1606984831503
NMEA,$GNGSA,A,2,05,25,,,,,,,,,,,2.0,1.8,1.0,3*3A,1606984831504
NMEA,$PQGSA,A,2,24,,,,,,,,,,,,2.0,1.8,1.0,4*31,1606984831504
NMEA,$GNVTG,,T,,M,0.0,N,0.0,K,A*3D,1606984831507
NMEA,$GNRMC,084032.00,A,2255.527506,N,12017.681062,E,0.0,,031220,2.8,W,A*1F,1606984831507
NMEA,$GNGGA,084032.00,2255.527506,N,12017.681062,E,1,07,1.8,30.4,M,17.5,M,,*48,1606984831508
Raw,14336573,14340497000000,,,-1291005709936234496,0.0,82.34078995883465,0.6937723257652784,19.909977532049396,163,10,0.0,207,42032362543815,99,17.9,-89.35266876220703,4.2795000076293945,0,0.0,0.0,,,,,0,,3,,
Raw,14336574,14340497000000,,,-1291005709936234496,0.0,82.34078995883465,0.6937723257652784,19.909977532049396,163,11,0.0,207,42032357329311,16,29.7,-281.6055908203125,0.25220000743865967,0,0.0,0.0,,,,,0,,3,,
Raw,14336574,14340497000000,,,-1291005709936234496,0.0,82.34078995883465,0.6937723257652784,19.909977532049396,163,9,0.0,207,42032363627501,806,10.4,301.7728271484375,17.821001052856445,0,0.0,0.0,,,,,0,,3,,
Raw,14336575,14340497000000,,,-1291005709936234496,0.0,82.34078995883465,0.6937723257652784,19.909977532049396,163,7,0.0,207,42032368423480,46,20.2,-100.82050323486328,1.0584999322891235,0,0.0,0.0,,,,,0,,3,,
Raw,14336575,14340497000000,,,-1291005709936234496,0.0,82.34078995883465,0.6937723257652784,19.909977532049396,163,3,0.0,15,376850352971670,40,21.9,-269.76983642578125,0.8044999837875366,0,0.0,0.0,,,,,0,,1,,
Raw,14336576,14340497000000,,,-1291005709936234496,0.0,82.34078995883465,0.6937723257652784,19.909977532049396,163,16,0.0,15,376850360380752,16,29.2,-478.39862060546875,0.02670000120997429,0,0.0,0.0,,,,,0,,1,,
Raw,14336576,14340497000000,,,-1291005709936234496,0.0,82.34078995883465,0.6937723257652784,19.909977532049396,163,22,0.0,15,376850354439736,10,34.2,-52.20332336425781,0.04310000315308571,0,0.0,0.0,,,,,0,,1,,
Raw,14336577,14340497000000,,,-1291005709936234496,0.0,82.34078995883465,0.6937723257652784,19.909977532049396,163,27,0.0,15,376850349414670,70,17.2,-680.6614379882812,1.1799999475479126,0,0.0,0.0,,,,,0,,1,,
Raw,14336577,14340497000000,,,-1291005709936234496,0.0,82.34078995883465,0.6937723257652784,19.909977532049396,163,29,0.0,15,376850356533550,168,15.6,129.2284393310547,6.470500469207764,0,0.0,0.0,,,,,0,,1,,
Raw,14336578,14340497000000,,,-1291005709936234496,0.0,82.34078995883465,0.6937723257652784,19.909977532049396,163,31,0.0,15,376850361732169,53,19.6,62.730308532714844,0.9179999828338623,0,0.0,0.0,,,,,0,,1,,
Raw,14336579,14340497000000,,,-1291005709936234496,0.0,82.34078995883465,0.6937723257652784,19.909977532049396,163,32,0.0,15,376850363785597,121,15.7,264.29888916015625,4.261000156402588,0,0.0,0.0,,,,,0,,1,,
Raw,14336579,14340497000000,,,-1291005709936234496,0.0,82.34078995883465,0.6937723257652784,19.909977532049396,163,2,0.0,783,376836308252489,48,21.3,3.735168218612671,2.253499984741211,0,0.0,0.0,,,,,0,,5,,
Raw,14336580,14340497000000,,,-1291005709936234496,0.0,82.34078995883465,0.6937723257652784,19.909977532049396,163,5,0.0,783,376836300060089,17,28.6,5.799592971801758,0.44350001215934753,0,0.0,0.0,,,,,0,,5,,
Raw,14336581,14340497000000,,,-1291005709936234496,0.0,82.34078995883465,0.6937723257652784,19.909977532049396,163,10,0.0,15,376836308759957,69,18.0,-57.60224914550781,2.428499937057495,0,0.0,0.0,,,,,0,,5,,
Raw,14336581,14340497000000,,,-1291005709936234496,0.0,82.34078995883465,0.6937723257652784,19.909977532049396,163,21,0.0,15,376836358497575,417,14.4,230.5818328857422,12.458500862121582,0,0.0,0.0,,,,,0,,5,,
Raw,14336581,14340497000000,,,-1291005709936234496,0.0,82.34078995883465,0.6937723257652784,19.909977532049396,163,24,0.0,15,376836345715532,6,38.1,-299.8386535644531,0.0276000015437603,0,0.0,0.0,,,,,0,,5,,
Raw,14336582,14340497000000,,,-1291005709936234496,0.0,82.34078995883465,0.6937723257652784,19.909977532049396,163,5,0.0,7183,376850352150676,61,18.0,-296.55364990234375,0.8704999685287476,0,0.0,0.0,,,,,0,,6,,
Raw,14336582,14340497000000,,,-1291005709936234496,0.0,82.34078995883465,0.6937723257652784,19.909977532049396,163,24,0.0,7183,376850353635977,70,17.7,140.97906494140625,0.9419999718666077,0,0.0,0.0,,,,,0,,6,,
Raw,14336583,14340497000000,,,-1291005709936234496,0.0,82.34078995883465,0.6937723257652784,19.909977532049396,163,25,0.0,7183,376850347305700,53,19.2,-244.555908203125,0.8149999976158142,0,0.0,0.0,,,,,0,,6,,
Fix,gps,22.925458,120.294684,47.921448,0.000000,10.720000,1606984833000
NMEA,$GPGSV,3,1,11,03,15,305,22,11,00,000,22,16,39,230,29,22,24,284,34*72,1606984832498
NMEA,$GPGSV,3,2,11,27,04,191,17,29,28,067,16,31,48,007,20,32,59,120,16*73,1606984832498
NMEA,$GPGSV,3,3,11,10,09,172,,25,10,039,,26,69,274,*43,1606984832500
NMEA,$GLGSV,3,1,10,74,35,288,18,75,00,000,30,73,41,357,10,71,69,291,20*69,1606984832501
NMEA,$GLGSV,3,2,10,70,45,174,,82,04,047,,80,09,040,,84,04,146,*62,1606984832501
NMEA,$GLGSV,3,3,10,83,12,091,,72,22,327,*67,1606984832501
NMEA,$GAGSV,2,1,07,05,53,317,18,24,65,330,18,25,33,250,19,03,02,320,*67,1606984832501
NMEA,$GAGSV,2,2,07,04,16,143,,09,70,150,,31,28,033,*58,1606984832501
NMEA,$PQGSV,1,1,03,194,63,032,22,195,35,137,13,193,50,163,,0,5*67,1606984832502
NMEA,$PQGSV,4,1,14,02,40,240,21,05,00,000,29,10,49,232,18,21,60,229,14,0,4*69,1606984832502
NMEA,$PQGSV,4,2,14,24,09,265,38,01,52,129,,03,59,202,,04,37,115,,0,4*6B,1606984832502
NMEA,$PQGSV,4,3,14,07,76,248,,09,56,338,,13,02,208,,16,73,033,,0,4*6A,1606984832503
NMEA,$PQGSV,4,4,14,22,25,168,,26,44,303,,0,4*62,1606984832503
NMEA,$GNGSA,A,3,03,16,22,31,,,,,,,,,2.0,1.8,1.0,1*3D,1606984832504
NMEA,$GNGSA,A,2,74,,,,,,,,,,,,2.0,1.8,1.0,2*3A,1606984832504
NMEA,$GNGSA,A,2,05,25,,,,,,,,,,,2.0,1.8,1.0,3*3A,1606984832505
NMEA,$PQGSA,A,2,24,,,,,,,,,,,,2.0,1.8,1.0,4*31,1606984832505
NMEA,$GNVTG,,T,,M,0.0,N,0.0,K,A*3D,1606984832505
NMEA,$GNRMC,084033.00,A,2255.527506,N,12017.681055,E,0.0,,031220,2.8,W,A*1A,1606984832505
NMEA,$GNGGA,084033.00,2255.527506,N,12017.681055,E,1,08,1.8,30.5,M,17.5,M,,*43,1606984832505
Fix,gps,22.925458,120.294684,47.924744,0.000000,10.720000,1606984834000
Raw,14337625,14341497000000,,,-1291005709936234496,0.0,92.68479334423319,-1.026898252180718,21.105089075160684,163,10,0.0,207,42033362544113,128,17.9,-89.35266876220703,5.7795000076293945,0,0.0,0.0,,,,,0,,3,,
Raw,14337627,14341497000000,,,-1291005709936234496,0.0,92.68479334423319,-1.026898252180718,21.105089075160684,163,11,0.0,207,42033357330220,14,30.6,-281.1328430175781,0.25130000710487366,0,0.0,0.0,,,,,0,,3,,
Raw,14337631,14341497000000,,,-1291005709936234496,0.0,92.68479334423319,-1.026898252180718,21.105089075160684,163,9,0.0,207,42033363626495,923,10.4,301.7728271484375,19.321001052856445,0,0.0,0.0,,,,,0,,3,,
Raw,14337633,14341497000000,,,-1291005709936234496,0.0,92.68479334423319,-1.026898252180718,21.105089075160684,163,7,0.0,207,42033368423817,55,20.2,-100.82050323486328,2.558500051498413,0,0.0,0.0,,,,,0,,3,,
Raw,14337635,14341497000000,,,-1291005709936234496,0.0,92.68479334423319,-1.026898252180718,21.105089075160684,163,3,0.0,15,376851352972532,53,19.7,-269.08477783203125,0.934499979019165,0,0.0,0.0,,,,,0,,1,,
Raw,14337637,14341497000000,,,-1291005709936234496,0.0,92.68479334423319,-1.026898252180718,21.105089075160684,163,16,0.0,15,376851360382362,14,30.3,-477.9313659667969,0.025800000876188278,0,0.0,0.0,,,,,0,,1,,
Raw,14337639,14341497000000,,,-1291005709936234496,0.0,92.68479334423319,-1.026898252180718,21.105089075160684,163,22,0.0,15,376851354439907,10,34.0,-51.722373962402344,0.04310000315308571,0,0.0,0.0,,,,,0,,1,,
Raw,14337641,14341497000000,,,-1291005709936234496,0.0,92.68479334423319,-1.026898252180718,21.105089075160684,163,27,0.0,15,376851349416903,93,15.7,-680.8992919921875,1.2699999809265137,0,0.0,0.0,,,,,0,,1,,
Raw,14337643,14341497000000,,,-1291005709936234496,0.0,92.68479334423319,-1.026898252180718,21.105089075160684,163,31,0.0,15,376851361732054,40,21.7,61.85496139526367,0.7879999876022339,0,0.0,0.0,,,,,0,,1,,
Raw,14337645,14341497000000,,,-1291005709936234496,0.0,92.68479334423319,-1.026898252180718,21.105089075160684,163,32,0.0,15,376851363784701,84,16.6,262.78607177734375,1.9210000038146973,0,0.0,0.0,,,,,0,,1,,
Raw,14337647,14341497000000,,,-1291005709936234496,0.0,92.68479334423319,-1.026898252180718,21.105089075160684,163,2,0.0,783,376837308252476,65,21.3,3.735168218612671,3.75350022315979,0,0.0,0.0,,,,,0,,5,,
Raw,14337649,14341497000000,,,-1291005709936234496,0.0,92.68479334423319,-1.026898252180718,21.105089075160684,163,5,0.0,783,376837300060074,17,28.5,4.20566463470459,0.44350001215934753,0,0.0,0.0,,,,,0,,5,,
Raw,14337652,14341497000000,,,-1291005709936234496,0.0,92.68479334423319,-1.026898252180718,21.105089075160684,163,10,0.0,15,376837308760212,110,14.4,-58.23597717285156,2.0185000896453857,0,0.0,0.0,,,,,0,,5,,
Raw,14337654,14341497000000,,,-1291005709936234496,0.0,92.68479334423319,-1.026898252180718,21.105089075160684,163,21,0.0,15,376837358496806,501,14.4,230.5818328857422,13.958500862121582,0,0.0,0.0,,,,,0,,5,,
Raw,14337655,14341497000000,,,-1291005709936234496,0.0,92.68479334423319,-1.026898252180718,21.105089075160684,163,24,0.0,15,376837345716530,7,37.1,-299.4344482421875,0.02810000069439411,0,0.0,0.0,,,,,0,,5,,
Raw,14337657,14341497000000,,,-1291005709936234496,0.0,92.68479334423319,-1.026898252180718,21.105089075160684,163,5,0.0,7183,376851352151671,61,18.8,-295.53558349609375,0.8704999685287476,0,0.0,0.0,,,,,0,,6,,
Raw,14337659,14341497000000,,,-1291005709936234496,0.0,92.68479334423319,-1.026898252180718,21.105089075160684,163,24,0.0,7183,376851353635566,70,17.4,141.5975341796875,0.9419999718666077,0,0.0,0.0,,,,,0,,6,,
Raw,14337661,14341497000000,,,-1291005709936234496,0.0,92.68479334423319,-1.026898252180718,21.105089075160684,163,25,0.0,7183,376851347306516,61,19.2,-244.555908203125,2.315000057220459,0,0.0,0.0,,,,,0,,6,,
NMEA,$GPGSV,3,1,11,03,15,305,20,11,00,000,22,16,39,230,30,22,24,284,34*78,1606984833507
NMEA,$GPGSV,3,2,11,27,04,191,16,31,48,007,22,32,59,120,17,10,09,172,*7A,1606984833508
NMEA,$GPGSV,3,3,11,25,10,039,,26,69,274,,29,28,067,*4F,1606984833509
NMEA,$GLGSV,3,1,10,74,35,288,18,75,00,000,31,73,41,357,10,71,69,291,20*68,1606984833509
NMEA,$GLGSV,3,2,10,70,45,174,,82,04,047,,80,09,040,,84,04,146,*62,1606984833510
NMEA,$GLGSV,3,3,10,83,12,091,,72,22,327,*67,1606984833511
NMEA,$GAGSV,2,1,07,05,53,317,19,24,65,330,17,25,33,250,19,03,02,320,*69,1606984833513
NMEA,$GAGSV,2,2,07,04,16,143,,09,70,150,,31,28,033,*58,1606984833520
NMEA,$PQGSV,1,1,03,194,63,032,21,195,35,137,13,193,50,163,,0,5*64,1606984833521
NMEA,$PQGSV,4,1,14,02,40,240,21,05,00,000,29,10,49,232,14,21,60,229,14,0,4*65,1606984833522
NMEA,$PQGSV,4,2,14,24,09,265,37,01,52,129,,03,59,202,,04,37,115,,0,4*64,1606984833523
NMEA,$PQGSV,4,3,14,07,76,248,,09,56,338,,13,02,208,,16,73,033,,0,4*6A,1606984833525
NMEA,$PQGSV,4,4,14,22,25,168,,26,44,303,,0,4*62,1606984833526
NMEA,$GNGSA,A,3,03,16,22,31,,,,,,,,,2.0,1.8,1.0,1*3D,1606984833527
NMEA,$GNGSA,A,2,74,,,,,,,,,,,,2.0,1.8,1.0,2*3A,1606984833527
NMEA,$GNGSA,A,2,05,25,,,,,,,,,,,2.0,1.8,1.0,3*3A,1606984833527
NMEA,$PQGSA,A,2,24,,,,,,,,,,,,2.0,1.8,1.0,4*31,1606984833528
NMEA,$GNVTG,,T,,M,0.0,N,0.0,K,A*3D,1606984833528
NMEA,$GNRMC,084034.00,A,2255.527506,N,12017.681050,E,0.0,,031220,2.8,W,A*18,1606984833528
NMEA,$GNGGA,084034.00,2255.527506,N,12017.681050,E,1,08,1.8,30.5,M,17.5,M,,*41,1606984833528
Raw,14338760,14342497000000,,,-1291005709936234496,0.0,88.89913442544639,0.014550193709990666,20.103222321869588,163,10,0.0,207,42034362544411,167,17.9,-89.35266876220703,7.279500484466553,0,0.0,0.0,,,,,0,,3,,
Raw,14338763,14342497000000,,,-1291005709936234496,0.0,88.89913442544639,0.014550193709990666,20.103222321869588,163,11,0.0,207,42034357331120,14,30.1,-279.7048034667969,0.25130000710487366,0,0.0,0.0,,,,,0,,3,,
Raw,14338766,14342497000000,,,-1291005709936234496,0.0,88.89913442544639,0.014550193709990666,20.103222321869588,163,9,0.0,207,42034363625488,1050,10.4,301.7728271484375,20.821001052856445,0,0.0,0.0,,,,,0,,3,,
Raw,14338768,14342497000000,,,-1291005709936234496,0.0,88.89913442544639,0.014550193709990666,20.103222321869588,163,7,0.0,207,42034368424101,73,17.1,-98.52275848388672,2.0385000705718994,0,0.0,0.0,,,,,0,,3,,
Raw,14338771,14342497000000,,,-1291005709936234496,0.0,88.89913442544639,0.014550193709990666,20.103222321869588,163,3,0.0,15,376852352973522,40,21.9,-268.02862548828125,0.8044999837875366,0,0.0,0.0,,,,,0,,1,,
Raw,14338773,14342497000000,,,-1291005709936234496,0.0,88.89913442544639,0.014550193709990666,20.103222321869588,163,16,0.0,15,376852360383949,14,30.6,-476.411865234375,0.025800000876188278,0,0.0,0.0,,,,,0,,1,,
Raw,14338777,14342497000000,,,-1291005709936234496,0.0,88.89913442544639,0.014550193709990666,20.103222321869588,163,22,0.0,15,376852354440070,11,33.9,-50.25005340576172,0.04390000179409981,0,0.0,0.0,,,,,0,,1,,
