# 
# Header Description:
# 
# Version: v2.0.0.1 Platform: 8.0.0 Manufacturer: Sony Model: G8142
# 
# Raw,ElapsedRealtimeMillis,TimeNanos,LeapSecond,TimeUncertaintyNanos,FullBiasNanos,BiasNanos,BiasUncertaintyNanos,DriftNanosPerSecond,DriftUncertaintyNanosPerSecond,HardwareClockDiscontinuityCount,Svid,TimeOffsetNanos,State,ReceivedSvTimeNanos,ReceivedSvTimeUncertaintyNanos,Cn0DbHz,PseudorangeRateMetersPerSecond,PseudorangeRateUncertaintyMetersPerSecond,AccumulatedDeltaRangeState,AccumulatedDeltaRangeMeters,AccumulatedDeltaRangeUncertaintyMeters,CarrierFrequencyHz,CarrierCycles,CarrierPhase,CarrierPhaseUncertainty,MultipathIndicator,SnrInDb,ConstellationType,AgcDb,CarrierFrequencyHz
# 
# Fix,Provider,Latitude,Longitude,Altitude,Speed,Accuracy,(UTC)TimeInMs
# 
# Nav,Svid,Type,Status,MessageId,Sub-messageId,Data(Bytes)
# 
Raw,14731601,14735497000000,,,-1291005709936230912,0.0,74.20789916068316,-2.8223415868256985,16.282639458873632,164,10,0.0,207,42427362643614,216,15.8,-66.9253921508789,8.209500312805176,0,0.0,0.0,,,,,0,,3,,
Raw,14731601,14735497000000,,,-1291005709936230912,0.0,74.20789916068316,-2.8223415868256985,16.282639458873632,164,11,0.0,207,42427357681653,14,30.5,-260.8893737792969,0.25130000710487366,0,0.0,0.0,,,,,0,,3,,
Raw,14731604,14735497000000,,,-1291005709936230912,0.0,74.20789916068316,-2.8223415868256985,16.282639458873632,164,9,0.0,207,42427363224470,148,13.5,305.480712890625,4.396000385284424,0,0.0,0.0,,,,,0,,3,,
Raw,14731604,14735497000000,,,-1291005709936230912,0.0,74.20789916068316,-2.8223415868256985,16.282639458873632,164,7,0.0,207,42427368508990,543,12.0,-36.287532806396484,14.393500328063965,0,0.0,0.0,,,,,0,,3,,
Raw,14731604,14735497000000,,,-1291005709936230912,0.0,74.20789916068316,-2.8223415868256985,16.282639458873632,164,3,0.0,15,377245353296496,24,25.0,-230.8262176513672,0.6360000371932983,0,0.0,0.0,,,,,0,,1,,
Raw,14731604,14735497000000,,,-1291005709936230912,0.0,74.20789916068316,-2.8223415868256985,16.282639458873632,164,16,0.0,15,377245360983922,79,17.7,-443.98370361328125,2.5764999389648438,0,0.0,0.0,,,,,0,,1,,
Raw,14731605,14735497000000,,,-1291005709936230912,0.0,74.20789916068316,-2.8223415868256985,16.282639458873632,164,22,0.0,15,377245354480025,16,29.2,-16.494226455688477,0.047700002789497375,0,0.0,0.0,,,,,0,,1,,
Raw,14731605,14735497000000,,,-1291005709936230912,0.0,74.20789916068316,-2.8223415868256985,16.282639458873632,164,26,0.0,15,377245365422024,40,21.8,-16.70778465270996,0.793999969959259,0,0.0,0.0,,,,,0,,1,,
Raw,14731605,14735497000000,,,-1291005709936230912,0.0,74.20789916068316,-2.8223415868256985,16.282639458873632,164,27,0.0,15,377245350316282,79,17.1,-693.5823974609375,2.68149995803833,0,0.0,0.0,,,,,0,,1,,
Raw,14731605,14735497000000,,,-1291005709936230912,0.0,74.20789916068316,-2.8223415868256985,16.282639458873632,164,31,0.0,15,377245361642981,521,16.6,63.51051330566406,14.668000221252441,0,0.0,0.0,,,,,0,,1,,
Raw,14731605,14735497000000,,,-1291005709936230912,0.0,74.20789916068316,-2.8223415868256985,16.282639458873632,164,32,0.0,15,377245363408982,40,21.6,300.9779968261719,0.7910000085830688,0,0.0,0.0,,,,,0,,1,,
Raw,14731606,14735497000000,,,-1291005709936230912,0.0,74.20789916068316,-2.8223415868256985,16.282639458873632,164,2,0.0,783,377231308245731,486,19.4,-9.976451873779297,14.37350082397461,0,0.0,0.0,,,,,0,,5,,
Raw,14731606,14735497000000,,,-1291005709936230912,0.0,74.20789916068316,-2.8223415868256985,16.282639458873632,164,5,0.0,783,377231300049781,33,27.2,4.330490589141846,2.7335000038146973,0,0.0,0.0,,,,,0,,5,,
Raw,14731606,14735497000000,,,-1291005709936230912,0.0,74.20789916068316,-2.8223415868256985,16.282639458873632,164,7,0.0,15,377231312190298,80,16.3,10.485356330871582,1.094499945640564,0,0.0,0.0,,,,,0,,5,,
Raw,14731606,14735497000000,,,-1291005709936230912,0.0,74.20789916068316,-2.8223415868256985,16.282639458873632,164,9,0.0,15,377231311648238,70,17.9,-153.44915771484375,0.9329999685287476,0,0.0,0.0,,,,,0,,5,,
Raw,14731606,14735497000000,,,-1291005709936230912,0.0,74.20789916068316,-2.8223415868256985,16.282639458873632,164,10,0.0,15,377231308826974,1090,12.2,-49.36375427246094,21.423500061035156,0,0.0,0.0,,,,,0,,5,,
Raw,14731607,14735497000000,,,-1291005709936230912,0.0,74.20789916068316,-2.8223415868256985,16.282639458873632,164,13,0.0,15,377231295353473,1423,13.4,195.55380249023438,24.869001388549805,0,0.0,0.0,,,,,0,,5,,
Raw,14731607,14735497000000,,,-1291005709936230912,0.0,74.20789916068316,-2.8223415868256985,16.282639458873632,164,14,0.0,15,377231347265384,102,15.6,-459.7425537109375,2.677000045776367,0,0.0,0.0,,,,,0,,5,,
Raw,14731607,14735497000000,,,-1291005709936230912,0.0,74.20789916068316,-2.8223415868256985,16.282639458873632,164,21,0.0,15,377231358164720,149,14.2,268.7784729003906,5.048500061035156,0,0.0,0.0,,,,,0,,5,,
Raw,14731607,14735497000000,,,-1291005709936230912,0.0,74.20789916068316,-2.8223415868256985,16.282639458873632,164,24,0.0,15,377231346100833,102,15.5,-291.01666259765625,2.6755001544952393,0,0.0,0.0,,,,,0,,5,,
Raw,14731607,14735497000000,,,-1291005709936230912,0.0,74.20789916068316,-2.8223415868256985,16.282639458873632,164,26,0.0,15,377231357379352,313,14.4,-78.21768951416016,10.282000541687012,0,0.0,0.0,,,,,0,,5,,
Raw,14731608,14735497000000,,,-1291005709936230912,0.0,74.20789916068316,-2.8223415868256985,16.282639458873632,164,25,0.0,7183,377245347610476,21,26.7,-224.52586364746094,0.1397000104188919,0,0.0,0.0,,,,,0,,6,,
Fix,gps,22.925458,120.294697,46.563843,0.000000,10.720000,1606985228000
NMEA,$GPGSV,3,1,10,03,16,303,25,16,40,233,18,22,24,281,29,26,70,281,22*7F,1606985227498
NMEA,$GPGSV,3,2,10,27,07,191,17,31,48,011,17,32,56,123,22,10,07,171,*7F,1606985227498
NMEA,$GPGSV,3,3,10,25,08,040,,29,27,064,*7F,1606985227498
NMEA,$GLGSV,3,1,10,74,36,292,16,75,00,000,31,73,39,001,14,71,70,279,12*6A,1606985227499
NMEA,$GLGSV,3,2,10,70,41,174,,82,04,045,,80,07,043,,84,05,143,*6D,1606985227499
NMEA,$GLGSV,3,3,10,83,14,088,,72,25,326,*6F,1606985227499
NMEA,$GAGSV,2,1,07,25,33,254,27,03,04,320,,04,14,143,,05,55,314,*6F,1606985227499
NMEA,$GAGSV,2,2,07,09,67,153,,24,63,336,,31,27,035,*54,1606985227499
NMEA,$PQGSV,1,1,03,193,49,164,16,194,63,032,18,195,36,136,16,0,5*61,1606985227500
NMEA,$PQGSV,4,1,15,02,40,240,19,05,00,000,27,07,76,254,16,09,57,338,18,0,4*6A,1606985227500
NMEA,$PQGSV,4,2,15,10,50,234,12,13,01,206,13,14,13,316,16,21,58,224,14,0,4*65,1606985227500
NMEA,$PQGSV,4,3,15,24,11,268,16,26,44,307,14,01,52,129,,03,59,202,,0,4*63,1606985227500
NMEA,$PQGSV,4,4,15,04,37,115,,16,74,035,,22,23,167,,0,4*59,1606985227500
NMEA,$GNGSA,A,3,03,16,22,26,32,,,,,,,,2.0,1.8,0.9,1*32,1606985227501
NMEA,$GNGSA,A,2,25,,,,,,,,,,,,2.0,1.8,0.9,3*37,1606985227501
NMEA,$PQGSA,A,2,24,,,,,,,,,,,,2.0,1.8,0.9,4*39,1606985227501
NMEA,$GNVTG,,T,,M,0.0,N,0.0,K,A*3D,1606985227502
NMEA,$GNRMC,084708.00,A,2255.527460,N,12017.681817,E,0.0,,031220,2.8,W,A*1A,1606985227502
NMEA,$GNGGA,084708.00,2255.527460,N,12017.681817,E,1,07,1.8,29.1,M,17.5,M,,*40,1606985227502
Raw,14732579,14736497000000,,,-1291005709936230912,0.0,77.5278895162046,-3.4356222068027473,18.159694599758147,164,10,0.0,207,42428362643837,271,15.8,-66.9253921508789,9.709500312805176,0,0.0,0.0,,,,,0,,3,,
Raw,14732579,14736497000000,,,-1291005709936230912,0.0,77.5278895162046,-3.4356222068027473,18.159694599758147,164,11,0.0,207,42428357682561,14,30.7,-261.06549072265625,0.25130000710487366,0,0.0,0.0,,,,,0,,3,,
Raw,14732579,14736497000000,,,-1291005709936230912,0.0,77.5278895162046,-3.4356222068027473,18.159694599758147,164,9,0.0,207,42428363223451,177,13.5,305.480712890625,5.896000385284424,0,0.0,0.0,,,,,0,,3,,
Raw,14732579,14736497000000,,,-1291005709936230912,0.0,77.5278895162046,-3.4356222068027473,18.159694599758147,164,7,0.0,207,42428368509253,124,14.3,-35.09196090698242,3.7135002613067627,0,0.0,0.0,,,,,0,,3,,
Raw,14732580,14736497000000,,,-1291005709936230912,0.0,77.5278895162046,-3.4356222068027473,18.159694599758147,164,3,0.0,15,377246353297251,27,24.5,-230.68350219726562,0.6360000371932983,0,0.0,0.0,,,,,0,,1,,
Raw,14732580,14736497000000,,,-1291005709936230912,0.0,77.5278895162046,-3.4356222068027473,18.159694599758147,164,16,0.0,15,377246360985111,96,15.9,-443.8124084472656,2.006500005722046,0,0.0,0.0,,,,,0,,1,,
Raw,14732580,14736497000000,,,-1291005709936230912,0.0,77.5278895162046,-3.4356222068027473,18.159694599758147,164,22,0.0,15,377246354480073,16,29.1,-16.637685775756836,0.047700002789497375,0,0.0,0.0,,,,,0,,1,,
Raw,14732580,14736497000000,,,-1291005709936230912,0.0,77.5278895162046,-3.4356222068027473,18.159694599758147,164,26,0.0,15,377246365422121,46,20.2,-16.12738800048828,0.9239999651908875,0,0.0,0.0,,,,,0,,1,,
Raw,14732580,14736497000000,,,-1291005709936230912,0.0,77.5278895162046,-3.4356222068027473,18.159694599758147,164,27,0.0,15,377246350318575,96,15.1,-694.8859252929688,2.121500015258789,0,0.0,0.0,,,,,0,,1,,
Raw,14732581,14736497000000,,,-1291005709936230912,0.0,77.5278895162046,-3.4356222068027473,18.159694599758147,164,31,0.0,15,377246361642770,620,16.6,63.51051330566406,16.168001174926758,0,0.0,0.0,,,,,0,,1,,
Raw,14732581,14736497000000,,,-1291005709936230912,0.0,77.5278895162046,-3.4356222068027473,18.159694599758147,164,32,0.0,15,377246363407889,61,18.3,301.4156799316406,1.0809999704360962,0,0.0,0.0,,,,,0,,1,,
Raw,14732581,14736497000000,,,-1291005709936230912,0.0,77.5278895162046,-3.4356222068027473,18.159694599758147,164,2,0.0,783,377232308245765,584,19.4,-9.976451873779297,15.87350082397461,0,0.0,0.0,,,,,0,,5,,
Raw,14732581,14736497000000,,,-1291005709936230912,0.0,77.5278895162046,-3.4356222068027473,18.159694599758147,164,5,0.0,783,377232300049778,21,27.3,2.2564640045166016,1.2335000038146973,0,0.0,0.0,,,,,0,,5,,
Raw,14732581,14736497000000,,,-1291005709936230912,0.0,77.5278895162046,-3.4356222068027473,18.159694599758147,164,7,0.0,15,377232312190312,61,18.0,9.045060157775879,0.934499979019165,0,0.0,0.0,,,,,0,,5,,
Raw,14732582,14736497000000,,,-1291005709936230912,0.0,77.5278895162046,-3.4356222068027473,18.159694599758147,164,9,0.0,15,377232311648750,78,17.9,-153.44915771484375,2.433000087738037,0,0.0,0.0,,,,,0,,5,,
Raw,14732582,14736497000000,,,-1291005709936230912,0.0,77.5278895162046,-3.4356222068027473,18.159694599758147,164,10,0.0,15,377232308827139,1233,12.2,-49.36375427246094,22.92350196838379,0,0.0,0.0,,,,,0,,5,,
Raw,14732582,14736497000000,,,-1291005709936230912,0.0,77.5278895162046,-3.4356222068027473,18.159694599758147,164,13,0.0,15,377232295352821,1589,13.4,195.55380249023438,26.369001388549805,0,0.0,0.0,,,,,0,,5,,
Raw,14732582,14736497000000,,,-1291005709936230912,0.0,77.5278895162046,-3.4356222068027473,18.159694599758147,164,14,0.0,15,377232347266909,70,17.5,-460.4435119628906,1.0069999694824219,0,0.0,0.0,,,,,0,,5,,
Raw,14732582,14736497000000,,,-1291005709936230912,0.0,77.5278895162046,-3.4356222068027473,18.159694599758147,164,21,0.0,15,377232358163824,183,14.2,268.7784729003906,6.548500061035156,0,0.0,0.0,,,,,0,,5,,
Raw,14732582,14736497000000,,,-1291005709936230912,0.0,77.5278895162046,-3.4356222068027473,18.159694599758147,164,24,0.0,15,377232346101872,84,16.6,-291.86163330078125,1.8355000019073486,0,0.0,0.0,,,,,0,,5,,
Raw,14732583,14736497000000,,,-1291005709936230912,0.0,77.5278895162046,-3.4356222068027473,18.159694599758147,164,26,0.0,15,377232357379606,184,12.2,-78.16007232666016,5.267000198364258,0,0.0,0.0,,,,,0,,5,,
Raw,14732583,14736497000000,,,-1291005709936230912,0.0,77.5278895162046,-3.4356222068027473,18.159694599758147,164,25,0.0,7183,377246347611244,21,26.9,-225.63661193847656,0.1397000104188919,0,0.0,0.0,,,,,0,,6,,
Fix,gps,22.925458,120.294697,46.568359,0.000000,10.720000,1606985229000
NMEA,$GPGSV,3,1,10,03,16,303,25,16,40,233,16,22,24,281,29,26,70,281,20*73,1606985228497
NMEA,$GPGSV,3,2,10,27,07,191,15,31,48,011,17,32,56,123,18,10,07,171,*74,1606985228497
NMEA,$GPGSV,3,3,10,25,08,040,,29,27,064,*7F,1606985228497
NMEA,$GLGSV,3,1,10,74,36,292,16,75,00,000,31,73,39,001,14,71,70,279,14*6C,1606985228497
NMEA,$GLGSV,3,2,10,70,41,174,,82,04,045,,80,07,043,,84,05,143,*6D,1606985228497
NMEA,$GLGSV,3,3,10,83,14,088,,72,25,326,*6F,1606985228498
NMEA,$GAGSV,2,1,07,25,33,254,27,03,04,320,,04,14,143,,05,55,314,*6F,1606985228498
NMEA,$GAGSV,2,2,07,09,67,153,,24,63,336,,31,27,035,*54,1606985228498
NMEA,$PQGSV,1,1,03,193,49,164,16,194,63,032,18,195,36,136,16,0,5*61,1606985228499
NMEA,$PQGSV,4,1,15,02,40,240,19,05,00,000,27,07,76,254,18,09,57,338,18,0,4*64,1606985228499
NMEA,$PQGSV,4,2,15,10,50,234,12,13,01,206,13,14,13,316,18,21,58,224,14,0,4*6B,1606985228499
NMEA,$PQGSV,4,3,15,24,11,268,17,26,44,307,12,01,52,129,,03,59,202,,0,4*64,1606985228499
NMEA,$PQGSV,4,4,15,04,37,115,,16,74,035,,22,23,167,,0,4*59,1606985228501
NMEA,$GNGSA,A,3,03,16,22,26,32,,,,,,,,2.0,1.8,0.9,1*32,1606985228502
NMEA,$GNGSA,A,2,25,,,,,,,,,,,,2.0,1.8,0.9,3*37,1606985228503
NMEA,$PQGSA,A,2,24,,,,,,,,,,,,2.0,1.8,0.9,4*39,1606985228503
NMEA,$GNVTG,,T,,M,0.0,N,0.0,K,A*3D,1606985228503
NMEA,$GNRMC,084709.00,A,2255.527460,N,12017.681815,E,0.0,,031220,2.8,W,A*19,1606985228503
NMEA,$GNGGA,084709.00,2255.527460,N,12017.681815,E,1,07,1.8,29.1,M,17.5,M,,*43,1606985228503
Raw,14733779,14737497000000,,,-1291005709936230912,0.0,79.91619349922985,-4.282396874281363,18.039311660852587,164,10,0.0,207,42429362643762,186,12.7,-69.91757202148438,5.549500465393066,0,0.0,0.0,,,,,0,,3,,
Raw,14733780,14737497000000,,,-1291005709936230912,0.0,79.91619349922985,-4.282396874281363,18.039311660852587,164,11,0.0,207,42429357683425,14,30.6,-260.547119140625,0.25130000710487366,0,0.0,0.0,,,,,0,,3,,
Raw,14733780,14737497000000,,,-1291005709936230912,0.0,79.91619349922985,-4.282396874281363,18.039311660852587,164,9,0.0,207,42429363222432,216,13.5,305.480712890625,7.396000385284424,0,0.0,0.0,,,,,0,,3,,
Raw,14733780,14737497000000,,,-1291005709936230912,0.0,79.91619349922985,-4.282396874281363,18.039311660852587,164,7,0.0,207,42429368509370,149,14.3,-35.09196090698242,5.213500022888184,0,0.0,0.0,,,,,0,,3,,
Raw,14733780,14737497000000,,,-1291005709936230912,0.0,79.91619349922985,-4.282396874281363,18.039311660852587,164,3,0.0,15,377247353298072,31,23.9,-230.02699279785156,0.6859999895095825,0,0.0,0.0,,,,,0,,1,,
Raw,14733780,14737497000000,,,-1291005709936230912,0.0,79.91619349922985,-4.282396874281363,18.039311660852587,164,16,0.0,15,377247360986731,92,15.9,-443.43182373046875,1.256500005722046,0,0.0,0.0,,,,,0,,1,,
Raw,14733781,14737497000000,,,-1291005709936230912,0.0,79.91619349922985,-4.282396874281363,18.039311660852587,164,22,0.0,15,377247354480144,17,28.8,-16.18100929260254,0.05430000275373459,0,0.0,0.0,,,,,0,,1,,
Raw,14733781,14737497000000,,,-1291005709936230912,0.0,79.91619349922985,-4.282396874281363,18.039311660852587,164,26,0.0,15,377247365422202,35,22.3,-15.737287521362305,0.793999969959259,0,0.0,0.0,,,,,0,,1,,
Raw,14733781,14737497000000,,,-1291005709936230912,0.0,79.91619349922985,-4.282396874281363,18.039311660852587,164,27,0.0,15,377247350320893,111,15.1,-694.8859252929688,3.621500253677368,0,0.0,0.0,,,,,0,,1,,
Raw,14733781,14737497000000,,,-1291005709936230912,0.0,79.91619349922985,-4.282396874281363,18.039311660852587,164,31,0.0,15,377247361642558,729,16.6,63.51051330566406,17.668001174926758,0,0.0,0.0,,,,,0,,1,,
Raw,14733781,14737497000000,,,-1291005709936230912,0.0,79.91619349922985,-4.282396874281363,18.039311660852587,164,32,0.0,15,377247363407099,53,19.3,302.04364013671875,1.0010000467300415,0,0.0,0.0,,,,,0,,1,,
Raw,14733781,14737497000000,,,-1291005709936230912,0.0,79.91619349922985,-4.282396874281363,18.039311660852587,164,2,0.0,783,377233308245798,692,19.4,-9.976451873779297,17.37350082397461,0,0.0,0.0,,,,,0,,5,,
Raw,14733782,14737497000000,,,-1291005709936230912,0.0,79.91619349922985,-4.282396874281363,18.039311660852587,164,5,0.0,783,377233300049766,19,27.6,2.6501450538635254,0.48350000381469727,0,0.0,0.0,,,,,0,,5,,
Raw,14733782,14737497000000,,,-1291005709936230912,0.0,79.91619349922985,-4.282396874281363,18.039311660852587,164,7,0.0,15,377233312190290,70,17.2,9.890033721923828,1.0145000219345093,0,0.0,0.0,,,,,0,,5,,
Raw,14733782,14737497000000,,,-1291005709936230912,0.0,79.91619349922985,-4.282396874281363,18.039311660852587,164,9,0.0,15,377233311649262,96,17.9,-153.44915771484375,3.933000087738037,0,0.0,0.0,,,,,0,,5,,
Raw,14733782,14737497000000,,,-1291005709936230912,0.0,79.91619349922985,-4.282396874281363,18.039311660852587,164,10,0.0,15,377233308827304,1386,12.2,-49.36375427246094,24.42350196838379,0,0.0,0.0,,,,,0,,5,,
Raw,14733782,14737497000000,,,-1291005709936230912,0.0,79.91619349922985,-4.282396874281363,18.039311660852587,164,13,0.0,15,377233295352169,1766,13.4,195.55380249023438,27.869001388549805,0,0.0,0.0,,,,,0,,5,,
Raw,14733783,14737497000000,,,-1291005709936230912,0.0,79.91619349922985,-4.282396874281363,18.039311660852587,164,14,0.0,15,377233347268445,78,17.5,-460.4435119628906,2.507000207901001,0,0.0,0.0,,,,,0,,5,,
Raw,14733783,14737497000000,,,-1291005709936230912,0.0,79.91619349922985,-4.282396874281363,18.039311660852587,164,21,0.0,15,377233358162927,228,14.2,268.7784729003906,8.048500061035156,0,0.0,0.0,,,,,0,,5,,
Raw,14733783,14737497000000,,,-1291005709936230912,0.0,79.91619349922985,-4.282396874281363,18.039311660852587,164,24,0.0,15,377233346102863,70,17.0,-293.1194763183594,1.005500078201294,0,0.0,0.0,,,,,0,,5,,
Raw,14733783,14737497000000,,,-1291005709936230912,0.0,79.91619349922985,-4.282396874281363,18.039311660852587,164,26,0.0,15,377233357379867,219,12.2,-78.16007232666016,6.767000198364258,0,0.0,0.0,,,,,0,,5,,
Raw,14733783,14737497000000,,,-1291005709936230912,0.0,79.91619349922985,-4.282396874281363,18.039311660852587,164,25,0.0,7183,377247347611986,21,26.7,-226.0139923095703,0.1397000104188919,0,0.0,0.0,,,,,0,,6,,
Fix,gps,22.925458,120.294697,46.570190,0.000000,11.792000,1606985230000
NMEA,$GPGSV,3,1,10,03,16,303,24,16,40,233,16,22,24,281,29,26,70,281,22*70,1606985229497
NMEA,$GPGSV,3,2,10,27,07,191,15,31,48,011,17,32,56,123,19,10,07,171,*75,1606985229498
NMEA,$GPGSV,3,3,10,25,08,040,,29,27,064,*7F,1606985229498
NMEA,$GLGSV,3,1,10,74,36,292,13,75,00,000,31,73,39,001,14,71,70,279,14*69,1606985229500
NMEA,$GLGSV,3,2,10,70,41,174,,82,04,045,,80,07,043,,84,05,143,*6D,1606985229500
NMEA,$GLGSV,3,3,10,83,14,088,,72,25,326,*6F,1606985229501
NMEA,$GAGSV,2,1,07,25,33,254,27,03,04,320,,04,14,143,,05,55,314,*6F,1606985229501
NMEA,$GAGSV,2,2,07,09,67,153,,24,63,336,,31,27,035,*54,1606985229501
NMEA,$PQGSV,1,1,03,193,49,164,13,195,36,136,16,194,63,032,,0,5*6D,1606985229501
NMEA,$PQGSV,4,1,15,02,40,240,19,05,00,000,28,07,76,254,17,09,57,338,18,0,4*64,1606985229502
NMEA,$PQGSV,4,2,15,10,50,234,12,13,01,206,13,14,13,316,18,21,58,224,14,0,4*6B,1606985229502
NMEA,$PQGSV,4,3,15,24,11,268,17,26,44,307,12,01,52,129,,03,59,202,,0,4*64,1606985229502
NMEA,$PQGSV,4,4,15,04,37,115,,16,74,035,,22,23,167,,0,4*59,1606985229502
NMEA,$GNGSA,A,3,03,16,22,26,32,,,,,,,,2.0,1.8,0.9,1*32,1606985229503
NMEA,$GNGSA,A,2,25,,,,,,,,,,,,2.0,1.8,0.9,3*37,1606985229504
NMEA,$PQGSA,A,2,24,,,,,,,,,,,,2.0,1.8,0.9,4*39,1606985229504
NMEA,$GNVTG,,T,,M,0.0,N,0.0,K,A*3D,1606985229504
NMEA,$GNRMC,084710.00,A,2255.527461,N,12017.681815,E,0.0,,031220,2.8,W,A*10,1606985229504
NMEA,$GNGGA,084710.00,2255.527461,N,12017.681815,E,1,07,1.8,29.1,M,17.5,M,,*4A,1606985229504
Raw,14734591,14738497000000,,,-1291005709936230912,0.0,88.47173012327403,-5.197883628020585,19.51933500663988,164,10,0.0,207,42430362643995,222,12.7,-69.91757202148438,7.049500465393066,0,0.0,0.0,,,,,0,,3,,
Raw,14734592,14738497000000,,,-1291005709936230912,0.0,88.47173012327403,-5.197883628020585,19.51933500663988,164,11,0.0,207,42430357684279,16,29.7,-260.450927734375,0.25220000743865967,0,0.0,0.0,,,,,0,,3,,
Raw,14734592,14738497000000,,,-1291005709936230912,0.0,88.47173012327403,-5.197883628020585,19.51933500663988,164,9,0.0,207,42430363221645,117,14.4,304.4226379394531,3.061000108718872,0,0.0,0.0,,,,,0,,3,,
Raw,14734592,14738497000000,,,-1291005709936230912,0.0,88.47173012327403,-5.197883628020585,19.51933500663988,164,7,0.0,207,42430368509487,183,14.3,-35.09196090698242,6.713500499725342,0,0.0,0.0,,,,,0,,3,,
Raw,14734592,14738497000000,,,-1291005709936230912,0.0,88.47173012327403,-5.197883628020585,19.51933500663988,164,3,0.0,15,377248353298823,27,24.8,-229.86524963378906,0.6360000371932983,0,0.0,0.0,,,,,0,,1,,
Raw,14734592,14738497000000,,,-1291005709936230912,0.0,88.47173012327403,-5.197883628020585,19.51933500663988,164,16,0.0,15,377248360988292,61,18.8,-442.92755126953125,0.9965000152587891,0,0.0,0.0,,,,,0,,1,,
Raw,14734593,14738497000000,,,-1291005709936230912,0.0,88.47173012327403,-5.197883628020585,19.51933500663988,164,22,0.0,15,377248354480177,17,28.6,-15.95316219329834,0.05430000275373459,0,0.0,0.0,,,,,0,,1,,
Raw,14734593,14738497000000,,,-1291005709936230912,0.0,88.47173012327403,-5.197883628020585,19.51933500663988,164,26,0.0,15,377248365422163,35,22.1,-15.937094688415527,0.793999969959259,0,0.0,0.0,,,,,0,,1,,
Raw,14734593,14738497000000,,,-1291005709936230912,0.0,88.47173012327403,-5.197883628020585,19.51933500663988,164,27,0.0,15,377248350323318,126,13.6,-694.0105590820312,2.24150013923645,0,0.0,0.0,,,,,0,,1,,
Raw,14734593,14738497000000,,,-1291005709936230912,0.0,88.47173012327403,-5.197883628020585,19.51933500663988,164,31,0.0,15,377248361642346,848,16.6,63.51051330566406,19.168001174926758,0,0.0,0.0,,,,,0,,1,,
Raw,14734593,14738497000000,,,-1291005709936230912,0.0,88.47173012327403,-5.197883628020585,19.51933500663988,164,32,0.0,15,377248363406085,53,19.4,302.4813232421875,1.0010000467300415,0,0.0,0.0,,,,,0,,1,,
Raw,14734594,14738497000000,,,-1291005709936230912,0.0,88.47173012327403,-5.197883628020585,19.51933500663988,164,2,0.0,783,377234308245831,810,19.4,-9.976451873779297,18.87350082397461,0,0.0,0.0,,,,,0,,5,,
Raw,14734594,14738497000000,,,-1291005709936230912,0.0,88.47173012327403,-5.197883628020585,19.51933500663988,164,5,0.0,783,377234300049755,17,28.0,0.21124345064163208,0.44350001215934753,0,0.0,0.0,,,,,0,,5,,
Raw,14734594,14738497000000,,,-1291005709936230912,0.0,88.47173012327403,-5.197883628020585,19.51933500663988,164,7,0.0,15,377234312190145,70,17.7,9.630781173706055,1.0145000219345093,0,0.0,0.0,,,,,0,,5,,
Raw,14734594,14738497000000,,,-1291005709936230912,0.0,88.47173012327403,-5.197883628020585,19.51933500663988,164,9,0.0,15,377234311649788,89,16.1,-152.2489013671875,2.5929999351501465,0,0.0,0.0,,,,,0,,5,,
Raw,14734594,14738497000000,,,-1291005709936230912,0.0,88.47173012327403,-5.197883628020585,19.51933500663988,164,10,0.0,15,377234308827468,1549,12.2,-49.36375427246094,25.92350196838379,0,0.0,0.0,,,,,0,,5,,
Raw,14734595,14738497000000,,,-1291005709936230912,0.0,88.47173012327403,-5.197883628020585,19.51933500663988,164,13,0.0,15,377234295351516,1952,13.4,195.55380249023438,29.369001388549805,0,0.0,0.0,,,,,0,,5,,
Raw,14734595,14738497000000,,,-1291005709936230912,0.0,88.47173012327403,-5.197883628020585,19.51933500663988,164,14,0.0,15,377234347269914,84,16.6,-460.04022216796875,1.8370000123977661,0,0.0,0.0,,,,,0,,5,,
Raw,14734595,14738497000000,,,-1291005709936230912,0.0,88.47173012327403,-5.197883628020585,19.51933500663988,164,21,0.0,15,377234358162031,283,14.2,268.7784729003906,9.548500061035156,0,0.0,0.0,,,,,0,,5,,
Raw,14734595,14738497000000,,,-1291005709936230912,0.0,88.47173012327403,-5.197883628020585,19.51933500663988,164,24,0.0,15,377234346103856,61,18.5,-292.50494384765625,0.9254999756813049,0,0.0,0.0,,,,,0,,5,,
Raw,14734595,14738497000000,,,-1291005709936230912,0.0,88.47173012327403,-5.197883628020585,19.51933500663988,164,26,0.0,15,377234357380100,84,16.4,-79.98445129394531,1.8519999980926514,0,0.0,0.0,,,,,0,,5,,
Raw,14734595,14738497000000,,,-1291005709936230912,0.0,88.47173012327403,-5.197883628020585,19.51933500663988,164,25,0.0,7183,377248347612723,24,25.9,-226.61558532714844,0.41030001640319824,0,0.0,0.0,,,,,0,,6,,
Fix,gps,22.925458,120.294697,46.565063,0.000000,11.792000,1606985231000
NMEA,$GPGSV,3,1,10,03,16,303,25,16,40,233,19,22,24,281,29,26,70,281,22*7E,1606985230505
NMEA,$GPGSV,3,2,10,27,07,191,14,31,48,011,17,32,56,123,19,10,07,171,*74,1606985230506
NMEA,$GPGSV,3,3,10,25,08,040,,29,27,064,*7F,1606985230506
NMEA,$GLGSV,3,1,10,74,36,292,13,75,00,000,30,73,39,001,14,71,70,279,14*68,1606985230506
NMEA,$GLGSV,3,2,10,70,41,174,,82,04,045,,80,07,043,,84,05,143,*6D,1606985230506
NMEA,$GLGSV,3,3,10,83,14,088,,72,25,326,*6F,1606985230506
NMEA,$GAGSV,2,1,07,25,33,254,26,03,04,320,,04,14,143,,05,55,314,*6E,1606985230506
NMEA,$GAGSV,2,2,07,09,67,153,,24,63,336,,31,27,035,*54,1606985230507
NMEA,$PQGSV,1,1,03,193,49,164,13,195,36,136,16,194,63,032,,0,5*6D,1606985230507
NMEA,$PQGSV,4,1,15,02,40,240,19,05,00,000,28,07,76,254,18,09,57,338,16,0,4*65,1606985230507
NMEA,$PQGSV,4,2,15,10,50,234,12,13,01,206,13,14,13,316,17,21,58,224,14,0,4*64,1606985230507
NMEA,$PQGSV,4,3,15,24,11,268,19,26,44,307,16,01,52,129,,03,59,202,,0,4*6E,1606985230508
NMEA,$PQGSV,4,4,15,04,37,115,,16,74,035,,22,23,167,,0,4*59,1606985230508
NMEA,$GNGSA,A,3,03,16,22,26,32,,,,,,,,2.0,1.8,0.9,1*32,1606985230510
NMEA,$GNGSA,A,2,25,,,,,,,,,,,,2.0,1.8,0.9,3*37,1606985230511
NMEA,$PQGSA,A,2,24,,,,,,,,,,,,2.0,1.8,0.9,4*39,1606985230511
NMEA,$GNVTG,,T,,M,0.0,N,0.0,K,A*3D,1606985230511
NMEA,$GNRMC,084711.00,A,2255.527461,N,12017.681818,E,0.0,,031220,2.8,W,A*1C,1606985230511
NMEA,$GNGGA,084711.00,2255.527461,N,12017.681818,E,1,07,1.8,29.1,M,17.5,M,,*46,1606985230512
Raw,14735579,14739497000000,,,-1291005709936230912,0.0,93.35407958133146,-5.700918926471535,19.887641332342042,164,10,0.0,207,42431362644228,268,12.7,-69.91757202148438,8.549500465393066,0,0.0,0.0,,,,,0,,3,,
Raw,14735579,14739497000000,,,-1291005709936230912,0.0,93.35407958133146,-5.700918926471535,19.887641332342042,164,11,0.0,207,42431357685158,14,30.3,-259.274169921875,0.25130000710487366,0,0.0,0.0,,,,,0,,3,,
Raw,14735580,14739497000000,,,-1291005709936230912,0.0,93.35407958133146,-5.700918926471535,19.887641332342042,164,9,0.0,207,42431363220630,137,14.4,304.4226379394531,4.561000347137451,0,0.0,0.0,,,,,0,,3,,
Raw,14735580,14739497000000,,,-1291005709936230912,0.0,93.35407958133146,-5.700918926471535,19.887641332342042,164,7,0.0,207,42431368509604,228,14.3,-35.09196090698242,8.213500022888184,0,0.0,0.0,,,,,0,,3,,
Raw,14735580,14739497000000,,,-1291005709936230912,0.0,93.35407958133146,-5.700918926471535,19.887641332342042,164,3,0.0,15,377249353299599,27,24.3,-228.96136474609375,0.6859999895095825,0,0.0,0.0,,,,,0,,1,,
Raw,14735580,14739497000000,,,-1291005709936230912,0.0,93.35407958133146,-5.700918926471535,19.887641332342042,164,16,0.0,15,377249360989788,61,18.5,-442.356689453125,0.9965000152587891,0,0.0,0.0,,,,,0,,1,,
Raw,14735580,14739497000000,,,-1291005709936230912,0.0,93.35407958133146,-5.700918926471535,19.887641332342042,164,22,0.0,15,377249354480241,17,28.7,-14.739771842956543,0.05430000275373459,0,0.0,0.0,,,,,0,,1,,
Raw,14735580,14739497000000,,,-1291005709936230912,0.0,93.35407958133146,-5.700918926471535,19.887641332342042,164,26,0.0,15,377249365422274,35,22.1,-14.804847717285156,0.793999969959259,0,0.0,0.0,,,,,0,,1,,
Raw,14735581,14739497000000,,,-1291005709936230912,0.0,93.35407958133146,-5.700918926471535,19.887641332342042,164,27,0.0,15,377249350325477,80,16.9,-692.697509765625,1.18149995803833,0,0.0,0.0,,,,,0,,1,,
Raw,14735581,14739497000000,,,-1291005709936230912,0.0,93.35407958133146,-5.700918926471535,19.887641332342042,164,31,0.0,15,377249361642134,977,16.6,63.51051330566406,20.668001174926758,0,0.0,0.0,,,,,0,,1,,
Raw,14735581,14739497000000,,,-1291005709936230912,0.0,93.35407958133146,-5.700918926471535,19.887641332342042,164,32,0.0,15,377249363404952,53,19.4,302.985595703125,1.0010000467300415,0,0.0,0.0,,,,,0,,1,,
Raw,14735581,14739497000000,,,-1291005709936230912,0.0,93.35407958133146,-5.700918926471535,19.887641332342042,164,2,0.0,783,377235308245864,938,19.4,-9.976451873779297,20.37350082397461,0,0.0,0.0,,,,,0,,5,,
Raw,14735581,14739497000000,,,-1291005709936230912,0.0,93.35407958133146,-5.700918926471535,19.887641332342042,164,5,0.0,783,377235300049724,17,28.1,8.305707931518555,0.44350001215934753,0,0.0,0.0,,,,,0,,5,,
Raw,14735581,14739497000000,,,-1291005709936230912,0.0,93.35407958133146,-5.700918926471535,19.887641332342042,164,7,0.0,15,377235312190219,80,16.3,11.637593269348145,1.094499945640564,0,0.0,0.0,,,,,0,,5,,
Raw,14735582,14739497000000,,,-1291005709936230912,0.0,93.35407958133146,-5.700918926471535,19.887641332342042,164,9,0.0,15,377235311650296,108,16.1,-152.2489013671875,4.0929999351501465,0,0.0,0.0,,,,,0,,5,,
Raw,14735582,14739497000000,,,-1291005709936230912,0.0,93.35407958133146,-5.700918926471535,19.887641332342042,164,10,0.0,15,377235308827633,1723,12.2,-49.36375427246094,27.42350196838379,0,0.0,0.0,,,,,0,,5,,
Raw,14735583,14739497000000,,,-1291005709936230912,0.0,93.35407958133146,-5.700918926471535,19.887641332342042,164,13,0.0,15,377235295350864,2149,13.4,195.55380249023438,30.869001388549805,0,0.0,0.0,,,,,0,,5,,
Raw,14735583,14739497000000,,,-1291005709936230912,0.0,93.35407958133146,-5.700918926471535,19.887641332342042,164,14,0.0,15,377235347271448,97,16.6,-460.04022216796875,3.3370001316070557,0,0.0,0.0,,,,,0,,5,,
Raw,14735583,14739497000000,,,-1291005709936230912,0.0,93.35407958133146,-5.700918926471535,19.887641332342042,164,21,0.0,15,377235358161241,121,15.4,267.0885314941406,4.19350004196167,0,0.0,0.0,,,,,0,,5,,
Raw,14735583,14739497000000,,,-1291005709936230912,0.0,93.35407958133146,-5.700918926471535,19.887641332342042,164,24,0.0,15,377235346104832,69,18.5,-292.50494384765625,2.4255001544952393,0,0.0,0.0,,,,,0,,5,,
Raw,14735583,14739497000000,,,-1291005709936230912,0.0,93.35407958133146,-5.700918926471535,19.887641332342042,164,26,0.0,15,377235357380366,97,16.4,-79.98445129394531,3.3519999980926514,0,0.0,0.0,,,,,0,,5,,
Raw,14735583,14739497000000,,,-1291005709936230912,0.0,93.35407958133146,-5.700918926471535,19.887641332342042,164,25,0.0,7183,377249347613496,21,26.9,-225.7573699951172,0.1397000104188919,0,0.0,0.0,,,,,0,,6,,
Fix,gps,22.925458,120.294697,46.567871,0.000000,11.792000,1606985232000
NMEA,$GPGSV,3,1,10,03,16,303,24,16,40,233,19,22,24,281,29,26,70,281,22*7F,1606985231497
NMEA,$GPGSV,3,2,10,27,07,191,17,31,48,011,17,32,56,123,19,10,07,171,*77,1606985231497
NMEA,$GPGSV,3,3,10,25,08,040,,29,27,064,*7F,1606985231499
NMEA,$GLGSV,3,1,10,74,36,292,13,75,00,000,30,73,39,001,14,71,70,279,14*68,1606985231500
NMEA,$GLGSV,3,2,10,70,41,174,,82,04,045,,80,07,043,,84,05,143,*6D,1606985231501
NMEA,$GLGSV,3,3,10,83,14,088,,72,25,326,*6F,1606985231501
NMEA,$GAGSV,2,1,07,25,33,254,27,03,04,320,,04,14,143,,05,55,314,*6F,1606985231501
NMEA,$GAGSV,2,2,07,09,67,153,,24,63,336,,31,27,035,*54,1606985231501
NMEA,$PQGSV,1,1,03,193,49,164,13,195,36,136,19,194,63,032,,0,5*62,1606985231501
NMEA,$PQGSV,4,1,15,02,40,240,19,05,00,000,28,07,76,254,16,09,57,338,16,0,4*6B,1606985231502
NMEA,$PQGSV,4,2,15,10,50,234,12,13,01,206,13,14,13,316,17,21,58,224,15,0,4*65,1606985231502
NMEA,$PQGSV,4,3,15,24,11,268,19,26,44,307,16,01,52,129,,03,59,202,,0,4*6E,1606985231502
NMEA,$PQGSV,4,4,15,04,37,115,,16,74,035,,22,23,167,,0,4*59,1606985231502
NMEA,$GNGSA,A,3,03,16,22,26,32,,,,,,,,2.0,1.8,0.9,1*32,1606985231503
NMEA,$GNGSA,A,2,25,,,,,,,,,,,,2.0,1.8,0.9,3*37,1606985231504
NMEA,$PQGSA,A,2,24,,,,,,,,,,,,2.0,1.8,0.9,4*39,1606985231504
NMEA,$GNVTG,,T,,M,0.0,N,0.0,K,A*3D,1606985231504
NMEA,$GNRMC,084712.00,A,2255.527461,N,12017.681819,E,0.0,,031220,2.8,W,A*1E,1606985231504
NMEA,$GNGGA,084712.00,2255.527461,N,12017.681819,E,1,07,1.8,29.1,M,17.5,M,,*44,1606985231504
Raw,14736783,14740497000000,,,-1291005709936230912,0.0,96.3924394454807,-4.493497660823387,22.451893682595124,164,10,0.0,207,42432362644719,132,13.3,-69.91757202148438,3.179500102996826,0,0.0,0.0,,,,,0,,3,,
Raw,14736783,14740497000000,,,-1291005709936230912,0.0,96.3924394454807,-4.493497660823387,22.451893682595124,164,11,0.0,207,42432357686004,14,30.2,-259.39691162109375,0.25130000710487366,0,0.0,0.0,,,,,0,,3,,
Raw,14736783,14740497000000,,,-1291005709936230912,0.0,96.3924394454807,-4.493497660823387,22.451893682595124,164,9,0.0,207,42432363219461,84,16.2,305.2560119628906,2.121000051498413,0,0.0,0.0,,,,,0,,3,,
Raw,14736783,14740497000000,,,-1291005709936230912,0.0,96.3924394454807,-4.493497660823387,22.451893682595124,164,7,0.0,207,42432368509315,142,13.8,-35.26008605957031,3.938500165939331,0,0.0,0.0,,,,,0,,3,,
Raw,14736783,14740497000000,,,-1291005709936230912,0.0,96.3924394454807,-4.493497660823387,22.451893682595124,164,3,0.0,15,377250353300341,27,24.9,-228.7425079345703,0.6360000371932983,0,0.0,0.0,,,,,0,,1,,
Raw,14736783,14740497000000,,,-1291005709936230912,0.0,96.3924394454807,-4.493497660823387,22.451893682595124,164,16,0.0,15,377250360991190,70,17.4,-441.0341491699219,1.1664999723434448,0,0.0,0.0,,,,,0,,1,,
Raw,14736784,14740497000000,,,-1291005709936230912,0.0,96.3924394454807,-4.493497660823387,22.451893682595124,164,22,0.0,15,377250354480293,19,27.6,-14.817431449890137,0.062300004065036774,0,0.0,0.0,,,,,0,,1,,
Raw,14736784,14740497000000,,,-1291005709936230912,0.0,96.3924394454807,-4.493497660823387,22.451893682595124,164,26,0.0,15,377250365422348,46,20.2,-15.394758224487305,0.9239999651908875,0,0.0,0.0,,,,,0,,1,,
Raw,14736784,14740497000000,,,-1291005709936230912,0.0,96.3924394454807,-4.493497660823387,22.451893682595124,164,27,0.0,15,377250350327788,90,16.9,-692.697509765625,2.68149995803833,0,0.0,0.0,,,,,0,,1,,
Raw,14736784,14740497000000,,,-1291005709936230912,0.0,96.3924394454807,-4.493497660823387,22.451893682595124,164,31,0.0,15,377250361641922,1117,16.6,63.51051330566406,22.168001174926758,0,0.0,0.0,,,,,0,,1,,
Raw,14736785,14740497000000,,,-1291005709936230912,0.0,96.3924394454807,-4.493497660823387,22.451893682595124,164,32,0.0,15,377250363404052,53,19.1,303.20440673828125,1.0010000467300415,0,0.0,0.0,,,,,0,,1,,
Raw,14736785,14740497000000,,,-1291005709936230912,0.0,96.3924394454807,-4.493497660823387,22.451893682595124,164,2,0.0,783,377236308245898,1076,19.4,-9.976451873779297,21.87350082397461,0,0.0,0.0,,,,,0,,5,,
Raw,14736785,14740497000000,,,-1291005709936230912,0.0,96.3924394454807,-4.493497660823387,22.451893682595124,164,5,0.0,783,377236300049717,17,28.1,4.186460971832275,0.44350001215934753,0,0.0,0.0,,,,,0,,5,,
Raw,14736785,14740497000000,,,-1291005709936230912,0.0,96.3924394454807,-4.493497660823387,22.451893682595124,164,7,0.0,15,377236312190167,70,17.0,9.438741683959961,1.0145000219345093,0,0.0,0.0,,,,,0,,5,,
Raw,14736785,14740497000000,,,-1291005709936230912,0.0,96.3924394454807,-4.493497660823387,22.451893682595124,164,9,0.0,15,377236311650804,137,16.1,-152.2489013671875,5.5929999351501465,0,0.0,0.0,,,,,0,,5,,
Raw,14736785,14740497000000,,,-1291005709936230912,0.0,96.3924394454807,-4.493497660823387,22.451893682595124,164,10,0.0,15,377236308827798,1906,12.2,-49.36375427246094,28.92350196838379,0,0.0,0.0,,,,,0,,5,,
Raw,14736786,14740497000000,,,-1291005709936230912,0.0,96.3924394454807,-4.493497660823387,22.451893682595124,164,13,0.0,15,377236295350212,2355,13.4,195.55380249023438,32.36900329589844,0,0.0,0.0,,,,,0,,5,,
Raw,14736786,14740497000000,,,-1291005709936230912,0.0,96.3924394454807,-4.493497660823387,22.451893682595124,164,14,0.0,15,377236347272983,121,16.6,-460.04022216796875,4.836999893188477,0,0.0,0.0,,,,,0,,5,,
Raw,14736786,14740497000000,,,-1291005709936230912,0.0,96.3924394454807,-4.493497660823387,22.451893682595124,164,21,0.0,15,377236358160350,150,15.4,267.0885314941406,5.69350004196167,0,0.0,0.0,,,,,0,,5,,
Raw,14736786,14740497000000,,,-1291005709936230912,0.0,96.3924394454807,-4.493497660823387,22.451893682595124,164,24,0.0,15,377236346105900,96,15.0,-290.776611328125,1.9255000352859497,0,0.0,0.0,,,,,0,,5,,
Raw,14736786,14740497000000,,,-1291005709936230912,0.0,96.3924394454807,-4.493497660823387,22.451893682595124,164,26,0.0,15,377236357380633,121,16.4,-79.98445129394531,4.8520002365112305,0,0.0,0.0,,,,,0,,5,,
Raw,14736786,14740497000000,,,-1291005709936230912,0.0,96.3924394454807,-4.493497660823387,22.451893682595124,164,25,0.0,7183,377250347614258,24,25.3,-224.24388122558594,0.4253000020980835,0,0.0,0.0,,,,,0,,6,,
Fix,gps,22.925458,120.294697,46.567261,0.000000,12.864000,1606985233000
NMEA,$GPGSV,3,1,10,03,16,303,25,16,40,233,17,22,24,281,28,26,70,281,20*73,1606985232498
NMEA,$GPGSV,3,2,10,27,07,191,17,31,48,011,17,32,56,123,19,10,07,171,*77,1606985232499
NMEA,$GPGSV,3,3,10,25,08,040,,29,27,064,*7F,1606985232499
NMEA,$GLGSV,3,1,10,74,36,292,13,75,00,000,30,73,39,001,16,71,70,279,14*6A,1606985232499
NMEA,$GLGSV,3,2,10,70,41,174,,82,04,045,,80,07,043,,84,05,143,*6D,1606985232499
NMEA,$GLGSV,3,3,10,83,14,088,,72,25,326,*6F,1606985232499
NMEA,$GAGSV,2,1,07,25,33,254,25,03,04,320,,04,14,143,,05,55,314,*6D,1606985232500
NMEA,$GAGSV,2,2,07,09,67,153,,24,63,336,,31,27,035,*54,1606985232500
NMEA,$PQGSV,1,1,03,193,49,164,13,195,36,136,19,194,63,032,,0,5*62,1606985232500
NMEA,$PQGSV,4,1,15,02,40,240,19,05,00,000,28,07,76,254,17,09,57,338,16,0,4*6A,1606985232500
NMEA,$PQGSV,4,2,15,10,50,234,12,13,01,206,13,14,13,316,17,21,58,224,15,0,4*65,1606985232501
NMEA,$PQGSV,4,3,15,24,11,268,15,26,44,307,16,01,52,129,,03,59,202,,0,4*62,1606985232501
NMEA,$PQGSV,4,4,15,04,37,115,,16,74,035,,22,23,167,,0,4*59,1606985232501
NMEA,$GNGSA,A,3,03,16,22,26,32,,,,,,,,2.0,1.8,0.9,1*32,1606985232502
NMEA,$GNGSA,A,2,25,,,,,,,,,,,,2.0,1.8,0.9,3*37,1606985232503
NMEA,$PQGSA,A,2,24,,,,,,,,,,,,2.0,1.8,0.9,4*39,1606985232503
NMEA,$GNVTG,,T,,M,0.0,N,0.0,K,A*3D,1606985232503
NMEA,$GNRMC,084713.00,A,2255.527462,N,12017.681821,E,0.0,,031220,2.8,W,A*17,1606985232503
NMEA,$GNGGA,084713.00,2255.527462,N,12017.681821,E,1,07,1.8,29.1,M,17.5,M,,*4D,1606985232503
Raw,14737570,14741497000000,,,-1291005709936231168,0.0,96.60708019509912,-4.453056144497873,20.63054304830827,164,10,0.0,207,42433362644952,153,13.3,-69.91757202148438,4.679500102996826,0,0.0,0.0,,,,,0,,3,,
Raw,14737571,14741497000000,,,-1291005709936231168,0.0,96.60708019509912,-4.453056144497873,20.63054304830827,164,11,0.0,207,42433357686895,14,30.7,-261.8258361816406,0.25130000710487366,0,0.0,0.0,,,,,0,,3,,
Raw,14737571,14741497000000,,,-1291005709936231168,0.0,96.60708019509912,-4.453056144497873,20.63054304830827,164,9,0.0,207,42433363218619,70,17.9,302.9057922363281,1.281000018119812,0,0.0,0.0,,,,,0,,3,,
Raw,14737572,14741497000000,,,-1291005709936231168,0.0,96.60708019509912,-4.453056144497873,20.63054304830827,164,7,0.0,207,42433368509433,167,13.8,-35.26008605957031,5.43850040435791,0,0.0,0.0,,,,,0,,3,,
Raw,14737572,14741497000000,,,-1291005709936231168,0.0,96.60708019509912,-4.453056144497873,20.63054304830827,164,3,0.0,15,377251353301115,27,24.0,-230.64544677734375,0.6859999895095825,0,0.0,0.0,,,,,0,,1,,
Raw,14737572,14741497000000,,,-1291005709936231168,0.0,96.60708019509912,-4.453056144497873,20.63054304830827,164,16,0.0,15,377251360992709,61,18.2,-443.6031188964844,1.0764999389648438,0,0.0,0.0,,,,,0,,1,,
Raw,14737573,14741497000000,,,-1291005709936231168,0.0,96.60708019509912,-4.453056144497873,20.63054304830827,164,22,0.0,15,377251354480310,19,27.5,-15.229316711425781,0.062300004065036774,0,0.0,0.0,,,,,0,,1,,
Raw,14737573,14741497000000,,,-1291005709936231168,0.0,96.60708019509912,-4.453056144497873,20.63054304830827,164,26,0.0,15,377251365422319,35,22.2,-16.88856315612793,0.793999969959259,0,0.0,0.0,,,,,0,,1,,
Raw,14737574,14741497000000,,,-1291005709936231168,0.0,96.60708019509912,-4.453056144497873,20.63054304830827,164,27,0.0,15,377251350330098,109,16.9,-692.697509765625,4.18149995803833,0,0.0,0.0,,,,,0,,1,,
Raw,14737574,14741497000000,,,-1291005709936231168,0.0,96.60708019509912,-4.453056144497873,20.63054304830827,164,31,0.0,15,377251361641710,1266,16.6,63.51051330566406,23.668001174926758,0,0.0,0.0,,,,,0,,1,,
Raw,14737575,14741497000000,,,-1291005709936231168,0.0,96.60708019509912,-4.453056144497873,20.63054304830827,164,32,0.0,15,377251363402936,46,20.4,300.67352294921875,0.9210000038146973,0,0.0,0.0,,,,,0,,1,,
Raw,14737575,14741497000000,,,-1291005709936231168,0.0,96.60708019509912,-4.453056144497873,20.63054304830827,164,25,0.0,7183,377251347614983,24,25.0,-226.40188598632812,0.5249999761581421,0,0.0,0.0,,,,,0,,6,,
Fix,gps,22.925458,120.294697,46.564636,0.000000,12.864000,1606985234000
NMEA,$GPGSV,3,1,10,03,16,303,24,16,40,233,18,22,24,281,28,26,70,281,22*7F,1606985233496
NMEA,$GPGSV,3,2,10,27,07,191,17,31,48,011,17,32,56,123,20,10,07,171,*7D,1606985233502
NMEA,$GPGSV,3,3,10,25,08,040,,29,27,064,*7F,1606985233502
NMEA,$GLGSV,3,1,10,74,36,292,13,75,00,000,31,73,39,001,18,71,70,279,14*65,1606985233502
NMEA,$GLGSV,3,2,10,70,41,174,,82,04,045,,80,07,043,,84,05,143,*6D,1606985233503
NMEA,$GLGSV,3,3,10,83,14,088,,72,25,326,*6F,1606985233503
NMEA,$GAGSV,2,1,07,25,33,254,25,03,04,320,,04,14,143,,05,55,314,*6D,1606985233503
NMEA,$GAGSV,2,2,07,09,67,153,,24,63,336,,31,27,035,*54,1606985233503
NMEA,$PQGSV,1,1,03,193,49,164,14,195,36,136,17,194,63,032,,0,5*6B,1606985233503
NMEA,$PQGSV,4,1,16,02,40,240,19,05,00,000,28,06,74,047,13,07,76,254,18,0,4*66,1606985233504
NMEA,$PQGSV,4,2,16,09,57,338,16,10,50,234,12,13,01,206,13,14,13,316,17,0,4*6C,1606985233504
NMEA,$PQGSV,4,3,16,21,58,224,15,24,11,268,15,26,44,307,16,01,52,129,,0,4*60,1606985233504
NMEA,$PQGSV,4,4,16,03,59,202,,04,37,115,,16,74,035,,22,23,167,,0,4*65,1606985233504
NMEA,$GNGSA,A,3,03,16,22,26,32,,,,,,,,2.0,1.8,0.9,1*32,1606985233506
NMEA,$GNGSA,A,2,25,,,,,,,,,,,,2.0,1.8,0.9,3*37,1606985233506
NMEA,$PQGSA,A,2,24,,,,,,,,,,,,2.0,1.8,0.9,4*39,1606985233506
NMEA,$GNVTG,,T,,M,0.0,N,0.0,K,A*3D,1606985233506
NMEA,$GNRMC,084714.00,A,2255.527462,N,12017.681822,E,0.0,,031220,2.8,W,A*13,1606985233507
NMEA,$GNGGA,084714.00,2255.527462,N,12017.681822,E,1,07,1.8,29.1,M,17.5,M,,*49,1606985233508
Raw,14738573,14742497000000,,,-1291005709936231168,0.0,95.38832819089293,-6.301641100474478,19.366835529637697,164,10,0.0,207,42434362645186,184,13.3,-69.91757202148438,6.179500102996826,0,0.0,0.0,,,,,0,,3,,
Raw,14738573,14742497000000,,,-1291005709936231168,0.0,95.38832819089293,-6.301641100474478,19.366835529637697,164,11,0.0,207,42434357687768,17,28.9,-261.3536376953125,0.2738000154495239,0,0.0,0.0,,,,,0,,3,,
Raw,14738574,14742497000000,,,-1291005709936231168,0.0,95.38832819089293,-6.301641100474478,19.366835529637697,164,9,0.0,207,42434363217495,53,19.2,304.1885681152344,1.121000051498413,0,0.0,0.0,,,,,0,,3,,
Raw,14738574,14742497000000,,,-1291005709936231168,0.0,95.38832819089293,-6.301641100474478,19.366835529637697,164,7,0.0,207,42434368509550,203,13.8,-35.26008605957031,6.93850040435791,0,0.0,0.0,,,,,0,,3,,
Raw,14738575,14742497000000,,,-1291005709936231168,0.0,95.38832819089293,-6.301641100474478,19.366835529637697,164,3,0.0,15,377252353301847,24,25.6,-230.49920654296875,0.40130001306533813,0,0.0,0.0,,,,,0,,1,,
Raw,14738575,14742497000000,,,-1291005709936231168,0.0,95.38832819089293,-6.301641100474478,19.366835529637697,164,16,0.0,15,377252360994210,61,18.8,-444.94464111328125,0.9965000152587891,0,0.0,0.0,,,,,0,,1,,
Raw,14738575,14742497000000,,,-1291005709936231168,0.0,95.38832819089293,-6.301641100474478,19.366835529637697,164,22,0.0,15,377252354480408,16,29.6,-16.622140884399414,0.047700002789497375,0,0.0,0.0,,,,,0,,1,,
Raw,14738576,14742497000000,,,-1291005709936231168,0.0,95.38832819089293,-6.301641100474478,19.366835529637697,164,26,0.0,15,377252365422404,27,24.9,-17.2501220703125,0.6240000128746033,0,0.0,0.0,,,,,0,,1,,
Raw,14738576,14742497000000,,,-1291005709936231168,0.0,95.38832819089293,-6.301641100474478,19.366835529637697,164,27,0.0,15,377252350332459,90,16.5,-694.2864379882812,2.68149995803833,0,0.0,0.0,,,,,0,,1,,
Raw,14738576,14742497000000,,,-1291005709936231168,0.0,95.38832819089293,-6.301641100474478,19.366835529637697,164,31,0.0,15,377252361641499,1425,16.6,63.51051330566406,25.168001174926758,0,0.0,0.0,,,,,0,,1,,
Raw,14738577,14742497000000,,,-1291005709936231168,0.0,95.38832819089293,-6.301641100474478,19.366835529637697,164,32,0.0,15,377252363401951,53,19.8,300.0645751953125,0.9210000038146973,0,0.0,0.0,,,,,0,,1,,
Raw,14738577,14742497000000,,,-1291005709936231168,0.0,95.38832819089293,-6.301641100474478,19.366835529637697,164,2,0.0,783,377238308245964,1383,19.4,-9.976451873779297,24.87350082397461,0,0.0,0.0,,,,,0,,5,,
Raw,14738578,14742497000000,,,-1291005709936231168,0.0,95.38832819089293,-6.301641100474478,19.366835529637697,164,5,0.0,783,377238300049711,16,29.5,3.504720687866211,0.4284999966621399,0,0.0,0.0,,,,,0,,5,,
Raw,14738578,14742497000000,,,-1291005709936231168,0.0,95.38832819089293,-6.301641100474478,19.366835529637697,164,6,0.0,15,377238313220171,1487,12.3,-99.0635757446289,9.521000862121582,0,0.0,0.0,,,,,0,,5,,
Raw,14738578,14742497000000,,,-1291005709936231168,0.0,95.38832819089293,-6.301641100474478,19.366835529637697,164,7,0.0,15,377238312190097,53,19.3,8.593767166137695,0.8644999861717224,0,0.0,0.0,,,,,0,,5,,
Raw,14738579,14742497000000,,,-1291005709936231168,0.0,95.38832819089293,-6.301641100474478,19.366835529637697,164,9,0.0,15,377238311651796,120,15.9,-151.63438415527344,4.0929999351501465,0,0.0,0.0,,,,,0,,5,,
Raw,14738579,14742497000000,,,-1291005709936231168,0.0,95.38832819089293,-6.301641100474478,19.366835529637697,164,10,0.0,15,377238308828127,2302,12.2,-49.36375427246094,31.92350196838379,0,0.0,0.0,,,,,0,,5,,
Raw,14738579,14742497000000,,,-1291005709936231168,0.0,95.38832819089293,-6.301641100474478,19.366835529637697,164,13,0.0,15,377238295348907,2798,13.4,195.55380249023438,35.36900329589844,0,0.0,0.0,,,,,0,,5,,
Raw,14738580,14742497000000,,,-1291005709936231168,0.0,95.38832819089293,-6.301641100474478,19.366835529637697,164,14,0.0,15,377238347276052,199,16.6,-460.04022216796875,7.837000370025635,0,0.0,0.0,,,,,0,,5,,
Raw,14738580,14742497000000,,,-1291005709936231168,0.0,95.38832819089293,-6.301641100474478,19.366835529637697,164,21,0.0,15,377238358158552,89,16.6,266.896484375,2.6035001277923584,0,0.0,0.0,,,,,0,,5,,
Raw,14738580,14742497000000,,,-1291005709936231168,0.0,95.38832819089293,-6.301641100474478,19.366835529637697,164,24,0.0,15,377238346107757,43,21.7,-293.91644287109375,1.4854999780654907,0,0.0,0.0,,,,,0,,5,,
Raw,14738581,14742497000000,,,-1291005709936231168,0.0,95.38832819089293,-6.301641100474478,19.366835529637697,164,26,0.0,15,377238357381167,199,16.4,-79.98445129394531,7.8520002365112305,0,0.0,0.0,,,,,0,,5,,
Raw,14738581,14742497000000,,,-1291005709936231168,0.0,95.38832819089293,-6.301641100474478,19.366835529637697,164,25,0.0,7183,377252347615777,27,24.2,-226.43043518066406,0.5699999928474426,0,0.0,0.0,,,,,0,,6,,
Fix,gps,22.925458,120.294697,46.567322,0.000000,12.864000,1606985235000
NMEA,$GPGSV,3,1,10,03,16,303,26,16,40,233,19,22,24,281,30,26,70,281,25*72,1606985234495
NMEA,$GPGSV,3,2,10,27,07,191,17,31,48,011,17,32,56,123,20,10,07,171,*7D,1606985234496
NMEA,$GPGSV,3,3,10,25,08,040,,29,27,064,*7F,1606985234497
NMEA,$GLGSV,3,1,10,74,36,292,13,75,00,000,29,73,39,001,19,71,70,279,14*6D,1606985234497
NMEA,$GLGSV,3,2,10,70,41,174,,82,04,045,,80,07,043,,84,05,143,*6D,1606985234497
NMEA,$GLGSV,3,3,10,83,14,088,,72,25,326,*6F,1606985234499
NMEA,$GAGSV,2,1,07,25,33,254,24,03,04,320,,04,14,143,,05,55,314,*6C,1606985234500
NMEA,$GAGSV,2,2,07,09,67,153,,24,63,336,,31,27,035,*54,1606985234500
NMEA,$PQGSV,1,1,03,193,49,164,14,195,36,136,17,194,63,032,,0,5*6B,1606985234500
NMEA,$PQGSV,4,1,16,02,40,240,19,05,00,000,30,06,74,047,12,07,76,254,19,0,4*6F,1606985234501
NMEA,$PQGSV,4,2,16,09,57,338,16,10,50,234,12,13,01,206,13,14,13,316,17,0,4*6C,1606985234501
NMEA,$PQGSV,4,3,16,21,58,224,17,24,11,268,22,26,44,307,16,01,52,129,,0,4*66,1606985234501
NMEA,$PQGSV,4,4,16,03,59,202,,04,37,115,,16,74,035,,22,23,167,,0,4*65,1606985234501
NMEA,$GNGSA,A,3,03,16,22,26,32,,,,,,,,2.0,1.8,0.9,1*32,1606985234502
NMEA,$GNGSA,A,2,25,,,,,,,,,,,,2.0,1.8,0.9,3*37,1606985234502
NMEA,$PQGSA,A,2,24,,,,,,,,,,,,2.0,1.8,0.9,4*39,1606985234503
NMEA,$GNVTG,,T,,M,0.0,N,0.0,K,A*3D,1606985234503
NMEA,$GNRMC,084715.00,A,2255.527462,N,12017.681823,E,0.0,,031220,2.8,W,A*13,1606985234503
NMEA,$GNGGA,084715.00,2255.527462,N,12017.681823,E,1,07,1.8,29.1,M,17.5,M,,*49,1606985234507
NMEA,$GPGSV,3,1,10,03,16,303,24,16,40,233,23,22,24,281,29,26,70,281,24*70,1606985235502
Raw,14739832,14743497000000,,,-1291005709936231168,0.0,94.77570711169392,-10.264003877848696,21.0565388964334,164,10,0.0,207,42435362645419,224,13.3,-69.91757202148438,7.679500579833984,0,0.0,0.0,,,,,0,,3,,
Raw,14739833,14743497000000,,,-1291005709936231168,0.0,94.77570711169392,-10.264003877848696,21.0565388964334,164,11,0.0,207,42435357688603,17,28.7,-262.8668518066406,0.2738000154495239,0,0.0,0.0,,,,,0,,3,,
Raw,14739834,14743497000000,,,-1291005709936231168,0.0,94.77570711169392,-10.264003877848696,21.0565388964334,164,9,0.0,207,42435363216670,61,18.6,301.548095703125,1.2010000944137573,0,0.0,0.0,,,,,0,,3,,
Raw,14739834,14743497000000,,,-1291005709936231168,0.0,94.77570711169392,-10.264003877848696,21.0565388964334,164,7,0.0,207,42435368509668,249,13.8,-35.26008605957031,8.43850040435791,0,0.0,0.0,,,,,0,,3,,
Raw,14739835,14743497000000,,,-1291005709936231168,0.0,94.77570711169392,-10.264003877848696,21.0565388964334,164,3,0.0,15,377253353302654,27,24.3,-231.7491455078125,0.6859999895095825,0,0.0,0.0,,,,,0,,1,,
Raw,14739835,14743497000000,,,-1291005709936231168,0.0,94.77570711169392,-10.264003877848696,21.0565388964334,164,16,0.0,15,377253360995579,31,23.0,-445.5631103515625,0.7264999747276306,0,0.0,0.0,,,,,0,,1,,
Raw,14739836,14743497000000,,,-1291005709936231168,0.0,94.77570711169392,-10.264003877848696,21.0565388964334,164,22,0.0,15,377253354480443,16,29.2,-18.25727081298828,0.047700002789497375,0,0.0,0.0,,,,,0,,1,,
Raw,14739837,14743497000000,,,-1291005709936231168,0.0,94.77570711169392,-10.264003877848696,21.0565388964334,164,26,0.0,15,377253365422390,31,23.9,-17.65925407409668,0.6739999651908875,0,0.0,0.0,,,,,0,,1,,
Raw,14739838,14743497000000,,,-1291005709936231168,0.0,94.77570711169392,-10.264003877848696,21.0565388964334,164,27,0.0,15,377253350334898,61,18.4,-696.2845458984375,1.091499924659729,0,0.0,0.0,,,,,0,,1,,
Raw,14739839,14743497000000,,,-1291005709936231168,0.0,94.77570711169392,-10.264003877848696,21.0565388964334,164,31,0.0,15,377253361641287,1594,16.6,63.51051330566406,26.668001174926758,0,0.0,0.0,,,,,0,,1,,
Raw,14739839,14743497000000,,,-1291005709936231168,0.0,94.77570711169392,-10.264003877848696,21.0565388964334,164,32,0.0,15,377253363401006,61,18.1,301.60595703125,1.0809999704360962,0,0.0,0.0,,,,,0,,1,,
Raw,14739840,14743497000000,,,-1291005709936231168,0.0,94.77570711169392,-10.264003877848696,21.0565388964334,164,2,0.0,783,377239308245997,1551,19.4,-9.976451873779297,26.37350082397461,0,0.0,0.0,,,,,0,,5,,
Raw,14739841,14743497000000,,,-1291005709936231168,0.0,94.77570711169392,-10.264003877848696,21.0565388964334,164,5,0.0,783,377239300049705,16,29.5,3.30307936668396,0.4284999966621399,0,0.0,0.0,,,,,0,,5,,
Raw,14739841,14743497000000,,,-1291005709936231168,0.0,94.77570711169392,-10.264003877848696,21.0565388964334,164,6,0.0,15,377239313220516,340,12.2,-99.20761108398438,10.271000862121582,0,0.0,0.0,,,,,0,,5,,
Raw,14739842,14743497000000,,,-1291005709936231168,0.0,94.77570711169392,-10.264003877848696,21.0565388964334,164,7,0.0,15,377239312190078,70,17.2,6.308497905731201,1.0145000219345093,0,0.0,0.0,,,,,0,,5,,
Raw,14739843,14743497000000,,,-1291005709936231168,0.0,94.77570711169392,-10.264003877848696,21.0565388964334,164,9,0.0,15,377239311652302,149,15.9,-151.63438415527344,5.5929999351501465,0,0.0,0.0,,,,,0,,5,,
Raw,14739843,14743497000000,,,-1291005709936231168,0.0,94.77570711169392,-10.264003877848696,21.0565388964334,164,10,0.0,15,377239308828292,2515,12.2,-49.36375427246094,33.423500061035156,0,0.0,0.0,,,,,0,,5,,
Raw,14739844,14743497000000,,,-1291005709936231168,0.0,94.77570711169392,-10.264003877848696,21.0565388964334,164,13,0.0,15,377239295348255,3035,13.4,195.55380249023438,36.86900329589844,0,0.0,0.0,,,,,0,,5,,
Raw,14739844,14743497000000,,,-1291005709936231168,0.0,94.77570711169392,-10.264003877848696,21.0565388964334,164,14,0.0,15,377239347277586,252,16.6,-460.04022216796875,9.336999893188477,0,0.0,0.0,,,,,0,,5,,
Raw,14739845,14743497000000,,,-1291005709936231168,0.0,94.77570711169392,-10.264003877848696,21.0565388964334,164,21,0.0,15,377239358157667,61,18.6,264.00628662109375,0.9584999680519104,0,0.0,0.0,,,,,0,,5,,
Raw,14739845,14743497000000,,,-1291005709936231168,0.0,94.77570711169392,-10.264003877848696,21.0565388964334,164,24,0.0,15,377239346108748,27,24.8,-294.93426513671875,0.5354999899864197,0,0.0,0.0,,,,,0,,5,,
Raw,14739846,14743497000000,,,-1291005709936231168,0.0,94.77570711169392,-10.264003877848696,21.0565388964334,164,26,0.0,15,377239357381434,253,16.4,-79.98445129394531,9.35200023651123,0,0.0,0.0,,,,,0,,5,,
Raw,14739847,14743497000000,,,-1291005709936231168,0.0,94.77570711169392,-10.264003877848696,21.0565388964334,164,25,0.0,7183,377253347616521,31,23.1,-227.88619995117188,0.6200000047683716,0,0.0,0.0,,,,,0,,6,,
Fix,gps,22.925458,120.294699,47.905029,0.000000,12.864000,1606985236000
NMEA,$GPGSV,3,2,10,27,07,191,18,31,48,011,17,32,56,123,18,10,07,171,*79,1606985235502
NMEA,$GPGSV,3,3,10,25,08,040,,29,27,064,*7F,1606985235502
NMEA,$GLGSV,3,1,10,74,36,292,13,75,00,000,29,73,39,001,19,71,70,279,14*6D,1606985235502
NMEA,$GLGSV,3,2,10,70,41,174,,82,04,045,,80,07,043,,84,05,143,*6D,1606985235506
NMEA,$GLGSV,3,3,10,83,14,088,,72,25,326,*6F,1606985235507
NMEA,$GAGSV,2,1,07,25,33,254,23,03,04,320,,04,14,143,,05,55,314,*6B,1606985235507
NMEA,$GAGSV,2,2,07,09,67,153,,24,63,336,,31,27,035,*54,1606985235507
NMEA,$PQGSV,1,1,03,193,49,164,14,195,36,136,17,194,63,032,,0,5*6B,1606985235507
NMEA,$PQGSV,4,1,16,02,40,240,19,05,00,000,30,06,74,047,12,07,76,254,17,0,4*61,1606985235508
NMEA,$PQGSV,4,2,16,09,57,338,16,10,50,234,12,13,01,206,13,14,13,316,17,0,4*6C,1606985235509
NMEA,$PQGSV,4,3,16,21,58,224,19,24,11,268,25,26,44,307,16,01,52,129,,0,4*6F,1606985235509
NMEA,$PQGSV,4,4,16,03,59,202,,04,37,115,,16,74,035,,22,23,167,,0,4*65,1606985235509
NMEA,$GNGSA,A,3,03,16,22,26,32,,,,,,,,2.0,1.8,0.9,1*32,1606985235510
NMEA,$GNGSA,A,2,25,,,,,,,,,,,,2.0,1.8,0.9,3*37,1606985235510
NMEA,$PQGSA,A,2,24,,,,,,,,,,,,2.0,1.8,0.9,4*39,1606985235510
NMEA,$GNVTG,,T,,M,0.0,N,0.0,K,A*3D,1606985235510
NMEA,$GNRMC,084716.00,A,2255.527454,N,12017.681944,E,0.0,,031220,2.8,W,A*15,1606985235511
NMEA,$GNGGA,084716.00,2255.527454,N,12017.681944,E,1,07,1.8,30.4,M,17.5,M,,*42,1606985235511
NMEA,$GPGSV,3,1,10,03,16,303,24,16,40,233,18,22,24,281,29,26,70,281,24*78,1606985236513
Raw,14740631,14744497000000,,,-1291005709936231168,0.0,95.86125088389963,-14.418727095044012,20.99653352221424,164,10,0.0,207,42436362645652,275,13.3,-69.91757202148438,9.179500579833984,0,0.0,0.0,,,,,0,,3,,
Raw,14740631,14744497000000,,,-1291005709936231168,0.0,95.86125088389963,-14.418727095044012,20.99653352221424,164,11,0.0,207,42436357689558,16,29.3,-263.5533752441406,0.25220000743865967,0,0.0,0.0,,,,,0,,3,,
Raw,14740632,14744497000000,,,-1291005709936231168,0.0,95.86125088389963,-14.418727095044012,20.99653352221424,164,9,0.0,207,42436363215630,70,17.9,300.939453125,1.281000018119812,0,0.0,0.0,,,,,0,,3,,
Raw,14740632,14744497000000,,,-1291005709936231168,0.0,95.86125088389963,-14.418727095044012,20.99653352221424,164,7,0.0,207,42436368509785,305,13.8,-35.26008605957031,9.93850040435791,0,0.0,0.0,,,,,0,,3,,
Raw,14740633,14744497000000,,,-1291005709936231168,0.0,95.86125088389963,-14.418727095044012,20.99653352221424,164,3,0.0,15,377254353303427,27,24.2,-233.3095703125,0.6859999895095825,0,0.0,0.0,,,,,0,,1,,
Raw,14740633,14744497000000,,,-1291005709936231168,0.0,95.86125088389963,-14.418727095044012,20.99653352221424,164,16,0.0,15,377254360997062,61,18.3,-446.13397216796875,1.0764999389648438,0,0.0,0.0,,,,,0,,1,,
Raw,14740633,14744497000000,,,-1291005709936231168,0.0,95.86125088389963,-14.418727095044012,20.99653352221424,164,22,0.0,15,377254354480514,16,29.4,-18.7990779876709,0.047700002789497375,0,0.0,0.0,,,,,0,,1,,
Raw,14740634,14744497000000,,,-1291005709936231168,0.0,95.86125088389963,-14.418727095044012,20.99653352221424,164,26,0.0,15,377254365422522,27,24.1,-18.277708053588867,0.6739999651908875,0,0.0,0.0,,,,,0,,1,,
Raw,14740634,14744497000000,,,-1291005709936231168,0.0,95.86125088389963,-14.418727095044012,20.99653352221424,164,27,0.0,15,377254350337048,61,18.8,-698.0542602539062,1.0115000009536743,0,0.0,0.0,,,,,0,,1,,
Raw,14740635,14744497000000,,,-1291005709936231168,0.0,95.86125088389963,-14.418727095044012,20.99653352221424,164,31,0.0,15,377254361641075,1773,16.6,63.51051330566406,28.168001174926758,0,0.0,0.0,,,,,0,,1,,
Raw,14740635,14744497000000,,,-1291005709936231168,0.0,95.86125088389963,-14.418727095044012,20.99653352221424,164,32,0.0,15,377254363399940,40,21.4,298.3899841308594,0.8510000109672546,0,0.0,0.0,,,,,0,,1,,
Raw,14740635,14744497000000,,,-1291005709936231168,0.0,95.86125088389963,-14.418727095044012,20.99653352221424,164,2,0.0,783,377240308246031,1729,19.4,-9.976451873779297,27.87350082397461,0,0.0,0.0,,,,,0,,5,,
Raw,14740636,14744497000000,,,-1291005709936231168,0.0,95.86125088389963,-14.418727095044012,20.99653352221424,164,5,0.0,783,377240300049685,16,29.9,-0.9313914775848389,0.3935000002384186,0,0.0,0.0,,,,,0,,5,,
Raw,14740636,14744497000000,,,-1291005709936231168,0.0,95.86125088389963,-14.418727095044012,20.99653352221424,164,6,0.0,15,377240313220847,409,12.2,-99.20761108398438,11.771000862121582,0,0.0,0.0,,,,,0,,5,,
Raw,14740637,14744497000000,,,-1291005709936231168,0.0,95.86125088389963,-14.418727095044012,20.99653352221424,164,7,0.0,15,377240312190070,53,19.3,6.279691696166992,0.8644999861717224,0,0.0,0.0,,,,,0,,5,,
Raw,14740637,14744497000000,,,-1291005709936231168,0.0,95.86125088389963,-14.418727095044012,20.99653352221424,164,9,0.0,15,377240311652808,188,15.9,-151.63438415527344,7.093000411987305,0,0.0,0.0,,,,,0,,5,,
Raw,14740638,14744497000000,,,-1291005709936231168,0.0,95.86125088389963,-14.418727095044012,20.99653352221424,164,10,0.0,15,377240308828456,2738,12.2,-49.36375427246094,34.923500061035156,0,0.0,0.0,,,,,0,,5,,
Raw,14740638,14744497000000,,,-1291005709936231168,0.0,95.86125088389963,-14.418727095044012,20.99653352221424,164,14,0.0,15,377240347279121,316,16.6,-460.04022216796875,10.837000846862793,0,0.0,0.0,,,,,0,,5,,
Raw,14740639,14744497000000,,,-1291005709936231168,0.0,95.86125088389963,-14.418727095044012,20.99653352221424,164,21,0.0,15,377240358156806,46,20.3,264.9184875488281,0.8134999871253967,0,0.0,0.0,,,,,0,,5,,
Raw,14740639,14744497000000,,,-1291005709936231168,0.0,95.86125088389963,-14.418727095044012,20.99653352221424,164,24,0.0,15,377240346109706,27,24.0,-295.77923583984375,0.5855000019073486,0,0.0,0.0,,,,,0,,5,,
Raw,14740639,14744497000000,,,-1291005709936231168,0.0,95.86125088389963,-14.418727095044012,20.99653352221424,164,26,0.0,15,377240357381700,317,16.4,-79.98445129394531,10.85200023651123,0,0.0,0.0,,,,,0,,5,,
Raw,14740640,14744497000000,,,-1291005709936231168,0.0,95.86125088389963,-14.418727095044012,20.99653352221424,164,25,0.0,7183,377254347617274,35,22.1,-229.21824645996094,0.6450000405311584,0,0.0,0.0,,,,,0,,6,,
Fix,gps,22.925458,120.294700,47.462097,0.000000,12.864000,1606985237000
NMEA,$GPGSV,3,2,10,27,07,191,19,31,48,011,17,32,56,123,21,10,07,171,*72,1606985236513
NMEA,$GPGSV,3,3,10,25,08,040,,29,27,064,*7F,1606985236514
NMEA,$GLGSV,3,1,10,74,36,292,13,75,00,000,29,73,39,001,18,71,70,279,14*6C,1606985236515
NMEA,$GLGSV,3,2,10,70,41,174,,82,04,045,,80,07,043,,84,05,143,*6D,1606985236515
NMEA,$GLGSV,3,3,10,83,14,088,,72,25,326,*6F,1606985236516
NMEA,$GAGSV,2,1,07,25,33,254,22,03,04,320,,04,14,143,,05,55,314,*6A,1606985236517
NMEA,$GAGSV,2,2,07,09,67,153,,24,63,336,,31,27,035,*54,1606985236525
NMEA,$PQGSV,1,1,03,193,49,164,14,195,36,136,17,194,63,032,,0,5*6B,1606985236526
NMEA,$PQGSV,4,1,16,02,40,240,19,05,00,000,30,06,74,047,12,07,76,254,19,0,4*6F,1606985236526
NMEA,$PQGSV,4,2,16,09,57,338,16,10,50,234,12,14,13,316,17,21,58,224,20,0,4*61,1606985236527
NMEA,$PQGSV,4,3,16,24,11,268,24,26,44,307,16,01,52,129,,03,59,202,,0,4*63,1606985236528
NMEA,$PQGSV,4,4,16,04,37,115,,13,01,206,,16,74,035,,22,23,167,,0,4*6D,1606985236529
NMEA,$GNGSA,A,3,03,16,22,26,32,,,,,,,,2.0,1.8,0.9,1*32,1606985236531
NMEA,$GNGSA,A,2,25,,,,,,,,,,,,2.0,1.8,0.9,3*37,1606985236531
NMEA,$PQGSA,A,2,24,,,,,,,,,,,,2.0,1.8,0.9,4*39,1606985236532
