# 
# Header Description:
# 
# Version: v2.0.0.1 Platform: 8.0.0 Manufacturer: Sony Model: G8142
# 
# Raw,ElapsedRealtimeMillis,TimeNanos,LeapSecond,TimeUncertaintyNanos,FullBiasNanos,BiasNanos,BiasUncertaintyNanos,DriftNanosPerSecond,DriftUncertaintyNanosPerSecond,HardwareClockDiscontinuityCount,Svid,TimeOffsetNanos,State,ReceivedSvTimeNanos,ReceivedSvTimeUncertaintyNanos,Cn0DbHz,PseudorangeRateMetersPerSecond,PseudorangeRateUncertaintyMetersPerSecond,AccumulatedDeltaRangeState,AccumulatedDeltaRangeMeters,AccumulatedDeltaRangeUncertaintyMeters,CarrierFrequencyHz,CarrierCycles,CarrierPhase,CarrierPhaseUncertainty,MultipathIndicator,SnrInDb,ConstellationType,AgcDb,CarrierFrequencyHz
# 
# Fix,Provider,Latitude,Longitude,Altitude,Speed,Accuracy,(UTC)TimeInMs
# 
# Nav,Svid,Type,Status,MessageId,Sub-messageId,Data(Bytes)
# 
NMEA,$GPGSV,3,1,11,03,17,299,27,04,01,319,28,16,44,237,19,22,24,277,27*75,1606985638496
NMEA,$GPGSV,3,2,11,26,70,293,13,27,10,189,16,31,47,016,14,32,54,129,19*73,1606985638496
NMEA,$GPGSV,3,3,11,10,04,170,,25,05,042,,29,26,060,*47,1606985638496
NMEA,$GLGSV,3,1,10,74,36,296,30,75,00,000,31,73,37,004,16,71,70,268,13*62,1606985638496
NMEA,$GLGSV,3,2,10,72,28,324,16,70,37,174,,82,03,042,,80,06,046,*6A,1606985638496
NMEA,$GLGSV,3,3,10,84,07,142,,83,14,085,*6B,1606985638496
NMEA,$GAGSV,2,1,07,03,07,320,16,25,35,257,18,04,11,144,,05,57,312,*64,1606985638497
Raw,15143595,15147497000000,,,-1291005709936228352,0.0,75.20302460761741,4.869967125523487,14.656938537426091,164,10,0.0,207,42839362720380,14,30.5,-47.735233306884766,0.2287999987602234,0,0.0,0.0,,,,,0,,3,,
Raw,15143596,15147497000000,,,-1291005709936228352,0.0,75.20302460761741,4.869967125523487,14.656938537426091,164,11,0.0,207,42839358020976,14,30.3,-237.80551147460938,0.25279998779296875,0,0.0,0.0,,,,,0,,3,,
Raw,15143596,15147497000000,,,-1291005709936228352,0.0,75.20302460761741,4.869967125523487,14.656938537426091,164,9,0.0,207,42839362800673,811,15.6,310.98638916015625,18.709501266479492,0,0.0,0.0,,,,,0,,3,,
Raw,15143597,15147497000000,,,-1291005709936228352,0.0,75.20302460761741,4.869967125523487,14.656938537426091,164,7,0.0,207,42839368505137,153,13.1,37.13751220703125,4.68850040435791,0,0.0,0.0,,,,,0,,3,,
Raw,15143597,15147497000000,,,-1291005709936228352,0.0,75.20302460761741,4.869967125523487,14.656938537426091,164,8,0.0,207,42839360307597,64,18.0,-607.4747924804688,1.9465000629425049,0,0.0,0.0,,,,,0,,3,,
Raw,15143598,15147497000000,,,-1291005709936228352,0.0,75.20302460761741,4.869967125523487,14.656938537426091,164,3,0.0,15,377657353579202,17,28.8,-185.60409545898438,0.20000000298023224,0,0.0,0.0,,,,,0,,1,,
Raw,15143598,15147497000000,,,-1291005709936228352,0.0,75.20302460761741,4.869967125523487,14.656938537426091,164,4,0.0,15,377657347711002,17,28.5,-648.6521606445312,0.20000000298023224,0,0.0,0.0,,,,,0,,1,,
Raw,15143599,15147497000000,,,-1291005709936228352,0.0,75.20302460761741,4.869967125523487,14.656938537426091,164,16,0.0,15,377657361563458,69,18.5,-402.93731689453125,2.498000144958496,0,0.0,0.0,,,,,0,,1,,
Raw,15143599,15147497000000,,,-1291005709936228352,0.0,75.20302460761741,4.869967125523487,14.656938537426091,164,22,0.0,15,377657354472397,17,28.2,22.649982452392578,0.20000000298023224,0,0.0,0.0,,,,,0,,1,,
Raw,15143600,15147497000000,,,-1291005709936228352,0.0,75.20302460761741,4.869967125523487,14.656938537426091,164,26,0.0,15,377657365414011,1711,13.1,25.366146087646484,10.154000282287598,0,0.0,0.0,,,,,0,,1,,
Raw,15143601,15147497000000,,,-1291005709936228352,0.0,75.20302460761741,4.869967125523487,14.656938537426091,164,27,0.0,15,377657351271935,227,16.1,-700.20458984375,8.773000717163086,0,0.0,0.0,,,,,0,,1,,
Raw,15143601,15147497000000,,,-1291005709936228352,0.0,75.20302460761741,4.869967125523487,14.656938537426091,164,31,0.0,15,377657361544717,125,14.0,72.36868286132812,3.7280001640319824,0,0.0,0.0,,,,,0,,1,,
Raw,15143602,15147497000000,,,-1291005709936228352,0.0,75.20302460761741,4.869967125523487,14.656938537426091,164,32,0.0,15,377657362962034,53,19.7,343.68939208984375,0.9194999933242798,0,0.0,0.0,,,,,0,,1,,
Raw,15143603,15147497000000,,,-1291005709936228352,0.0,75.20302460761741,4.869967125523487,14.656938537426091,164,5,0.0,783,377643300040203,230,22.6,-1.4114902019500732,9.693500518798828,0,0.0,0.0,,,,,0,,5,,
Raw,15143603,15147497000000,,,-1291005709936228352,0.0,75.20302460761741,4.869967125523487,14.656938537426091,164,7,0.0,15,377643312167606,852,9.8,21.86369514465332,18.2445011138916,0,0.0,0.0,,,,,0,,5,,
Raw,15143604,15147497000000,,,-1291005709936228352,0.0,75.20302460761741,4.869967125523487,14.656938537426091,164,10,0.0,15,377643308885793,86,17.6,-39.12804412841797,3.258500099182129,0,0.0,0.0,,,,,0,,5,,
Raw,15143604,15147497000000,,,-1291005709936228352,0.0,75.20302460761741,4.869967125523487,14.656938537426091,164,14,0.0,15,377643347874782,24,25.9,-431.1376953125,0.392300009727478,0,0.0,0.0,,,,,0,,5,,
Raw,15143605,15147497000000,,,-1291005709936228352,0.0,75.20302460761741,4.869967125523487,14.656938537426091,164,16,0.0,15,377643312853644,53,19.2,-80.94464111328125,0.8644999861717224,0,0.0,0.0,,,,,0,,5,,
Raw,15143606,15147497000000,,,-1291005709936228352,0.0,75.20302460761741,4.869967125523487,14.656938537426091,164,21,0.0,15,377643357768567,134,15.6,304.9491271972656,4.942000389099121,0,0.0,0.0,,,,,0,,5,,
Raw,15143606,15147497000000,,,-1291005709936228352,0.0,75.20302460761741,4.869967125523487,14.656938537426091,164,24,0.0,15,377643346493145,61,18.6,-282.1156311035156,0.9254999756813049,0,0.0,0.0,,,,,0,,5,,
Raw,15143607,15147497000000,,,-1291005709936228352,0.0,75.20302460761741,4.869967125523487,14.656938537426091,164,26,0.0,15,377643357479529,61,18.9,-70.44969177246094,0.871999979019165,0,0.0,0.0,,,,,0,,5,,
Raw,15143607,15147497000000,,,-1291005709936228352,0.0,75.20302460761741,4.869967125523487,14.656938537426091,164,3,0.0,7183,377657339156557,133,15.6,-516.2001342773438,4.855000019073486,0,0.0,0.0,,,,,0,,6,,
Raw,15143608,15147497000000,,,-1291005709936228352,0.0,75.20302460761741,4.869967125523487,14.656938537426091,164,25,0.0,7183,377657347903213,35,22.2,-205.0509490966797,0.6240000128746033,0,0.0,0.0,,,,,0,,6,,
NMEA,$GAGSV,2,2,07,09,64,157,,24,61,341,,31,25,036,*50,1606985638497
NMEA,$PQGSV,1,1,03,193,47,164,17,194,63,032,18,195,37,136,15,0,5*6C,1606985638497
NMEA,$PQGSV,4,1,16,05,16,257,23,07,76,262,10,10,51,237,18,14,16,314,25,0,4*62,1606985638497
NMEA,$PQGSV,4,2,16,16,75,039,19,21,55,220,16,24,11,271,19,26,45,312,18,0,4*6F,1606985638497
NMEA,$PQGSV,4,3,16,01,52,129,,02,40,240,,03,59,202,,04,37,115,,0,4*6D,1606985638498
NMEA,$PQGSV,4,4,16,06,75,053,,09,59,338,,13,00,000,,22,19,167,,0,4*69,1606985638498
NMEA,$GNGSA,A,3,03,16,22,26,31,32,,,,,,,1.6,1.3,0.9,1*3E,1606985638499
NMEA,$GNGSA,A,2,25,,,,,,,,,,,,1.6,1.3,0.9,3*39,1606985638500
NMEA,$PQGSA,A,2,24,,,,,,,,,,,,1.6,1.3,0.9,4*37,1606985638500
NMEA,$GNVTG,,T,,M,0.0,N,0.0,K,A*3D,1606985638501
NMEA,$GNRMC,085359.00,A,2255.527568,N,12017.682259,E,0.0,,031220,2.8,W,A*11,1606985638501
NMEA,$GNGGA,085359.00,2255.527568,N,12017.682259,E,1,08,1.3,28.2,M,17.5,M,,*4D,1606985638501
Fix,gps,22.925459,120.294704,45.646057,0.000000,10.720000,1606985640000
NMEA,$GPGSV,3,1,11,03,17,299,29,04,01,319,29,16,44,237,19,22,24,277,28*75,1606985639495
NMEA,$GPGSV,3,2,11,26,70,293,13,27,10,189,16,31,47,016,14,32,54,129,20*79,1606985639495
NMEA,$GPGSV,3,3,11,10,04,170,,25,05,042,,29,26,060,*47,1606985639496
NMEA,$GLGSV,3,1,10,74,36,296,31,75,00,000,30,73,37,004,16,71,70,268,13*62,1606985639497
NMEA,$GLGSV,3,2,10,72,28,324,18,70,37,174,,82,03,042,,80,06,046,*64,1606985639497
NMEA,$GLGSV,3,3,10,84,07,142,,83,14,085,*6B,1606985639497
NMEA,$GAGSV,2,1,07,03,07,320,16,25,35,257,22,04,11,144,,05,57,312,*6D,1606985639497
NMEA,$GAGSV,2,2,07,09,64,157,,24,61,341,,31,25,036,*50,1606985639497
NMEA,$PQGSV,1,1,03,193,47,164,17,194,63,032,19,195,37,136,14,0,5*6C,1606985639498
NMEA,$PQGSV,4,1,16,05,16,257,23,07,76,262,10,10,51,237,18,14,16,314,26,0,4*61,1606985639498
NMEA,$PQGSV,4,2,16,16,75,039,19,21,55,220,16,24,11,271,19,26,45,312,19,0,4*6E,1606985639498
NMEA,$PQGSV,4,3,16,01,52,129,,02,40,240,,03,59,202,,04,37,115,,0,4*6D,1606985639498
NMEA,$PQGSV,4,4,16,06,75,053,,09,59,338,,13,00,000,,22,19,167,,0,4*69,1606985639499
NMEA,$GNGSA,A,3,03,16,22,26,31,32,,,,,,,1.6,1.3,0.9,1*3E,1606985639500
NMEA,$GNGSA,A,2,25,,,,,,,,,,,,1.6,1.3,0.9,3*39,1606985639500
Raw,15144599,15148497000000,,,-1291005709936228352,0.0,72.76084943441674,2.4163629054966296,15.572853151146889,164,10,0.0,207,42840362720582,14,30.8,-47.21349334716797,0.2287999987602234,0,0.0,0.0,,,,,0,,3,,
Raw,15144599,15148497000000,,,-1291005709936228352,0.0,72.76084943441674,2.4163629054966296,15.572853151146889,164,11,0.0,207,42840358021750,16,29.4,-237.25364685058594,0.25369998812675476,0,0.0,0.0,,,,,0,,3,,
Raw,15144600,15148497000000,,,-1291005709936228352,0.0,72.76084943441674,2.4163629054966296,15.572853151146889,164,9,0.0,207,42840362799972,371,10.6,309.49761962890625,10.319499969482422,0,0.0,0.0,,,,,0,,3,,
Raw,15144601,15148497000000,,,-1291005709936228352,0.0,72.76084943441674,2.4163629054966296,15.572853151146889,164,7,0.0,207,42840368505013,184,13.1,37.13751220703125,6.18850040435791,0,0.0,0.0,,,,,0,,3,,
Raw,15144601,15148497000000,,,-1291005709936228352,0.0,72.76084943441674,2.4163629054966296,15.572853151146889,164,8,0.0,207,42840360309624,78,18.0,-607.4747924804688,3.446500062942505,0,0.0,0.0,,,,,0,,3,,
Raw,15144602,15148497000000,,,-1291005709936228352,0.0,72.76084943441674,2.4163629054966296,15.572853151146889,164,3,0.0,15,377658353579821,14,30.8,-184.97357177734375,0.20000000298023224,0,0.0,0.0,,,,,0,,1,,
Raw,15144603,15148497000000,,,-1291005709936228352,0.0,72.76084943441674,2.4163629054966296,15.572853151146889,164,4,0.0,15,377658347713175,17,28.2,-648.1834716796875,0.20000000298023224,0,0.0,0.0,,,,,0,,1,,
Raw,15144603,15148497000000,,,-1291005709936228352,0.0,72.76084943441674,2.4163629054966296,15.572853151146889,164,16,0.0,15,377658361564728,96,15.8,-403.5843505859375,2.008000135421753,0,0.0,0.0,,,,,0,,1,,
Raw,15144604,15148497000000,,,-1291005709936228352,0.0,72.76084943441674,2.4163629054966296,15.572853151146889,164,22,0.0,15,377658354472347,14,30.1,23.258207321166992,0.20000000298023224,0,0.0,0.0,,,,,0,,1,,
Raw,15144604,15148497000000,,,-1291005709936228352,0.0,72.76084943441674,2.4163629054966296,15.572853151146889,164,26,0.0,15,377658365413906,382,12.9,25.432750701904297,11.279000282287598,0,0.0,0.0,,,,,0,,1,,
Raw,15144605,15148497000000,,,-1291005709936228352,0.0,72.76084943441674,2.4163629054966296,15.572853151146889,164,27,0.0,15,377658351274255,228,10.5,-699.9762573242188,5.633000373840332,0,0.0,0.0,,,,,0,,1,,
Raw,15144606,15148497000000,,,-1291005709936228352,0.0,72.76084943441674,2.4163629054966296,15.572853151146889,164,31,0.0,15,377658361544348,110,14.6,71.49333190917969,2.1080000400543213,0,0.0,0.0,,,,,0,,1,,
Raw,15144606,15148497000000,,,-1291005709936228352,0.0,72.76084943441674,2.4163629054966296,15.572853151146889,164,32,0.0,15,377658362960984,46,20.5,345.1451416015625,0.8495000004768372,0,0.0,0.0,,,,,0,,1,,
Raw,15144607,15148497000000,,,-1291005709936228352,0.0,72.76084943441674,2.4163629054966296,15.572853151146889,164,5,0.0,783,377644300039884,100,18.0,8.286504745483398,4.69350004196167,0,0.0,0.0,,,,,0,,5,,
Raw,15144608,15148497000000,,,-1291005709936228352,0.0,72.76084943441674,2.4163629054966296,15.572853151146889,164,7,0.0,15,377644312167533,973,9.8,21.86369514465332,19.7445011138916,0,0.0,0.0,,,,,0,,5,,
Raw,15144608,15148497000000,,,-1291005709936228352,0.0,72.76084943441674,2.4163629054966296,15.572853151146889,164,10,0.0,15,377644308885924,73,17.2,-39.16645431518555,1.758500099182129,0,0.0,0.0,,,,,0,,5,,
Raw,15144609,15148497000000,,,-1291005709936228352,0.0,72.76084943441674,2.4163629054966296,15.572853151146889,164,14,0.0,15,377644347876215,17,28.1,-430.4219055175781,0.20000000298023224,0,0.0,0.0,,,,,0,,5,,
Raw,15144610,15148497000000,,,-1291005709936228352,0.0,72.76084943441674,2.4163629054966296,15.572853151146889,164,16,0.0,15,377644312853891,61,18.6,-81.15589141845703,0.934499979019165,0,0.0,0.0,,,,,0,,5,,
Raw,15144611,15148497000000,,,-1291005709936228352,0.0,72.76084943441674,2.4163629054966296,15.572853151146889,164,21,0.0,15,377644357767550,168,15.6,304.9491271972656,6.442000389099121,0,0.0,0.0,,,,,0,,5,,
Raw,15144611,15148497000000,,,-1291005709936228352,0.0,72.76084943441674,2.4163629054966296,15.572853151146889,164,24,0.0,15,377644346494086,69,18.6,-282.1156311035156,2.4255001544952393,0,0.0,0.0,,,,,0,,5,,
Raw,15144612,15148497000000,,,-1291005709936228352,0.0,72.76084943441674,2.4163629054966296,15.572853151146889,164,26,0.0,15,377644357479764,69,18.9,-70.44969177246094,2.371999979019165,0,0.0,0.0,,,,,0,,5,,
Raw,15144613,15148497000000,,,-1291005709936228352,0.0,72.76084943441674,2.4163629054966296,15.572853151146889,164,3,0.0,7183,377658339158279,167,15.6,-516.2001342773438,6.355000019073486,0,0.0,0.0,,,,,0,,6,,
Raw,15144613,15148497000000,,,-1291005709936228352,0.0,72.76084943441674,2.4163629054966296,15.572853151146889,164,25,0.0,7183,377658347903925,53,19.4,-204.26123046875,0.793999969959259,0,0.0,0.0,,,,,0,,6,,
NMEA,$PQGSA,A,2,24,,,,,,,,,,,,1.6,1.3,0.9,4*37,1606985639500
NMEA,$GNVTG,,T,,M,0.0,N,0.0,K,A*3D,1606985639500
NMEA,$GNRMC,085400.00,A,2255.527568,N,12017.682258,E,0.0,,031220,2.8,W,A*1B,1606985639501
NMEA,$GNGGA,085400.00,2255.527568,N,12017.682258,E,1,08,1.3,28.2,M,17.5,M,,*47,1606985639501
Fix,gps,22.925459,120.294704,45.644287,0.000000,10.720000,1606985641000
NMEA,$GPGSV,3,1,11,03,17,299,31,04,01,319,28,16,44,237,16,22,24,277,30*7B,1606985640495
NMEA,$GPGSV,3,2,11,26,70,293,13,27,10,189,11,31,47,016,15,32,54,129,21*7E,1606985640496
NMEA,$GPGSV,3,3,11,10,04,170,,25,05,042,,29,26,060,*47,1606985640496
NMEA,$GLGSV,3,1,10,74,36,296,31,75,00,000,29,73,37,004,11,71,70,268,13*6D,1606985640497
NMEA,$GLGSV,3,2,10,72,28,324,18,70,37,174,,82,03,042,,80,06,046,*64,1606985640497
NMEA,$GLGSV,3,3,10,84,07,142,,83,14,085,*6B,1606985640497
NMEA,$GAGSV,2,1,07,03,07,320,16,25,35,257,19,04,11,144,,05,57,312,*65,1606985640497
NMEA,$GAGSV,2,2,07,09,64,157,,24,61,341,,31,25,036,*50,1606985640498
NMEA,$PQGSV,1,1,03,193,47,164,17,194,63,032,19,195,37,136,20,0,5*6B,1606985640498
NMEA,$PQGSV,4,1,16,05,16,257,18,07,76,262,10,10,51,237,17,14,16,314,28,0,4*68,1606985640498
NMEA,$PQGSV,4,2,16,16,75,039,19,21,55,220,16,24,11,271,19,26,45,312,19,0,4*6E,1606985640499
NMEA,$PQGSV,4,3,16,01,52,129,,02,40,240,,03,59,202,,04,37,115,,0,4*6D,1606985640499
Raw,15145606,15149497000000,,,-1291005709936228352,0.0,69.89856046857312,4.509986573328991,14.529474436297564,164,10,0.0,207,42841362720718,14,30.9,-48.50419998168945,0.2287999987602234,0,0.0,0.0,,,,,0,,3,,
Raw,15145607,15149497000000,,,-1291005709936228352,0.0,69.89856046857312,4.509986573328991,14.529474436297564,164,11,0.0,207,42841358022549,16,29.5,-238.54159545898438,0.25369998812675476,0,0.0,0.0,,,,,0,,3,,
Raw,15145608,15149497000000,,,-1291005709936228352,0.0,69.89856046857312,4.509986573328991,14.529474436297564,164,9,0.0,207,42841362798940,438,10.6,309.49761962890625,11.819499969482422,0,0.0,0.0,,,,,0,,3,,
Raw,15145608,15149497000000,,,-1291005709936228352,0.0,69.89856046857312,4.509986573328991,14.529474436297564,164,7,0.0,207,42841368504889,225,13.1,37.13751220703125,7.68850040435791,0,0.0,0.0,,,,,0,,3,,
Raw,15145609,15149497000000,,,-1291005709936228352,0.0,69.89856046857312,4.509986573328991,14.529474436297564,164,8,0.0,207,42841360311540,96,15.0,-608.4832153320312,2.2065000534057617,0,0.0,0.0,,,,,0,,3,,
Raw,15145610,15149497000000,,,-1291005709936228352,0.0,69.89856046857312,4.509986573328991,14.529474436297564,164,3,0.0,15,377659353580435,14,30.4,-186.22645568847656,0.20000000298023224,0,0.0,0.0,,,,,0,,1,,
Raw,15145610,15149497000000,,,-1291005709936228352,0.0,69.89856046857312,4.509986573328991,14.529474436297564,164,4,0.0,15,377659347715299,19,27.4,-649.525634765625,0.20000000298023224,0,0.0,0.0,,,,,0,,1,,
Raw,15145611,15149497000000,,,-1291005709936228352,0.0,69.89856046857312,4.509986573328991,14.529474436297564,164,16,0.0,15,377659361566161,80,16.9,-404.6119079589844,1.1679999828338623,0,0.0,0.0,,,,,0,,1,,
Raw,15145612,15149497000000,,,-1291005709936228352,0.0,69.89856046857312,4.509986573328991,14.529474436297564,164,22,0.0,15,377659354472254,16,29.3,21.947599411010742,0.20000000298023224,0,0.0,0.0,,,,,0,,1,,
Raw,15145612,15149497000000,,,-1291005709936228352,0.0,69.89856046857312,4.509986573328991,14.529474436297564,164,26,0.0,15,377659365413821,457,12.9,25.432750701904297,12.779000282287598,0,0.0,0.0,,,,,0,,1,,
Raw,15145613,15149497000000,,,-1291005709936228352,0.0,69.89856046857312,4.509986573328991,14.529474436297564,164,27,0.0,15,377659351276590,265,10.5,-699.9762573242188,7.133000373840332,0,0.0,0.0,,,,,0,,1,,
Raw,15145614,15149497000000,,,-1291005709936228352,0.0,69.89856046857312,4.509986573328991,14.529474436297564,164,31,0.0,15,377659361544226,80,16.7,72.50188446044922,1.1679999828338623,0,0.0,0.0,,,,,0,,1,,
Raw,15145614,15149497000000,,,-1291005709936228352,0.0,69.89856046857312,4.509986573328991,14.529474436297564,164,32,0.0,15,377659362959773,61,18.5,343.87969970703125,0.999500036239624,0,0.0,0.0,,,,,0,,1,,
Raw,15145615,15149497000000,,,-1291005709936228352,0.0,69.89856046857312,4.509986573328991,14.529474436297564,164,5,0.0,783,377645300039856,134,18.0,8.286504745483398,6.19350004196167,0,0.0,0.0,,,,,0,,5,,
Raw,15145616,15149497000000,,,-1291005709936228352,0.0,69.89856046857312,4.509986573328991,14.529474436297564,164,7,0.0,15,377645312167461,1104,9.8,21.86369514465332,21.2445011138916,0,0.0,0.0,,,,,0,,5,,
Raw,15145616,15149497000000,,,-1291005709936228352,0.0,69.89856046857312,4.509986573328991,14.529474436297564,164,10,0.0,15,377645308886055,86,17.2,-39.16645431518555,3.258500099182129,0,0.0,0.0,,,,,0,,5,,
Raw,15145617,15149497000000,,,-1291005709936228352,0.0,69.89856046857312,4.509986573328991,14.529474436297564,164,14,0.0,15,377645347877654,17,28.8,-431.7191162109375,0.20000000298023224,0,0.0,0.0,,,,,0,,5,,
Raw,15145618,15149497000000,,,-1291005709936228352,0.0,69.89856046857312,4.509986573328991,14.529474436297564,164,16,0.0,15,377645312854192,61,18.1,-82.16410064697266,0.934499979019165,0,0.0,0.0,,,,,0,,5,,
Raw,15145619,15149497000000,,,-1291005709936228352,0.0,69.89856046857312,4.509986573328991,14.529474436297564,164,21,0.0,15,377645357766532,212,15.6,304.9491271972656,7.942000389099121,0,0.0,0.0,,,,,0,,5,,
Raw,15145619,15149497000000,,,-1291005709936228352,0.0,69.89856046857312,4.509986573328991,14.529474436297564,164,24,0.0,15,377645346494962,110,14.5,-281.82757568359375,2.015500068664551,0,0.0,0.0,,,,,0,,5,,
Raw,15145620,15149497000000,,,-1291005709936228352,0.0,69.89856046857312,4.509986573328991,14.529474436297564,164,26,0.0,15,377645357480054,96,15.9,-71.72674560546875,1.8519999980926514,0,0.0,0.0,,,,,0,,5,,
Raw,15145621,15149497000000,,,-1291005709936228352,0.0,69.89856046857312,4.509986573328991,14.529474436297564,164,3,0.0,7183,377659339160001,211,15.6,-516.2001342773438,7.8550004959106445,0,0.0,0.0,,,,,0,,6,,
Raw,15145621,15149497000000,,,-1291005709936228352,0.0,69.89856046857312,4.509986573328991,14.529474436297564,164,25,0.0,7183,377659347904607,46,20.0,-204.89871215820312,0.7339999675750732,0,0.0,0.0,,,,,0,,6,,
NMEA,$PQGSV,4,4,16,06,75,053,,09,59,338,,13,00,000,,22,19,167,,0,4*69,1606985640499
NMEA,$GNGSA,A,3,03,16,22,26,31,32,,,,,,,1.6,1.3,0.9,1*3E,1606985640500
NMEA,$GNGSA,A,2,25,,,,,,,,,,,,1.6,1.3,0.9,3*39,1606985640500
NMEA,$PQGSA,A,2,24,,,,,,,,,,,,1.6,1.3,0.9,4*37,1606985640501
NMEA,$GNVTG,,T,,M,0.0,N,0.0,K,A*3D,1606985640501
NMEA,$GNRMC,085401.00,A,2255.527569,N,12017.682258,E,0.0,,031220,2.8,W,A*1B,1606985640501
NMEA,$GNGGA,085401.00,2255.527569,N,12017.682258,E,1,08,1.3,28.2,M,17.5,M,,*47,1606985640501
Fix,gps,22.925459,120.294704,45.643738,0.000000,9.648001,1606985642000
NMEA,$GPGSV,3,1,11,03,17,299,30,04,01,319,27,16,44,237,17,22,24,277,29*7C,1606985641495
NMEA,$GPGSV,3,2,11,26,70,293,13,27,10,189,11,31,47,016,17,32,54,129,19*77,1606985641495
NMEA,$GPGSV,3,3,11,10,04,170,,25,05,042,,29,26,060,*47,1606985641496
NMEA,$GLGSV,3,1,10,74,36,296,31,75,00,000,30,73,37,004,11,71,70,268,13*65,1606985641496
NMEA,$GLGSV,3,2,10,72,28,324,15,70,37,174,,82,03,042,,80,06,046,*69,1606985641496
NMEA,$GLGSV,3,3,10,84,07,142,,83,14,085,*6B,1606985641499
NMEA,$GAGSV,2,1,07,03,07,320,16,25,35,257,20,04,11,144,,05,57,312,*6F,1606985641500
NMEA,$GAGSV,2,2,07,09,64,157,,24,61,341,,31,25,036,*50,1606985641500
NMEA,$PQGSV,1,1,03,193,47,164,17,194,63,032,19,195,37,136,19,0,5*61,1606985641500
NMEA,$PQGSV,4,1,16,05,16,257,18,07,76,262,10,10,51,237,17,14,16,314,29,0,4*69,1606985641500
Raw,15146627,15150497000000,,,-1291005709936228352,0.0,66.70049333479255,0.9654589903281359,15.675840162102629,164,10,0.0,207,42842362720900,17,28.8,-49.10582733154297,0.2363000065088272,0,0.0,0.0,,,,,0,,3,,
Raw,15146627,15150497000000,,,-1291005709936228352,0.0,66.70049333479255,0.9654589903281359,15.675840162102629,164,11,0.0,207,42842358023326,14,30.0,-239.1484375,0.25279998779296875,0,0.0,0.0,,,,,0,,3,,
Raw,15146628,15150497000000,,,-1291005709936228352,0.0,66.70049333479255,0.9654589903281359,15.675840162102629,164,9,0.0,207,42842362797907,515,10.6,309.49761962890625,13.319500923156738,0,0.0,0.0,,,,,0,,3,,
Raw,15146628,15150497000000,,,-1291005709936228352,0.0,66.70049333479255,0.9654589903281359,15.675840162102629,164,7,0.0,207,42842368504765,276,13.1,37.13751220703125,9.18850040435791,0,0.0,0.0,,,,,0,,3,,
Raw,15146629,15150497000000,,,-1291005709936228352,0.0,66.70049333479255,0.9654589903281359,15.675840162102629,164,8,0.0,207,42842360313569,111,15.0,-608.4832153320312,3.7065000534057617,0,0.0,0.0,,,,,0,,3,,
Raw,15146629,15150497000000,,,-1291005709936228352,0.0,66.70049333479255,0.9654589903281359,15.675840162102629,164,3,0.0,15,377660353581071,16,29.7,-186.76710510253906,0.20000000298023224,0,0.0,0.0,,,,,0,,1,,
Raw,15146630,15150497000000,,,-1291005709936228352,0.0,66.70049333479255,0.9654589903281359,15.675840162102629,164,4,0.0,15,377660347717463,17,28.4,-650.1787109375,0.20000000298023224,0,0.0,0.0,,,,,0,,1,,
Raw,15146630,15150497000000,,,-1291005709936228352,0.0,66.70049333479255,0.9654589903281359,15.675840162102629,164,16,0.0,15,377660361567511,89,16.9,-404.6119079589844,2.6679999828338623,0,0.0,0.0,,,,,0,,1,,
Raw,15146631,15150497000000,,,-1291005709936228352,0.0,66.70049333479255,0.9654589903281359,15.675840162102629,164,22,0.0,15,377660354472189,17,28.3,21.41275405883789,0.20000000298023224,0,0.0,0.0,,,,,0,,1,,
Raw,15146632,15150497000000,,,-1291005709936228352,0.0,66.70049333479255,0.9654589903281359,15.675840162102629,164,26,0.0,15,377660365413736,542,12.9,25.432750701904297,14.279000282287598,0,0.0,0.0,,,,,0,,1,,
Raw,15146632,15150497000000,,,-1291005709936228352,0.0,66.70049333479255,0.9654589903281359,15.675840162102629,164,27,0.0,15,377660351278924,311,10.5,-699.9762573242188,8.633000373840332,0,0.0,0.0,,,,,0,,1,,
Raw,15146632,15150497000000,,,-1291005709936228352,0.0,66.70049333479255,0.9654589903281359,15.675840162102629,164,31,0.0,15,377660361543985,89,16.7,72.50188446044922,2.6679999828338623,0,0.0,0.0,,,,,0,,1,,
Raw,15146633,15150497000000,,,-1291005709936228352,0.0,66.70049333479255,0.9654589903281359,15.675840162102629,164,32,0.0,15,377660362958790,53,19.3,343.19464111328125,0.999500036239624,0,0.0,0.0,,,,,0,,1,,
Raw,15146633,15150497000000,,,-1291005709936228352,0.0,66.70049333479255,0.9654589903281359,15.675840162102629,164,5,0.0,783,377646300039828,177,18.0,8.286504745483398,7.693500518798828,0,0.0,0.0,,,,,0,,5,,
Raw,15146634,15150497000000,,,-1291005709936228352,0.0,66.70049333479255,0.9654589903281359,15.675840162102629,164,7,0.0,15,377646312167388,1245,9.8,21.86369514465332,22.7445011138916,0,0.0,0.0,,,,,0,,5,,
Raw,15146634,15150497000000,,,-1291005709936228352,0.0,66.70049333479255,0.9654589903281359,15.675840162102629,164,10,0.0,15,377646308886185,110,17.2,-39.16645431518555,4.758500099182129,0,0.0,0.0,,,,,0,,5,,
Raw,15146635,15150497000000,,,-1291005709936228352,0.0,66.70049333479255,0.9654589903281359,15.675840162102629,164,14,0.0,15,377646347879102,17,28.9,-432.30010986328125,0.20000000298023224,0,0.0,0.0,,,,,0,,5,,
Raw,15146635,15150497000000,,,-1291005709936228352,0.0,66.70049333479255,0.9654589903281359,15.675840162102629,164,16,0.0,15,377646312854419,46,20.1,-83.08588409423828,0.8044999837875366,0,0.0,0.0,,,,,0,,5,,
Raw,15146636,15150497000000,,,-1291005709936228352,0.0,66.70049333479255,0.9654589903281359,15.675840162102629,164,21,0.0,15,377646357765444,170,12.2,304.48822021484375,4.502000331878662,0,0.0,0.0,,,,,0,,5,,
Raw,15146636,15150497000000,,,-1291005709936228352,0.0,66.70049333479255,0.9654589903281359,15.675840162102629,164,24,0.0,15,377646346495906,53,19.2,-283.8151550292969,0.8554999828338623,0,0.0,0.0,,,,,0,,5,,
Raw,15146637,15150497000000,,,-1291005709936228352,0.0,66.70049333479255,0.9654589903281359,15.675840162102629,164,26,0.0,15,377646357480293,110,15.9,-71.72674560546875,3.3519999980926514,0,0.0,0.0,,,,,0,,5,,
Raw,15146638,15150497000000,,,-1291005709936228352,0.0,66.70049333479255,0.9654589903281359,15.675840162102629,164,3,0.0,7183,377660339161822,124,14.8,-517.5416870117188,3.445000171661377,0,0.0,0.0,,,,,0,,6,,
Raw,15146638,15150497000000,,,-1291005709936228352,0.0,66.70049333479255,0.9654589903281359,15.675840162102629,164,25,0.0,7183,377660347905268,35,22.2,-206.10707092285156,0.6240000128746033,0,0.0,0.0,,,,,0,,6,,
NMEA,$PQGSV,4,2,16,16,75,039,18,21,55,220,16,24,11,271,15,26,45,312,16,0,4*6C,1606985641500
NMEA,$PQGSV,4,3,16,01,52,129,,02,40,240,,03,59,202,,04,37,115,,0,4*6D,1606985641500
NMEA,$PQGSV,4,4,16,06,75,053,,09,59,338,,13,00,000,,22,19,167,,0,4*69,1606985641501
NMEA,$GNGSA,A,3,03,16,22,26,31,32,,,,,,,1.6,1.3,0.9,1*3E,1606985641501
NMEA,$GNGSA,A,2,25,,,,,,,,,,,,1.6,1.3,0.9,3*39,1606985641501
NMEA,$PQGSA,A,2,24,,,,,,,,,,,,1.6,1.3,0.9,4*37,1606985641502
NMEA,$GNVTG,,T,,M,0.0,N,0.0,K,A*3D,1606985641502
NMEA,$GNRMC,085402.00,A,2255.527569,N,12017.682259,E,0.0,,031220,2.8,W,A*19,1606985641502
NMEA,$GNGGA,085402.00,2255.527569,N,12017.682259,E,1,08,1.3,28.2,M,17.5,M,,*45,1606985641502
Fix,gps,22.925460,120.294704,45.639893,0.000000,9.648001,1606985643000
NMEA,$GPGSV,3,1,11,03,17,299,30,04,01,319,28,16,44,237,17,22,24,277,28*72,1606985642508
NMEA,$GPGSV,3,2,11,26,70,293,13,27,10,189,11,31,47,016,17,32,54,129,19*77,1606985642508
NMEA,$GPGSV,3,3,11,10,04,170,,25,05,042,,29,26,060,*47,1606985642509
NMEA,$GLGSV,3,1,10,74,36,296,29,75,00,000,30,73,37,004,11,71,70,268,13*6C,1606985642510
NMEA,$GLGSV,3,2,10,72,28,324,15,70,37,174,,82,03,042,,80,06,046,*69,1606985642511
NMEA,$GLGSV,3,3,10,84,07,142,,83,14,085,*6B,1606985642512
NMEA,$GAGSV,2,1,07,03,07,320,15,25,35,257,22,04,11,144,,05,57,312,*6E,1606985642512
NMEA,$GAGSV,2,2,07,09,64,157,,24,61,341,,31,25,036,*50,1606985642513
NMEA,$PQGSV,1,1,03,193,47,164,17,194,63,032,19,195,37,136,18,0,5*60,1606985642513
NMEA,$PQGSV,4,1,16,05,16,257,18,07,76,262,10,10,51,237,17,14,16,314,29,0,4*69,1606985642514
NMEA,$PQGSV,4,2,16,16,75,039,20,21,55,220,12,24,11,271,19,26,45,312,16,0,4*6F,1606985642515
NMEA,$PQGSV,4,3,16,01,52,129,,02,40,240,,03,59,202,,04,37,115,,0,4*6D,1606985642516
NMEA,$PQGSV,4,4,16,06,75,053,,09,59,338,,13,00,000,,22,19,167,,0,4*69,1606985642517
NMEA,$GNGSA,A,3,03,16,22,26,31,32,,,,,,,1.6,1.3,0.9,1*3E,1606985642530
NMEA,$GNGSA,A,2,25,,,,,,,,,,,,1.6,1.3,0.9,3*39,1606985642531
NMEA,$PQGSA,A,2,24,,,,,,,,,,,,1.6,1.3,0.9,4*37,1606985642534
NMEA,$GNVTG,,T,,M,0.0,N,0.0,K,A*3D,1606985642535
NMEA,$GNRMC,085403.00,A,2255.527570,N,12017.682260,E,0.0,,031220,2.8,W,A*1A,1606985642535
Raw,15147605,15151497000000,,,-1291005709936228352,0.0,68.53362719994038,-1.3740861488015261,13.76151030497929,164,10,0.0,207,42843362721074,19,27.9,-48.48279571533203,0.2443000078201294,0,0.0,0.0,,,,,0,,3,,
Raw,15147606,15151497000000,,,-1291005709936228352,0.0,68.53362719994038,-1.3740861488015261,13.76151030497929,164,11,0.0,207,42843358024142,16,29.2,-238.50547790527344,0.25369998812675476,0,0.0,0.0,,,,,0,,3,,
Raw,15147607,15151497000000,,,-1291005709936228352,0.0,68.53362719994038,-1.3740861488015261,13.76151030497929,164,9,0.0,207,42843362796501,70,18.1,307.34405517578125,2.69950008392334,0,0.0,0.0,,,,,0,,3,,
Raw,15147608,15151497000000,,,-1291005709936228352,0.0,68.53362719994038,-1.3740861488015261,13.76151030497929,164,7,0.0,207,42843368504641,336,13.1,37.13751220703125,10.68850040435791,0,0.0,0.0,,,,,0,,3,,
Raw,15147608,15151497000000,,,-1291005709936228352,0.0,68.53362719994038,-1.3740861488015261,13.76151030497929,164,8,0.0,207,42843360315382,64,18.4,-607.8296508789062,1.9465000629425049,0,0.0,0.0,,,,,0,,3,,
Raw,15147609,15151497000000,,,-1291005709936228352,0.0,68.53362719994038,-1.3740861488015261,13.76151030497929,164,3,0.0,15,377661353581655,12,32.0,-186.0620880126953,0.20000000298023224,0,0.0,0.0,,,,,0,,1,,
Raw,15147610,15151497000000,,,-1291005709936228352,0.0,68.53362719994038,-1.3740861488015261,13.76151030497929,164,4,0.0,15,377661347719695,19,27.5,-649.6231689453125,0.20000000298023224,0,0.0,0.0,,,,,0,,1,,
Raw,15147610,15151497000000,,,-1291005709936228352,0.0,68.53362719994038,-1.3740861488015261,13.76151030497929,164,16,0.0,15,377661361568809,56,19.4,-404.87835693359375,1.7480000257492065,0,0.0,0.0,,,,,0,,1,,
Raw,15147611,15151497000000,,,-1291005709936228352,0.0,68.53362719994038,-1.3740861488015261,13.76151030497929,164,22,0.0,15,377661354472105,17,28.0,22.007688522338867,0.20000000298023224,0,0.0,0.0,,,,,0,,1,,
Raw,15147612,15151497000000,,,-1291005709936228352,0.0,68.53362719994038,-1.3740861488015261,13.76151030497929,164,26,0.0,15,377661365413651,637,12.9,25.432750701904297,15.779000282287598,0,0.0,0.0,,,,,0,,1,,
Raw,15147612,15151497000000,,,-1291005709936228352,0.0,68.53362719994038,-1.3740861488015261,13.76151030497929,164,27,0.0,15,377661351281259,368,10.5,-699.9762573242188,10.133000373840332,0,0.0,0.0,,,,,0,,1,,
Raw,15147613,15151497000000,,,-1291005709936228352,0.0,68.53362719994038,-1.3740861488015261,13.76151030497929,164,31,0.0,15,377661361543725,73,17.3,71.60751342773438,1.9179999828338623,0,0.0,0.0,,,,,0,,1,,
Raw,15147613,15151497000000,,,-1291005709936228352,0.0,68.53362719994038,-1.3740861488015261,13.76151030497929,164,32,0.0,15,377661362957435,40,21.6,342.7760009765625,0.7894999980926514,0,0.0,0.0,,,,,0,,1,,
Raw,15147614,15151497000000,,,-1291005709936228352,0.0,68.53362719994038,-1.3740861488015261,13.76151030497929,164,5,0.0,783,377647300039944,61,19.6,14.258932113647461,2.373500108718872,0,0.0,0.0,,,,,0,,5,,
Raw,15147615,15151497000000,,,-1291005709936228352,0.0,68.53362719994038,-1.3740861488015261,13.76151030497929,164,7,0.0,15,377647312167315,1396,9.8,21.86369514465332,24.2445011138916,0,0.0,0.0,,,,,0,,5,,
Raw,15147616,15151497000000,,,-1291005709936228352,0.0,68.53362719994038,-1.3740861488015261,13.76151030497929,164,10,0.0,15,377647308886341,89,16.1,-40.24187469482422,2.5885000228881836,0,0.0,0.0,,,,,0,,5,,
Raw,15147616,15151497000000,,,-1291005709936228352,0.0,68.53362719994038,-1.3740861488015261,13.76151030497929,164,14,0.0,15,377647347880530,17,28.2,-431.62432861328125,0.20000000298023224,0,0.0,0.0,,,,,0,,5,,
Raw,15147617,15151497000000,,,-1291005709936228352,0.0,68.53362719994038,-1.3740861488015261,13.76151030497929,164,16,0.0,15,377647312854693,46,20.5,-82.19290161132812,0.8044999837875366,0,0.0,0.0,,,,,0,,5,,
Raw,15147618,15151497000000,,,-1291005709936228352,0.0,68.53362719994038,-1.3740861488015261,13.76151030497929,164,21,0.0,15,377647357764429,200,12.2,304.48822021484375,6.002000331878662,0,0.0,0.0,,,,,0,,5,,
Raw,15147618,15151497000000,,,-1291005709936228352,0.0,68.53362719994038,-1.3740861488015261,13.76151030497929,164,24,0.0,15,377647346496856,40,21.4,-282.8165588378906,0.7354999780654907,0,0.0,0.0,,,,,0,,5,,
Raw,15147619,15151497000000,,,-1291005709936228352,0.0,68.53362719994038,-1.3740861488015261,13.76151030497929,164,26,0.0,15,377647357480532,133,15.9,-71.72674560546875,4.8520002365112305,0,0.0,0.0,,,,,0,,5,,
Raw,15147620,15151497000000,,,-1291005709936228352,0.0,68.53362719994038,-1.3740861488015261,13.76151030497929,164,3,0.0,7183,377661339163570,46,20.5,-517.5322265625,0.7549999952316284,0,0.0,0.0,,,,,0,,6,,
Raw,15147622,15151497000000,,,-1291005709936228352,0.0,68.53362719994038,-1.3740861488015261,13.76151030497929,164,25,0.0,7183,377661347905963,53,19.8,-206.04046630859375,0.793999969959259,0,0.0,0.0,,,,,0,,6,,
NMEA,$GNGGA,085403.00,2255.527570,N,12017.682260,E,1,08,1.3,28.2,M,17.5,M,,*46,1606985642535
Fix,gps,22.925460,120.294704,45.643494,0.000000,9.648001,1606985644000
NMEA,$GPGSV,3,1,11,03,17,299,32,04,01,319,28,16,44,237,19,22,24,277,28*7E,1606985643495
NMEA,$GPGSV,3,2,11,26,70,293,13,27,10,189,11,31,47,016,17,32,54,129,22*7F,1606985643495
NMEA,$GPGSV,3,3,11,10,04,170,,25,05,042,,29,26,060,*47,1606985643496
NMEA,$GLGSV,3,1,10,74,36,296,28,75,00,000,29,73,37,004,18,71,70,268,13*6C,1606985643496
NMEA,$GLGSV,3,2,10,72,28,324,18,70,37,174,,82,03,042,,80,06,046,*64,1606985643496
NMEA,$GLGSV,3,3,10,84,07,142,,83,14,085,*6B,1606985643499
NMEA,$GAGSV,2,1,07,03,07,320,21,25,35,257,20,04,11,144,,05,57,312,*6B,1606985643499
NMEA,$GAGSV,2,2,07,09,64,157,,24,61,341,,31,25,036,*50,1606985643500
NMEA,$PQGSV,1,1,03,193,47,164,17,194,63,032,20,195,37,136,22,0,5*63,1606985643500
NMEA,$PQGSV,4,1,16,05,16,257,20,07,76,262,10,10,51,237,16,14,16,314,28,0,4*62,1606985643500
NMEA,$PQGSV,4,2,16,16,75,039,21,21,55,220,12,24,11,271,21,26,45,312,16,0,4*65,1606985643500
NMEA,$PQGSV,4,3,16,01,52,129,,02,40,240,,03,59,202,,04,37,115,,0,4*6D,1606985643500
NMEA,$PQGSV,4,4,16,06,75,053,,09,59,338,,13,00,000,,22,19,167,,0,4*69,1606985643501
NMEA,$GNGSA,A,3,03,16,22,26,31,32,,,,,,,1.6,1.3,0.9,1*3E,1606985643502
Raw,15148622,15152497000000,,,-1291005709936228352,0.0,68.58187407488003,-0.7583820161639634,14.386080901282462,164,10,0.0,207,42844362721196,14,30.2,-48.576656341552734,0.2287999987602234,0,0.0,0.0,,,,,0,,3,,
Raw,15148623,15152497000000,,,-1291005709936228352,0.0,68.58187407488003,-0.7583820161639634,14.386080901282462,164,11,0.0,207,42844358024886,17,28.8,-238.64407348632812,0.26030001044273376,0,0.0,0.0,,,,,0,,3,,
Raw,15148623,15152497000000,,,-1291005709936228352,0.0,68.58187407488003,-0.7583820161639634,14.386080901282462,164,9,0.0,207,42844362795789,70,17.4,306.85711669921875,1.2795000076293945,0,0.0,0.0,,,,,0,,3,,
Raw,15148624,15152497000000,,,-1291005709936228352,0.0,68.58187407488003,-0.7583820161639634,14.386080901282462,164,7,0.0,207,42844368504517,407,13.1,37.13751220703125,12.18850040435791,0,0.0,0.0,,,,,0,,3,,
Raw,15148625,15152497000000,,,-1291005709936228352,0.0,68.58187407488003,-0.7583820161639634,14.386080901282462,164,8,0.0,207,42844360317594,53,19.1,-607.8296508789062,1.1165000200271606,0,0.0,0.0,,,,,0,,3,,
Raw,15148625,15152497000000,,,-1291005709936228352,0.0,68.58187407488003,-0.7583820161639634,14.386080901282462,164,3,0.0,15,377662353582298,17,28.7,-186.12567138671875,0.20000000298023224,0,0.0,0.0,,,,,0,,1,,
Raw,15148626,15152497000000,,,-1291005709936228352,0.0,68.58187407488003,-0.7583820161639634,14.386080901282462,164,4,0.0,15,377662347721870,16,29.0,-649.7742309570312,0.20000000298023224,0,0.0,0.0,,,,,0,,1,,
Raw,15148627,15152497000000,,,-1291005709936228352,0.0,68.58187407488003,-0.7583820161639634,14.386080901282462,164,16,0.0,15,377662361570222,61,18.2,-404.8117370605469,1.0779999494552612,0,0.0,0.0,,,,,0,,1,,
Raw,15148627,15152497000000,,,-1291005709936228352,0.0,68.58187407488003,-0.7583820161639634,14.386080901282462,164,22,0.0,15,377662354472083,19,27.7,22.02486801147461,0.20000000298023224,0,0.0,0.0,,,,,0,,1,,
Raw,15148628,15152497000000,,,-1291005709936228352,0.0,68.58187407488003,-0.7583820161639634,14.386080901282462,164,26,0.0,15,377662365413566,742,12.9,25.432750701904297,17.279001235961914,0,0.0,0.0,,,,,0,,1,,
Raw,15148629,15152497000000,,,-1291005709936228352,0.0,68.58187407488003,-0.7583820161639634,14.386080901282462,164,27,0.0,15,377662351283594,434,10.5,-699.9762573242188,11.633000373840332,0,0.0,0.0,,,,,0,,1,,
Raw,15148629,15152497000000,,,-1291005709936228352,0.0,68.58187407488003,-0.7583820161639634,14.386080901282462,164,31,0.0,15,377662361543441,46,20.6,70.92245483398438,0.8479999899864197,0,0.0,0.0,,,,,0,,1,,
Raw,15148630,15152497000000,,,-1291005709936228352,0.0,68.58187407488003,-0.7583820161639634,14.386080901282462,164,32,0.0,15,377662362956325,46,20.8,343.9367980957031,0.8495000004768372,0,0.0,0.0,,,,,0,,1,,
Raw,15148631,15152497000000,,,-1291005709936228352,0.0,68.58187407488003,-0.7583820161639634,14.386080901282462,164,5,0.0,783,377648300039897,79,19.6,14.258932113647461,3.873500108718872,0,0.0,0.0,,,,,0,,5,,
Raw,15148632,15152497000000,,,-1291005709936228352,0.0,68.58187407488003,-0.7583820161639634,14.386080901282462,164,7,0.0,15,377648312167363,336,10.6,18.771860122680664,9.244500160217285,0,0.0,0.0,,,,,0,,5,,
Raw,15148632,15152497000000,,,-1291005709936228352,0.0,68.58187407488003,-0.7583820161639634,14.386080901282462,164,10,0.0,15,377648308886475,108,16.1,-40.24187469482422,4.088500022888184,0,0.0,0.0,,,,,0,,5,,
Raw,15148633,15152497000000,,,-1291005709936228352,0.0,68.58187407488003,-0.7583820161639634,14.386080901282462,164,14,0.0,15,377648347881970,27,24.0,-431.7911682128906,0.5870000123977661,0,0.0,0.0,,,,,0,,5,,
Raw,15148633,15152497000000,,,-1291005709936228352,0.0,68.58187407488003,-0.7583820161639634,14.386080901282462,164,16,0.0,15,377648312854979,40,21.3,-82.17369842529297,0.7444999814033508,0,0.0,0.0,,,,,0,,5,,
Raw,15148634,15152497000000,,,-1291005709936228352,0.0,68.58187407488003,-0.7583820161639634,14.386080901282462,164,21,0.0,15,377648357763423,110,14.7,304.66107177734375,2.0320000648498535,0,0.0,0.0,,,,,0,,5,,
Raw,15148635,15152497000000,,,-1291005709936228352,0.0,68.58187407488003,-0.7583820161639634,14.386080901282462,164,24,0.0,15,377648346497828,46,20.2,-284.2280578613281,0.7954999804496765,0,0.0,0.0,,,,,0,,5,,
Raw,15148635,15152497000000,,,-1291005709936228352,0.0,68.58187407488003,-0.7583820161639634,14.386080901282462,164,26,0.0,15,377648357480772,167,15.9,-71.72674560546875,6.3520002365112305,0,0.0,0.0,,,,,0,,5,,
Raw,15148636,15152497000000,,,-1291005709936228352,0.0,68.58187407488003,-0.7583820161639634,14.386080901282462,164,3,0.0,7183,377662339165290,24,25.2,-517.34521484375,0.41030001640319824,0,0.0,0.0,,,,,0,,6,,
Raw,15148636,15152497000000,,,-1291005709936228352,0.0,68.58187407488003,-0.7583820161639634,14.386080901282462,164,25,0.0,7183,377662347906653,70,17.3,-205.83114624023438,0.9239999651908875,0,0.0,0.0,,,,,0,,6,,
NMEA,$GNGSA,A,2,25,,,,,,,,,,,,1.6,1.3,0.9,3*39,1606985643502
NMEA,$PQGSA,A,2,24,,,,,,,,,,,,1.6,1.3,0.9,4*37,1606985643503
NMEA,$GNVTG,,T,,M,0.0,N,0.0,K,A*3D,1606985643503
NMEA,$GNRMC,085404.00,A,2255.527571,N,12017.682260,E,0.0,,031220,2.8,W,A*1C,1606985643504
NMEA,$GNGGA,085404.00,2255.527571,N,12017.682260,E,1,08,1.3,28.2,M,17.5,M,,*40,1606985643504
Fix,gps,22.925460,120.294704,45.645996,0.000000,9.648001,1606985645000
NMEA,$GPGSV,3,1,11,03,17,299,29,04,01,319,29,16,44,237,18,22,24,277,28*74,1606985644497
NMEA,$GPGSV,3,2,11,26,70,293,13,27,10,189,11,31,47,016,21,32,54,129,21*79,1606985644497
NMEA,$GPGSV,3,3,11,10,04,170,,25,05,042,,29,26,060,*47,1606985644497
NMEA,$GLGSV,3,1,10,74,36,296,30,75,00,000,29,73,37,004,17,71,70,268,13*6A,1606985644497
NMEA,$GLGSV,3,2,10,72,28,324,19,70,37,174,,82,03,042,,80,06,046,*65,1606985644498
NMEA,$GLGSV,3,3,10,84,07,142,,83,14,085,*6B,1606985644500
NMEA,$GAGSV,2,1,07,03,07,320,25,25,35,257,17,04,11,144,,05,57,312,*6B,1606985644500
NMEA,$GAGSV,2,2,07,09,64,157,,24,61,341,,31,25,036,*50,1606985644500
NMEA,$PQGSV,1,1,03,193,47,164,17,194,63,032,20,195,37,136,22,0,5*63,1606985644500
NMEA,$PQGSV,4,1,16,05,16,257,20,07,76,262,11,10,51,237,16,14,16,314,24,0,4*6F,1606985644501
Raw,15149585,15153497000000,,,-1291005709936228352,0.0,69.38958540558815,-0.644767744627262,14.407014229228663,164,10,0.0,207,42845362721316,17,28.9,-48.44648742675781,0.2363000065088272,0,0.0,0.0,,,,,0,,3,,
Raw,15149586,15153497000000,,,-1291005709936228352,0.0,69.38958540558815,-0.644767744627262,14.407014229228663,164,11,0.0,207,42845358025690,17,28.8,-238.50279235839844,0.26030001044273376,0,0.0,0.0,,,,,0,,3,,
Raw,15149586,15153497000000,,,-1291005709936228352,0.0,69.38958540558815,-0.644767744627262,14.407014229228663,164,9,0.0,207,42845362794766,79,17.4,306.85711669921875,2.7795000076293945,0,0.0,0.0,,,,,0,,3,,
Raw,15149587,15153497000000,,,-1291005709936228352,0.0,69.38958540558815,-0.644767744627262,14.407014229228663,164,7,0.0,207,42845368504393,488,13.1,37.13751220703125,13.68850040435791,0,0.0,0.0,,,,,0,,3,,
Raw,15149587,15153497000000,,,-1291005709936228352,0.0,69.38958540558815,-0.644767744627262,14.407014229228663,164,8,0.0,207,42845360319425,53,19.0,-607.36279296875,1.1165000200271606,0,0.0,0.0,,,,,0,,3,,
Raw,15149588,15153497000000,,,-1291005709936228352,0.0,69.38958540558815,-0.644767744627262,14.407014229228663,164,3,0.0,15,377663353582891,19,27.6,-185.939453125,0.20000000298023224,0,0.0,0.0,,,,,0,,1,,
Raw,15149588,15153497000000,,,-1291005709936228352,0.0,69.38958540558815,-0.644767744627262,14.407014229228663,164,4,0.0,15,377663347724009,16,29.5,-649.6941528320312,0.20000000298023224,0,0.0,0.0,,,,,0,,1,,
Raw,15149589,15153497000000,,,-1291005709936228352,0.0,69.38958540558815,-0.644767744627262,14.407014229228663,164,16,0.0,15,377663361571441,92,15.7,-404.3930969238281,1.2580000162124634,0,0.0,0.0,,,,,0,,1,,
Raw,15149590,15153497000000,,,-1291005709936228352,0.0,69.38958540558815,-0.644767744627262,14.407014229228663,164,22,0.0,15,377663354471938,17,28.1,22.18922996520996,0.20000000298023224,0,0.0,0.0,,,,,0,,1,,
Raw,15149590,15153497000000,,,-1291005709936228352,0.0,69.38958540558815,-0.644767744627262,14.407014229228663,164,26,0.0,15,377663365413482,857,12.9,25.432750701904297,18.779001235961914,0,0.0,0.0,,,,,0,,1,,
Raw,15149591,15153497000000,,,-1291005709936228352,0.0,69.38958540558815,-0.644767744627262,14.407014229228663,164,27,0.0,15,377663351285929,510,10.5,-699.9762573242188,13.133000373840332,0,0.0,0.0,,,,,0,,1,,
Raw,15149592,15153497000000,,,-1291005709936228352,0.0,69.38958540558815,-0.644767744627262,14.407014229228663,164,29,0.0,15,377663356051487,1628,12.7,221.23541259765625,7.890500545501709,0,0.0,0.0,,,,,0,,1,,
Raw,15149592,15153497000000,,,-1291005709936228352,0.0,69.38958540558815,-0.644767744627262,14.407014229228663,164,31,0.0,15,377663361543214,40,21.3,71.16031646728516,0.8479999899864197,0,0.0,0.0,,,,,0,,1,,
Raw,15149592,15153497000000,,,-1291005709936228352,0.0,69.38958540558815,-0.644767744627262,14.407014229228663,164,32,0.0,15,377663362955132,46,20.4,344.3173828125,0.9194999933242798,0,0.0,0.0,,,,,0,,1,,
Raw,15149593,15153497000000,,,-1291005709936228352,0.0,69.38958540558815,-0.644767744627262,14.407014229228663,164,5,0.0,783,377649300039849,107,19.6,14.258932113647461,5.373500347137451,0,0.0,0.0,,,,,0,,5,,
Raw,15149593,15153497000000,,,-1291005709936228352,0.0,69.38958540558815,-0.644767744627262,14.407014229228663,164,7,0.0,15,377649312167300,397,10.6,18.771860122680664,10.744500160217285,0,0.0,0.0,,,,,0,,5,,
Raw,15149594,15153497000000,,,-1291005709936228352,0.0,69.38958540558815,-0.644767744627262,14.407014229228663,164,10,0.0,15,377649308886610,137,16.1,-40.24187469482422,5.588500022888184,0,0.0,0.0,,,,,0,,5,,
Raw,15149594,15153497000000,,,-1291005709936228352,0.0,69.38958540558815,-0.644767744627262,14.407014229228663,164,14,0.0,15,377649347883423,24,25.9,-431.5806579589844,0.392300009727478,0,0.0,0.0,,,,,0,,5,,
Raw,15149595,15153497000000,,,-1291005709936228352,0.0,69.38958540558815,-0.644767744627262,14.407014229228663,164,16,0.0,15,377649312855209,53,19.0,-82.53857421875,0.8644999861717224,0,0.0,0.0,,,,,0,,5,,
Raw,15149596,15153497000000,,,-1291005709936228352,0.0,69.38958540558815,-0.644767744627262,14.407014229228663,164,21,0.0,15,377649357762408,53,19.5,304.03692626953125,0.871999979019165,0,0.0,0.0,,,,,0,,5,,
Raw,15149596,15153497000000,,,-1291005709936228352,0.0,69.38958540558815,-0.644767744627262,14.407014229228663,164,24,0.0,15,377649346498789,35,22.2,-283.728759765625,0.6754999756813049,0,0.0,0.0,,,,,0,,5,,
Raw,15149597,15153497000000,,,-1291005709936228352,0.0,69.38958540558815,-0.644767744627262,14.407014229228663,164,26,0.0,15,377649357481011,211,15.9,-71.72674560546875,7.8520002365112305,0,0.0,0.0,,,,,0,,5,,
Raw,15149597,15153497000000,,,-1291005709936228352,0.0,69.38958540558815,-0.644767744627262,14.407014229228663,164,3,0.0,7183,377663339167041,27,24.9,-517.3513793945312,0.5550000071525574,0,0.0,0.0,,,,,0,,6,,
Raw,15149598,15153497000000,,,-1291005709936228352,0.0,69.38958540558815,-0.644767744627262,14.407014229228663,164,25,0.0,7183,377663347907404,61,18.6,-205.62184143066406,0.8539999723434448,0,0.0,0.0,,,,,0,,6,,
NMEA,$PQGSV,4,2,16,16,75,039,21,21,55,220,15,24,11,271,20,26,45,312,16,0,4*63,1606985644501
NMEA,$PQGSV,4,3,16,01,52,129,,02,40,240,,03,59,202,,04,37,115,,0,4*6D,1606985644501
NMEA,$PQGSV,4,4,16,06,75,053,,09,59,338,,13,00,000,,22,19,167,,0,4*69,1606985644501
NMEA,$GNGSA,A,3,03,16,22,26,31,32,,,,,,,1.6,1.3,0.9,1*3E,1606985644502
NMEA,$GNGSA,A,2,25,,,,,,,,,,,,1.6,1.3,0.9,3*39,1606985644502
NMEA,$PQGSA,A,2,24,,,,,,,,,,,,1.6,1.3,0.9,4*37,1606985644502
NMEA,$GNVTG,,T,,M,0.0,N,0.0,K,A*3D,1606985644502
NMEA,$GNRMC,085405.00,A,2255.527571,N,12017.682259,E,0.0,,031220,2.8,W,A*17,1606985644503
NMEA,$GNGGA,085405.00,2255.527571,N,12017.682259,E,1,08,1.3,28.2,M,17.5,M,,*4B,1606985644503
Fix,gps,22.925460,120.294704,45.648682,0.000000,9.648001,1606985646000
NMEA,$GPGSV,3,1,11,03,17,299,28,04,01,319,30,16,44,237,16,22,24,277,28*73,1606985645494
NMEA,$GPGSV,3,2,11,26,70,293,13,27,10,189,11,29,26,060,13,31,47,016,21*7B,1606985645494
NMEA,$GPGSV,3,3,11,32,54,129,20,10,04,170,,25,05,042,*46,1606985645494
NMEA,$GLGSV,3,1,10,74,36,296,29,75,00,000,29,73,37,004,17,71,70,268,13*62,1606985645495
NMEA,$GLGSV,3,2,10,72,28,324,19,70,37,174,,82,03,042,,80,06,046,*65,1606985645495
NMEA,$GLGSV,3,3,10,84,07,142,,83,14,085,*6B,1606985645495
NMEA,$GAGSV,2,1,07,03,07,320,25,25,35,257,19,04,11,144,,05,57,312,*65,1606985645495
NMEA,$GAGSV,2,2,07,09,64,157,,24,61,341,,31,25,036,*50,1606985645495
NMEA,$PQGSV,1,1,03,193,47,164,17,194,63,032,19,195,37,136,22,0,5*69,1606985645495
NMEA,$PQGSV,4,1,16,05,16,257,20,07,76,262,11,10,51,237,16,14,16,314,26,0,4*6D,1606985645495
NMEA,$PQGSV,4,2,16,16,75,039,19,21,55,220,20,24,11,271,22,26,45,312,16,0,4*6C,1606985645495
NMEA,$PQGSV,4,3,16,01,52,129,,02,40,240,,03,59,202,,04,37,115,,0,4*6D,1606985645496
NMEA,$PQGSV,4,4,16,06,75,053,,09,59,338,,13,00,000,,22,19,167,,0,4*69,1606985645496
NMEA,$GNGSA,A,3,03,16,22,26,31,32,,,,,,,1.6,1.3,0.9,1*3E,1606985645496
NMEA,$GNGSA,A,2,25,,,,,,,,,,,,1.6,1.3,0.9,3*39,1606985645496
NMEA,$PQGSA,A,2,24,,,,,,,,,,,,1.6,1.3,0.9,4*37,1606985645496
NMEA,$GNVTG,,T,,M,0.0,N,0.0,K,A*3D,1606985645497
NMEA,$GNRMC,085406.00,A,2255.527572,N,12017.682257,E,0.0,,031220,2.8,W,A*19,1606985645497
NMEA,$GNGGA,085406.00,2255.527572,N,12017.682257,E,1,08,1.3,28.2,M,17.5,M,,*45,1606985645497
Raw,15150584,15154497000000,,,-1291005709936228352,0.0,71.47050928324461,0.10138313248391015,15.439319482398675,164,10,0.0,207,42846362721509,16,29.9,-49.44204330444336,0.2296999990940094,0,0.0,0.0,,,,,0,,3,,
Raw,15150584,15154497000000,,,-1291005709936228352,0.0,71.47050928324461,0.10138313248391015,15.439319482398675,164,11,0.0,207,42846358026497,16,29.1,-239.43663024902344,0.25369998812675476,0,0.0,0.0,,,,,0,,3,,
Raw,15150585,15154497000000,,,-1291005709936228352,0.0,71.47050928324461,0.10138313248391015,15.439319482398675,164,9,0.0,207,42846362793629,73,17.9,307.69049072265625,2.0295000076293945,0,0.0,0.0,,,,,0,,3,,
Raw,15150585,15154497000000,,,-1291005709936228352,0.0,71.47050928324461,0.10138313248391015,15.439319482398675,164,7,0.0,207,42846368504270,579,13.1,37.13751220703125,15.18850040435791,0,0.0,0.0,,,,,0,,3,,
Raw,15150585,15154497000000,,,-1291005709936228352,0.0,71.47050928324461,0.10138313248391015,15.439319482398675,164,8,0.0,207,42846360321703,70,17.8,-609.0154418945312,1.2764999866485596,0,0.0,0.0,,,,,0,,3,,
Raw,15150586,15154497000000,,,-1291005709936228352,0.0,71.47050928324461,0.10138313248391015,15.439319482398675,164,3,0.0,15,377664353583520,14,30.3,-186.83409118652344,0.20000000298023224,0,0.0,0.0,,,,,0,,1,,
Raw,15150586,15154497000000,,,-1291005709936228352,0.0,71.47050928324461,0.10138313248391015,15.439319482398675,164,4,0.0,15,377664347726180,17,28.7,-650.7384643554688,0.20000000298023224,0,0.0,0.0,,,,,0,,1,,
Raw,15150587,15154497000000,,,-1291005709936228352,0.0,71.47050928324461,0.10138313248391015,15.439319482398675,164,16,0.0,15,377664361572851,53,19.1,-404.3740539550781,0.9980000257492065,0,0.0,0.0,,,,,0,,1,,
Raw,15150587,15154497000000,,,-1291005709936228352,0.0,71.47050928324461,0.10138313248391015,15.439319482398675,164,22,0.0,15,377664354471935,19,27.3,21.287765502929688,0.20000000298023224,0,0.0,0.0,,,,,0,,1,,
Raw,15150587,15154497000000,,,-1291005709936228352,0.0,71.47050928324461,0.10138313248391015,15.439319482398675,164,26,0.0,15,377664365413397,982,12.9,25.432750701904297,20.279001235961914,0,0.0,0.0,,,,,0,,1,,
Raw,15150588,15154497000000,,,-1291005709936228352,0.0,71.47050928324461,0.10138313248391015,15.439319482398675,164,27,0.0,15,377664351288264,597,10.5,-699.9762573242188,14.633000373840332,0,0.0,0.0,,,,,0,,1,,
Raw,15150588,15154497000000,,,-1291005709936228352,0.0,71.47050928324461,0.10138313248391015,15.439319482398675,164,29,0.0,15,377664356050760,1653,12.8,220.8072509765625,8.64050006866455,0,0.0,0.0,,,,,0,,1,,
Raw,15150589,15154497000000,,,-1291005709936228352,0.0,71.47050928324461,0.10138313248391015,15.439319482398675,164,31,0.0,15,377664361542885,46,20.8,69.93292236328125,0.8479999899864197,0,0.0,0.0,,,,,0,,1,,
Raw,15150590,15154497000000,,,-1291005709936228352,0.0,71.47050928324461,0.10138313248391015,15.439319482398675,164,32,0.0,15,377664362954088,35,22.2,342.6142578125,0.7894999980926514,0,0.0,0.0,,,,,0,,1,,
Raw,15150590,15154497000000,,,-1291005709936228352,0.0,71.47050928324461,0.10138313248391015,15.439319482398675,164,5,0.0,783,377650300039802,145,19.6,14.258932113647461,6.873500347137451,0,0.0,0.0,,,,,0,,5,,
Raw,15150590,15154497000000,,,-1291005709936228352,0.0,71.47050928324461,0.10138313248391015,15.439319482398675,164,7,0.0,15,377650312167237,468,10.6,18.771860122680664,12.244500160217285,0,0.0,0.0,,,,,0,,5,,
Raw,15150591,15154497000000,,,-1291005709936228352,0.0,71.47050928324461,0.10138313248391015,15.439319482398675,164,10,0.0,15,377650308886744,175,16.1,-40.24187469482422,7.088500022888184,0,0.0,0.0,,,,,0,,5,,
Raw,15150591,15154497000000,,,-1291005709936228352,0.0,71.47050928324461,0.10138313248391015,15.439319482398675,164,14,0.0,15,377650347884838,19,27.0,-432.59259033203125,0.20000000298023224,0,0.0,0.0,,,,,0,,5,,
Raw,15150592,15154497000000,,,-1291005709936228352,0.0,71.47050928324461,0.10138313248391015,15.439319482398675,164,16,0.0,15,377650312855525,53,19.6,-82.98986053466797,0.8644999861717224,0,0.0,0.0,,,,,0,,5,,
Raw,15150592,15154497000000,,,-1291005709936228352,0.0,71.47050928324461,0.10138313248391015,15.439319482398675,164,21,0.0,15,377650357761458,70,17.5,302.2221374511719,1.0220000743865967,0,0.0,0.0,,,,,0,,5,,
Raw,15150592,15154497000000,,,-1291005709936228352,0.0,71.47050928324461,0.10138313248391015,15.439319482398675,164,24,0.0,15,377650346499719,53,19.6,-285.7835693359375,0.8554999828338623,0,0.0,0.0,,,,,0,,5,,
Raw,15150593,15154497000000,,,-1291005709936228352,0.0,71.47050928324461,0.10138313248391015,15.439319482398675,164,26,0.0,15,377650357481333,151,13.0,-72.51411437988281,4.381999969482422,0,0.0,0.0,,,,,0,,5,,
Raw,15150593,15154497000000,,,-1291005709936228352,0.0,71.47050928324461,0.10138313248391015,15.439319482398675,164,3,0.0,7183,377664339168775,27,24.4,-518.0555419921875,0.5550000071525574,0,0.0,0.0,,,,,0,,6,,
Raw,15150594,15154497000000,,,-1291005709936228352,0.0,71.47050928324461,0.10138313248391015,15.439319482398675,164,25,0.0,7183,377664347908090,69,18.6,-205.62184143066406,2.3540000915527344,0,0.0,0.0,,,,,0,,6,,
Fix,gps,22.925460,120.294704,45.649963,0.000000,10.720000,1606985647000
NMEA,$GPGSV,3,1,11,03,17,299,30,04,01,319,29,16,44,237,19,22,24,277,27*72,1606985646495
NMEA,$GPGSV,3,2,11,26,70,293,13,27,10,189,11,29,26,060,13,31,47,016,21*7B,1606985646496
NMEA,$GPGSV,3,3,11,32,54,129,22,10,04,170,,25,05,042,*44,1606985646496
NMEA,$GLGSV,3,1,10,74,36,296,30,75,00,000,29,73,37,004,18,71,70,268,13*65,1606985646496
NMEA,$GLGSV,3,2,10,72,28,324,18,70,37,174,,82,03,042,,80,06,046,*64,1606985646496
NMEA,$GLGSV,3,3,10,84,07,142,,83,14,085,*6B,1606985646498
NMEA,$GAGSV,2,1,07,03,07,320,24,25,35,257,19,04,11,144,,05,57,312,*64,1606985646499
NMEA,$GAGSV,2,2,07,09,64,157,,24,61,341,,31,25,036,*50,1606985646499
NMEA,$PQGSV,1,1,03,193,47,164,17,194,63,032,18,195,37,136,22,0,5*68,1606985646499
NMEA,$PQGSV,4,1,16,05,16,257,20,07,76,262,11,10,51,237,16,14,16,314,27,0,4*6C,1606985646499
NMEA,$PQGSV,4,2,16,16,75,039,20,21,55,220,18,24,11,271,20,26,45,312,13,0,4*6A,1606985646500
NMEA,$PQGSV,4,3,16,01,52,129,,02,40,240,,03,59,202,,04,37,115,,0,4*6D,1606985646500
NMEA,$PQGSV,4,4,16,06,75,053,,09,59,338,,13,00,000,,22,19,167,,0,4*69,1606985646500
NMEA,$GNGSA,A,3,03,16,22,26,31,32,,,,,,,1.6,1.3,1.0,1*36,1606985646501
NMEA,$GNGSA,A,2,25,,,,,,,,,,,,1.6,1.3,1.0,3*31,1606985646501
NMEA,$PQGSA,A,2,24,,,,,,,,,,,,1.6,1.3,1.0,4*3F,1606985646506
NMEA,$GNVTG,,T,,M,0.0,N,0.0,K,A*3D,1606985646506
NMEA,$GNRMC,085407.00,A,2255.527572,N,12017.682254,E,0.0,,031220,2.8,W,A*1B,1606985646506
NMEA,$GNGGA,085407.00,2255.527572,N,12017.682254,E,1,08,1.3,28.2,M,17.5,M,,*47,1606985646506
Raw,15151578,15155497000000,,,-1291005709936228352,0.0,76.830227044411,-4.299552628040781,16.29305283916873,164,10,0.0,207,42847362721685,17,28.5,-50.556861877441406,0.2363000065088272,0,0.0,0.0,,,,,0,,3,,
Raw,15151579,15155497000000,,,-1291005709936228352,0.0,76.830227044411,-4.299552628040781,16.29305283916873,164,11,0.0,207,42847358027323,16,29.1,-240.5585174560547,0.25369998812675476,0,0.0,0.0,,,,,0,,3,,
Raw,15151579,15155497000000,,,-1291005709936228352,0.0,76.830227044411,-4.299552628040781,16.29305283916873,164,9,0.0,207,42847362792563,46,20.1,305.4057922363281,1.0494999885559082,0,0.0,0.0,,,,,0,,3,,
Raw,15151580,15155497000000,,,-1291005709936228352,0.0,76.830227044411,-4.299552628040781,16.29305283916873,164,7,0.0,207,42847368504146,679,13.1,37.13751220703125,16.688501358032227,0,0.0,0.0,,,,,0,,3,,
Raw,15151580,15155497000000,,,-1291005709936228352,0.0,76.830227044411,-4.299552628040781,16.29305283916873,164,8,0.0,207,42847360323505,70,17.2,-608.4365844726562,1.2764999866485596,0,0.0,0.0,,,,,0,,3,,
Raw,15151581,15155497000000,,,-1291005709936228352,0.0,76.830227044411,-4.299552628040781,16.29305283916873,164,3,0.0,15,377665353584136,12,32.2,-187.92105102539062,0.20000000298023224,0,0.0,0.0,,,,,0,,1,,
Raw,15151581,15155497000000,,,-1291005709936228352,0.0,76.830227044411,-4.299552628040781,16.29305283916873,164,4,0.0,15,377665347728347,17,28.1,-651.914306640625,0.20000000298023224,0,0.0,0.0,,,,,0,,1,,
Raw,15151582,15155497000000,,,-1291005709936228352,0.0,76.830227044411,-4.299552628040781,16.29305283916873,164,16,0.0,15,377665361574255,61,18.1,-406.57196044921875,1.0779999494552612,0,0.0,0.0,,,,,0,,1,,
Raw,15151582,15155497000000,,,-1291005709936228352,0.0,76.830227044411,-4.299552628040781,16.29305283916873,164,22,0.0,15,377665354471851,17,28.2,20.192222595214844,0.20000000298023224,0,0.0,0.0,,,,,0,,1,,
Raw,15151582,15155497000000,,,-1291005709936228352,0.0,76.830227044411,-4.299552628040781,16.29305283916873,164,26,0.0,15,377665365413312,1117,12.9,25.432750701904297,21.779001235961914,0,0.0,0.0,,,,,0,,1,,
Raw,15151583,15155497000000,,,-1291005709936228352,0.0,76.830227044411,-4.299552628040781,16.29305283916873,164,27,0.0,15,377665351290548,223,11.2,-701.7650146484375,6.383000373840332,0,0.0,0.0,,,,,0,,1,,
Raw,15151583,15155497000000,,,-1291005709936228352,0.0,76.830227044411,-4.299552628040781,16.29305283916873,164,29,0.0,15,377665356050018,1680,12.8,220.63601684570312,9.39050006866455,0,0.0,0.0,,,,,0,,1,,
Raw,15151584,15155497000000,,,-1291005709936228352,0.0,76.830227044411,-4.299552628040781,16.29305283916873,164,31,0.0,15,377665361542715,35,22.1,68.93388366699219,0.7879999876022339,0,0.0,0.0,,,,,0,,1,,
Raw,15151584,15155497000000,,,-1291005709936228352,0.0,76.830227044411,-4.299552628040781,16.29305283916873,164,32,0.0,15,377665362952944,40,21.6,342.34783935546875,0.7894999980926514,0,0.0,0.0,,,,,0,,1,,
Raw,15151585,15155497000000,,,-1291005709936228352,0.0,76.830227044411,-4.299552628040781,16.29305283916873,164,5,0.0,783,377651300039833,77,18.0,15.766441345214844,3.19350004196167,0,0.0,0.0,,,,,0,,5,,
Raw,15151585,15155497000000,,,-1291005709936228352,0.0,76.830227044411,-4.299552628040781,16.29305283916873,164,7,0.0,15,377651312167275,149,12.7,18.771860122680664,2.994500160217285,0,0.0,0.0,,,,,0,,5,,
Raw,15151585,15155497000000,,,-1291005709936228352,0.0,76.830227044411,-4.299552628040781,16.29305283916873,164,10,0.0,15,377651308886878,224,16.1,-40.24187469482422,8.588500022888184,0,0.0,0.0,,,,,0,,5,,
Raw,15151586,15155497000000,,,-1291005709936228352,0.0,76.830227044411,-4.299552628040781,16.29305283916873,164,14,0.0,15,377651347886285,27,24.9,-433.7020263671875,0.5370000004768372,0,0.0,0.0,,,,,0,,5,,
Raw,15151586,15155497000000,,,-1291005709936228352,0.0,76.830227044411,-4.299552628040781,16.29305283916873,164,16,0.0,15,377651312855799,53,19.5,-83.96926879882812,0.8644999861717224,0,0.0,0.0,,,,,0,,5,,
Raw,15151586,15155497000000,,,-1291005709936228352,0.0,76.830227044411,-4.299552628040781,16.29305283916873,164,21,0.0,15,377651357760450,79,17.5,302.2221374511719,2.5220000743865967,0,0.0,0.0,,,,,0,,5,,
Raw,15151587,15155497000000,,,-1291005709936228352,0.0,76.830227044411,-4.299552628040781,16.29305283916873,164,24,0.0,15,377651346500595,70,17.4,-286.7725830078125,1.005500078201294,0,0.0,0.0,,,,,0,,5,,
Raw,15151588,15155497000000,,,-1291005709936228352,0.0,76.830227044411,-4.299552628040781,16.29305283916873,164,26,0.0,15,377651357481574,181,13.0,-72.51411437988281,5.88200044631958,0,0.0,0.0,,,,,0,,5,,
Raw,15151588,15155497000000,,,-1291005709936228352,0.0,76.830227044411,-4.299552628040781,16.29305283916873,164,3,0.0,7183,377665339170505,31,23.2,-519.6539916992188,0.6050000190734863,0,0.0,0.0,,,,,0,,6,,
Raw,15151588,15155497000000,,,-1291005709936228352,0.0,76.830227044411,-4.299552628040781,16.29305283916873,164,25,0.0,7183,377665347908735,63,18.5,-206.98243713378906,1.6039999723434448,0,0.0,0.0,,,,,0,,6,,
Fix,gps,22.925460,120.294704,45.651550,0.000000,10.720000,1606985648000
NMEA,$GPGSV,3,1,11,03,17,299,32,04,01,319,28,16,44,237,18,22,24,277,28*7F,1606985647495
NMEA,$GPGSV,3,2,11,26,70,293,13,27,10,189,11,29,26,060,13,31,47,016,22*78,1606985647495
NMEA,$GPGSV,3,3,11,32,54,129,22,10,04,170,,25,05,042,*44,1606985647497
NMEA,$GLGSV,3,1,10,74,36,296,29,75,00,000,29,73,37,004,20,71,70,268,13*66,1606985647498
NMEA,$GLGSV,3,2,10,72,28,324,17,70,37,174,,82,03,042,,80,06,046,*6B,1606985647499
NMEA,$GLGSV,3,3,10,84,07,142,,83,14,085,*6B,1606985647499
NMEA,$GAGSV,2,1,07,03,07,320,23,25,35,257,19,04,11,144,,05,57,312,*63,1606985647499
NMEA,$GAGSV,2,2,07,09,64,157,,24,61,341,,31,25,036,*50,1606985647499
NMEA,$PQGSV,1,1,03,193,47,164,17,194,63,032,18,195,37,136,23,0,5*69,1606985647500
NMEA,$PQGSV,4,1,16,05,16,257,18,07,76,262,13,10,51,237,16,14,16,314,25,0,4*67,1606985647500
NMEA,$PQGSV,4,2,16,16,75,039,20,21,55,220,18,24,11,271,17,26,45,312,13,0,4*6E,1606985647500
NMEA,$PQGSV,4,3,16,01,52,129,,02,40,240,,03,59,202,,04,37,115,,0,4*6D,1606985647500
NMEA,$PQGSV,4,4,16,06,75,053,,09,59,338,,13,00,000,,22,19,167,,0,4*69,1606985647501
NMEA,$GNGSA,A,3,03,16,22,31,32,,,,,,,,1.6,1.3,1.0,1*32,1606985647502
NMEA,$GNGSA,A,2,25,,,,,,,,,,,,1.6,1.3,1.0,3*31,1606985647502
NMEA,$PQGSA,A,2,24,,,,,,,,,,,,1.6,1.3,1.0,4*3F,1606985647503
NMEA,$GNVTG,,T,,M,0.0,N,0.0,K,A*3D,1606985647503
NMEA,$GNRMC,085408.00,A,2255.527571,N,12017.682253,E,0.0,,031220,2.8,W,A*10,1606985647503
NMEA,$GNGGA,085408.00,2255.527571,N,12017.682253,E,1,07,1.3,28.2,M,17.5,M,,*43,1606985647503
