# 
# Header Description:
# 
# Version: v2.0.0.1 Platform: 8.0.0 Manufacturer: Sony Model: G8142
# 
# Raw,ElapsedRealtimeMillis,TimeNanos,LeapSecond,TimeUncertaintyNanos,FullBiasNanos,BiasNanos,BiasUncertaintyNanos,DriftNanosPerSecond,DriftUncertaintyNanosPerSecond,HardwareClockDiscontinuityCount,Svid,TimeOffsetNanos,State,ReceivedSvTimeNanos,ReceivedSvTimeUncertaintyNanos,Cn0DbHz,PseudorangeRateMetersPerSecond,PseudorangeRateUncertaintyMetersPerSecond,AccumulatedDeltaRangeState,AccumulatedDeltaRangeMeters,AccumulatedDeltaRangeUncertaintyMeters,CarrierFrequencyHz,CarrierCycles,CarrierPhase,CarrierPhaseUncertainty,MultipathIndicator,SnrInDb,ConstellationType,AgcDb,CarrierFrequencyHz
# 
# Fix,Provider,Latitude,Longitude,Altitude,Speed,Accuracy,(UTC)TimeInMs
# 
# Nav,Svid,Type,Status,MessageId,Sub-messageId,Data(Bytes)
# 
Fix,gps,22.925483,120.294686,49.605103,0.000000,12.864000,1606986031000
NMEA,$GPGSV,3,1,11,03,18,296,37,04,03,319,22,16,46,240,24,22,24,274,30*75,1606986030493
NMEA,$GPGSV,3,2,11,27,12,189,23,31,47,021,19,32,51,133,13,10,02,168,*7F,1606986030493
NMEA,$GPGSV,3,3,11,25,03,042,,26,70,305,,29,25,057,*40,1606986030493
NMEA,$GLGSV,3,1,10,74,37,302,26,75,00,000,30,73,35,009,14,71,69,254,18*68,1606986030494
NMEA,$GLGSV,3,2,10,72,30,322,14,70,33,175,,82,02,037,,80,04,049,*6C,1606986030494
NMEA,$GLGSV,3,3,10,84,10,137,,83,16,081,*69,1606986030494
NMEA,$GAGSV,2,1,07,03,08,320,32,05,59,309,13,24,60,344,15,25,35,260,28*6E,1606986030494
NMEA,$GAGSV,2,2,07,04,10,146,,09,61,158,,31,23,037,*5C,1606986030494
NMEA,$PQGSV,1,1,03,193,47,165,18,194,63,032,18,195,38,135,18,0,5*63,1606986030495
NMEA,$PQGSV,4,1,16,02,40,240,19,05,16,257,23,10,51,239,22,14,17,313,22,0,4*6D,1606986030495
NMEA,$PQGSV,4,2,16,21,53,217,23,24,13,272,33,26,45,314,18,01,52,129,,0,4*6F,1606986030495
NMEA,$PQGSV,4,3,16,03,59,202,,04,37,115,,06,76,057,,07,76,268,,0,4*6E,1606986030495
NMEA,$PQGSV,4,4,16,09,59,338,,13,00,000,,16,77,042,,22,17,167,,0,4*64,1606986030495
NMEA,$GNGSA,A,3,03,16,22,31,,,,,,,,,2.1,1.8,1.0,1*3C,1606986030496
NMEA,$GNGSA,A,2,74,,,,,,,,,,,,2.1,1.8,1.0,2*3B,1606986030496
NMEA,$GNGSA,A,2,25,,,,,,,,,,,,2.1,1.8,1.0,3*3E,1606986030496
NMEA,$PQGSA,A,2,14,24,,,,,,,,,,,2.1,1.8,1.0,4*35,1606986030497
NMEA,$GNVTG,,T,,M,0.0,N,0.0,K,A*3D,1606986030497
NMEA,$GNRMC,090031.00,A,2255.529000,N,12017.681180,E,0.0,,031220,2.8,W,A*19,1606986030497
NMEA,$GNGGA,090031.00,2255.529000,N,12017.681180,E,1,08,1.8,32.1,M,17.5,M,,*46,1606986030497
Raw,15535546,15539497000000,,,-1291005709936225024,0.0,117.98350897151977,6.72753833403136,21.416676118546796,164,10,0.0,207,43231362769492,27,24.7,-32.31365966796875,0.8195000290870667,0,0.0,0.0,,,,,0,,3,,
Raw,15535546,15539497000000,,,-1291005709936225024,0.0,117.98350897151977,6.72753833403136,21.416676118546796,164,11,0.0,207,43231358317165,19,27.8,-220.2051544189453,0.26829999685287476,0,0.0,0.0,,,,,0,,3,,
Raw,15535546,15539497000000,,,-1291005709936225024,0.0,117.98350897151977,6.72753833403136,21.416676118546796,164,9,0.0,207,43231362394863,258,14.3,311.08001708984375,9.059500694274902,0,0.0,0.0,,,,,0,,3,,
Raw,15535546,15539497000000,,,-1291005709936225024,0.0,117.98350897151977,6.72753833403136,21.416676118546796,164,7,0.0,207,43231368411758,99,17.6,102.56715393066406,4.2885003089904785,0,0.0,0.0,,,,,0,,3,,
Raw,15535546,15539497000000,,,-1291005709936225024,0.0,117.98350897151977,6.72753833403136,21.416676118546796,164,8,0.0,207,43231361073264,608,14.3,-564.2998657226562,15.808000564575195,0,0.0,0.0,,,,,0,,3,,
Raw,15535547,15539497000000,,,-1291005709936225024,0.0,117.98350897151977,6.72753833403136,21.416676118546796,164,3,0.0,15,378049353792572,9,35.9,-145.4330596923828,0.04110000282526016,0,0.0,0.0,,,,,0,,1,,
Raw,15535547,15539497000000,,,-1291005709936225024,0.0,117.98350897151977,6.72753833403136,21.416676118546796,164,4,0.0,15,378049348559635,40,21.8,-653.6777954101562,0.7985000014305115,0,0.0,0.0,,,,,0,,1,,
Raw,15535547,15539497000000,,,-1291005709936225024,0.0,117.98350897151977,6.72753833403136,21.416676118546796,164,16,0.0,15,378049362064996,31,23.3,-367.7330017089844,0.7294999957084656,0,0.0,0.0,,,,,0,,1,,
Raw,15535547,15539497000000,,,-1291005709936225024,0.0,117.98350897151977,6.72753833403136,21.416676118546796,164,22,0.0,15,378049354417955,13,31.9,55.75199890136719,0.04620000347495079,0,0.0,0.0,,,,,0,,1,,
Raw,15535547,15539497000000,,,-1291005709936225024,0.0,117.98350897151977,6.72753833403136,21.416676118546796,164,27,0.0,15,378049352190257,27,24.4,-707.6260375976562,0.684499979019165,0,0.0,0.0,,,,,0,,1,,
Raw,15535547,15539497000000,,,-1291005709936225024,0.0,117.98350897151977,6.72753833403136,21.416676118546796,164,31,0.0,15,378049361444394,46,20.3,76.57417297363281,0.9179999828338623,0,0.0,0.0,,,,,0,,1,,
Raw,15535548,15539497000000,,,-1291005709936225024,0.0,117.98350897151977,6.72753833403136,21.416676118546796,164,32,0.0,15,378049362484720,140,13.7,381.88134765625,3.7295000553131104,0,0.0,0.0,,,,,0,,1,,
Raw,15535548,15539497000000,,,-1291005709936225024,0.0,117.98350897151977,6.72753833403136,21.416676118546796,164,2,0.0,783,378035308232005,71,19.4,-2.5541253089904785,3.303500175476074,0,0.0,0.0,,,,,0,,5,,
Raw,15535548,15539497000000,,,-1291005709936225024,0.0,117.98350897151977,6.72753833403136,21.416676118546796,164,5,0.0,783,378035300029885,83,23.2,0.3264671564102173,5.143500328063965,0,0.0,0.0,,,,,0,,5,,
Raw,15535548,15539497000000,,,-1291005709936225024,0.0,117.98350897151977,6.72753833403136,21.416676118546796,164,10,0.0,15,378035308929650,46,20.9,-31.9649715423584,0.7384999990463257,0,0.0,0.0,,,,,0,,5,,
Raw,15535548,15539497000000,,,-1291005709936225024,0.0,117.98350897151977,6.72753833403136,21.416676118546796,164,14,0.0,15,378035348417974,40,21.3,-404.5791931152344,0.7384999990463257,0,0.0,0.0,,,,,0,,5,,
Raw,15535548,15539497000000,,,-1291005709936225024,0.0,117.98350897151977,6.72753833403136,21.416676118546796,164,21,0.0,15,378035357345777,53,19.9,336.7220458984375,0.8119999766349792,0,0.0,0.0,,,,,0,,5,,
Raw,15535549,15539497000000,,,-1291005709936225024,0.0,117.98350897151977,6.72753833403136,21.416676118546796,164,24,0.0,15,378035346856342,11,33.2,-277.3562927246094,0.03189999982714653,0,0.0,0.0,,,,,0,,5,,
Raw,15535549,15539497000000,,,-1291005709936225024,0.0,117.98350897151977,6.72753833403136,21.416676118546796,164,26,0.0,15,378035357567021,53,19.3,-67.3962631225586,0.871999979019165,0,0.0,0.0,,,,,0,,5,,
Raw,15535549,15539497000000,,,-1291005709936225024,0.0,117.98350897151977,6.72753833403136,21.416676118546796,164,3,0.0,7183,378049339826706,12,32.4,-512.6797485351562,0.3150000274181366,0,0.0,0.0,,,,,0,,6,,
Raw,15535549,15539497000000,,,-1291005709936225024,0.0,117.98350897151977,6.72753833403136,21.416676118546796,164,5,0.0,7183,378049353170660,1337,12.9,-215.56468200683594,10.067000389099121,0,0.0,0.0,,,,,0,,6,,
Raw,15535549,15539497000000,,,-1291005709936225024,0.0,117.98350897151977,6.72753833403136,21.416676118546796,164,9,0.0,7183,378049359610956,346,12.4,279.3606262207031,10.334000587463379,0,0.0,0.0,,,,,0,,6,,
Raw,15535549,15539497000000,,,-1291005709936225024,0.0,117.98350897151977,6.72753833403136,21.416676118546796,164,24,0.0,7183,378049352979887,876,14.5,184.01397705078125,19.190500259399414,0,0.0,0.0,,,,,0,,6,,
Raw,15535549,15539497000000,,,-1291005709936225024,0.0,117.98350897151977,6.72753833403136,21.416676118546796,164,25,0.0,7183,378049348156979,16,29.9,-186.32969665527344,0.0357000008225441,0,0.0,0.0,,,,,0,,6,,
Fix,gps,22.925493,120.294672,51.107544,1.670000,12.864000,1606986032000
NMEA,$GPGSV,3,1,11,03,18,296,36,04,03,319,22,16,46,240,23,22,24,274,32*71,1606986031494
NMEA,$GPGSV,3,2,11,27,12,189,24,31,47,021,20,32,51,133,14,10,02,168,*75,1606986031494
NMEA,$GPGSV,3,3,11,25,03,042,,26,70,305,,29,25,057,*40,1606986031494
NMEA,$GLGSV,3,1,10,74,37,302,25,75,00,000,28,73,35,009,14,71,69,254,18*62,1606986031495
NMEA,$GLGSV,3,2,10,72,30,322,14,70,33,175,,82,02,037,,80,04,049,*6C,1606986031495
NMEA,$GLGSV,3,3,10,84,10,137,,83,16,081,*69,1606986031495
NMEA,$GAGSV,2,1,07,03,08,320,32,05,59,309,13,09,61,158,12,24,60,344,15*60,1606986031495
NMEA,$GAGSV,2,2,07,25,35,260,30,04,10,146,,31,23,037,*58,1606986031495
NMEA,$PQGSV,1,1,03,193,47,165,17,194,63,032,20,195,38,135,15,0,5*6A,1606986031495
NMEA,$PQGSV,4,1,16,02,40,240,19,05,16,257,23,10,51,239,21,14,17,313,21,0,4*6D,1606986031496
NMEA,$PQGSV,4,2,16,21,53,217,20,24,13,272,33,26,45,314,19,01,52,129,,0,4*6D,1606986031496
NMEA,$PQGSV,4,3,16,03,59,202,,04,37,115,,06,76,057,,07,76,268,,0,4*6E,1606986031496
NMEA,$PQGSV,4,4,16,09,59,338,,13,00,000,,16,77,042,,22,17,167,,0,4*64,1606986031496
NMEA,$GNGSA,A,3,03,16,22,31,,,,,,,,,2.1,1.8,1.0,1*3C,1606986031497
NMEA,$GNGSA,A,2,74,,,,,,,,,,,,2.1,1.8,1.0,2*3B,1606986031497
NMEA,$GNGSA,A,2,25,,,,,,,,,,,,2.1,1.8,1.0,3*3E,1606986031498
NMEA,$PQGSA,A,2,14,24,,,,,,,,,,,2.1,1.8,1.0,4*35,1606986031498
NMEA,$GNVTG,294.2,T,294.2,M,3.2,N,6.0,K,A*3A,1606986031499
NMEA,$GNRMC,090032.00,A,2255.529576,N,12017.680312,E,3.2,294.2,031220,2.8,W,A*34,1606986031499
NMEA,$GNGGA,090032.00,2255.529576,N,12017.680312,E,1,08,1.8,33.6,M,17.5,M,,*4F,1606986031499
Raw,15536884,15540497000000,,,-1291005709936225024,0.0,132.78126425575465,5.642498542853273,21.81073993325137,164,10,0.0,207,43232362769523,21,26.0,-32.036155700683594,0.3141999840736389,0,0.0,0.0,,,,,0,,3,,
Raw,15536884,15540497000000,,,-1291005709936225024,0.0,132.78126425575465,5.642498542853273,21.81073993325137,164,11,0.0,207,43232358317874,21,26.7,-220.044189453125,0.33820000290870667,0,0.0,0.0,,,,,0,,3,,
Raw,15536884,15540497000000,,,-1291005709936225024,0.0,132.78126425575465,5.642498542853273,21.81073993325137,164,9,0.0,207,43232362393826,318,14.3,311.08001708984375,10.559500694274902,0,0.0,0.0,,,,,0,,3,,
Raw,15536884,15540497000000,,,-1291005709936225024,0.0,132.78126425575465,5.642498542853273,21.81073993325137,164,7,0.0,207,43232368411402,103,15.6,102.12815856933594,2.9685001373291016,0,0.0,0.0,,,,,0,,3,,
Raw,15536884,15540497000000,,,-1291005709936225024,0.0,132.78126425575465,5.642498542853273,21.81073993325137,164,8,0.0,207,43232361075146,713,14.3,-564.2998657226562,17.308000564575195,0,0.0,0.0,,,,,0,,3,,
Raw,15536885,15540497000000,,,-1291005709936225024,0.0,132.78126425575465,5.642498542853273,21.81073993325137,164,3,0.0,15,378050353793064,8,36.8,-145.2171173095703,0.04070000350475311,0,0.0,0.0,,,,,0,,1,,
Raw,15536885,15540497000000,,,-1291005709936225024,0.0,132.78126425575465,5.642498542853273,21.81073993325137,164,4,0.0,15,378050348561849,31,23.2,-653.087890625,0.7384999990463257,0,0.0,0.0,,,,,0,,1,,
Raw,15536885,15540497000000,,,-1291005709936225024,0.0,132.78126425575465,5.642498542853273,21.81073993325137,164,16,0.0,15,378050362066279,40,21.9,-367.4570617675781,0.7894999980926514,0,0.0,0.0,,,,,0,,1,,
Raw,15536885,15540497000000,,,-1291005709936225024,0.0,132.78126425575465,5.642498542853273,21.81073993325137,164,22,0.0,15,378050354417797,11,33.6,55.92376708984375,0.04390000179409981,0,0.0,0.0,,,,,0,,1,,
Raw,15536885,15540497000000,,,-1291005709936225024,0.0,132.78126425575465,5.642498542853273,21.81073993325137,164,27,0.0,15,378050352192683,24,25.2,-707.4628295898438,0.39980000257492065,0,0.0,0.0,,,,,0,,1,,
Raw,15536885,15540497000000,,,-1291005709936225024,0.0,132.78126425575465,5.642498542853273,21.81073993325137,164,31,0.0,15,378050361444209,70,17.3,76.35533142089844,1.1679999828338623,0,0.0,0.0,,,,,0,,1,,
Raw,15536886,15540497000000,,,-1291005709936225024,0.0,132.78126425575465,5.642498542853273,21.81073993325137,164,32,0.0,15,378050362483415,70,17.7,381.7196044921875,1.0794999599456787,0,0.0,0.0,,,,,0,,1,,
Raw,15536886,15540497000000,,,-1291005709936225024,0.0,132.78126425575465,5.642498542853273,21.81073993325137,164,2,0.0,783,378036308232014,95,19.4,-2.5541253089904785,4.803500175476074,0,0.0,0.0,,,,,0,,5,,
Raw,15536886,15540497000000,,,-1291005709936225024,0.0,132.78126425575465,5.642498542853273,21.81073993325137,164,5,0.0,783,378036300029772,48,21.0,4.071237564086914,2.253499984741211,0,0.0,0.0,,,,,0,,5,,
Raw,15536886,15540497000000,,,-1291005709936225024,0.0,132.78126425575465,5.642498542853273,21.81073993325137,164,10,0.0,15,378036308929766,53,19.9,-31.494476318359375,0.7985000014305115,0,0.0,0.0,,,,,0,,5,,
Raw,15536886,15540497000000,,,-1291005709936225024,0.0,132.78126425575465,5.642498542853273,21.81073993325137,164,14,0.0,15,378036348419292,40,21.2,-404.3391418457031,0.7384999990463257,0,0.0,0.0,,,,,0,,5,,
Raw,15536886,15540497000000,,,-1291005709936225024,0.0,132.78126425575465,5.642498542853273,21.81073993325137,164,21,0.0,15,378036357344635,40,21.3,337.14453125,0.7519999742507935,0,0.0,0.0,,,,,0,,5,,
Raw,15536887,15540497000000,,,-1291005709936225024,0.0,132.78126425575465,5.642498542853273,21.81073993325137,164,24,0.0,15,378036346857265,11,33.5,-277.2428894042969,0.03189999982714653,0,0.0,0.0,,,,,0,,5,,
Raw,15536887,15540497000000,,,-1291005709936225024,0.0,132.78126425575465,5.642498542853273,21.81073993325137,164,26,0.0,15,378036357567226,46,20.1,-66.96417236328125,0.8119999766349792,0,0.0,0.0,,,,,0,,5,,
Raw,15536887,15540497000000,,,-1291005709936225024,0.0,132.78126425575465,5.642498542853273,21.81073993325137,164,3,0.0,7183,378050339828420,11,33.0,-513.04638671875,0.05140000209212303,0,0.0,0.0,,,,,0,,6,,
Raw,15536887,15540497000000,,,-1291005709936225024,0.0,132.78126425575465,5.642498542853273,21.81073993325137,164,5,0.0,7183,378050353171455,1169,13.9,-216.2687530517578,9.592000007629395,0,0.0,0.0,,,,,0,,6,,
Raw,15536887,15540497000000,,,-1291005709936225024,0.0,132.78126425575465,5.642498542853273,21.81073993325137,164,9,0.0,7183,378050359610024,415,12.4,279.3606262207031,11.834000587463379,0,0.0,0.0,,,,,0,,6,,
Raw,15536887,15540497000000,,,-1291005709936225024,0.0,132.78126425575465,5.642498542853273,21.81073993325137,164,24,0.0,7183,378050352979273,1005,14.5,184.01397705078125,20.690500259399414,0,0.0,0.0,,,,,0,,6,,
Raw,15536887,15540497000000,,,-1291005709936225024,0.0,132.78126425575465,5.642498542853273,21.81073993325137,164,25,0.0,7183,378050348157610,14,30.2,-187.81784057617188,0.03480000048875809,0,0.0,0.0,,,,,0,,6,,
Fix,gps,22.925500,120.294676,51.146118,0.000000,12.864000,1606986033000
NMEA,$GPGSV,3,1,11,03,18,296,37,04,03,319,23,16,46,240,22,22,24,274,34*76,1606986032494
NMEA,$GPGSV,3,2,11,27,12,189,25,31,47,021,17,32,51,133,18,10,02,168,*7C,1606986032494
NMEA,$GPGSV,3,3,11,25,03,042,,26,70,305,,29,25,057,*40,1606986032494
NMEA,$GLGSV,3,1,10,74,37,302,26,75,00,000,27,73,35,009,14,71,69,254,16*60,1606986032494
NMEA,$GLGSV,3,2,10,72,30,322,14,70,33,175,,82,02,037,,80,04,049,*6C,1606986032495
NMEA,$GLGSV,3,3,10,84,10,137,,83,16,081,*69,1606986032495
NMEA,$GAGSV,2,1,07,03,08,320,33,05,59,309,14,09,61,158,12,24,60,344,15*66,1606986032495
NMEA,$GAGSV,2,2,07,25,35,260,30,04,10,146,,31,23,037,*58,1606986032496
NMEA,$PQGSV,1,1,03,193,47,165,18,194,63,032,20,195,38,135,15,0,5*65,1606986032496
NMEA,$PQGSV,4,1,16,02,40,240,19,05,16,257,21,10,51,239,20,14,17,313,21,0,4*6E,1606986032496
NMEA,$PQGSV,4,2,16,21,53,217,21,24,13,272,34,26,45,314,20,01,52,129,,0,4*61,1606986032497
NMEA,$PQGSV,4,3,16,03,59,202,,04,37,115,,06,76,057,,07,76,268,,0,4*6E,1606986032497
NMEA,$PQGSV,4,4,16,09,59,338,,13,00,000,,16,77,042,,22,17,167,,0,4*64,1606986032497
NMEA,$GNGSA,A,3,03,16,22,31,,,,,,,,,2.1,1.8,1.0,1*3C,1606986032498
NMEA,$GNGSA,A,2,74,,,,,,,,,,,,2.1,1.8,1.0,2*3B,1606986032498
NMEA,$GNGSA,A,2,25,,,,,,,,,,,,2.1,1.8,1.0,3*3E,1606986032498
NMEA,$PQGSA,A,2,14,24,,,,,,,,,,,2.1,1.8,1.0,4*35,1606986032498
NMEA,$GNVTG,,T,,M,0.0,N,0.0,K,A*3D,1606986032499
NMEA,$GNRMC,090033.00,A,2255.529990,N,12017.680533,E,0.0,,031220,2.8,W,A*16,1606986032499
NMEA,$GNGGA,090033.00,2255.529990,N,12017.680533,E,1,08,1.8,33.7,M,17.5,M,,*4E,1606986032499
Raw,15537559,15541497000000,,,-1291005709936225024,0.0,124.53926319722086,3.869030450761115,17.7598443366782,164,10,0.0,207,43233362769685,27,24.4,-32.59505844116211,0.8195000290870667,0,0.0,0.0,,,,,0,,3,,
Raw,15537560,15541497000000,,,-1291005709936225024,0.0,124.53926319722086,3.869030450761115,17.7598443366782,164,11,0.0,207,43233358318697,14,30.4,-220.89862060546875,0.25279998779296875,0,0.0,0.0,,,,,0,,3,,
Raw,15537560,15541497000000,,,-1291005709936225024,0.0,124.53926319722086,3.869030450761115,17.7598443366782,164,9,0.0,207,43233362392788,388,14.3,311.08001708984375,12.059500694274902,0,0.0,0.0,,,,,0,,3,,
Raw,15537560,15541497000000,,,-1291005709936225024,0.0,124.53926319722086,3.869030450761115,17.7598443366782,164,7,0.0,207,43233368411062,123,15.6,102.12815856933594,4.468500137329102,0,0.0,0.0,,,,,0,,3,,
Raw,15537560,15541497000000,,,-1291005709936225024,0.0,124.53926319722086,3.869030450761115,17.7598443366782,164,8,0.0,207,43233361077029,828,14.3,-564.2998657226562,18.808000564575195,0,0.0,0.0,,,,,0,,3,,
Raw,15537561,15541497000000,,,-1291005709936225024,0.0,124.53926319722086,3.869030450761115,17.7598443366782,164,3,0.0,15,378051353793559,7,37.0,-146.017822265625,0.04010000079870224,0,0.0,0.0,,,,,0,,1,,
Raw,15537561,15541497000000,,,-1291005709936225024,0.0,124.53926319722086,3.869030450761115,17.7598443366782,164,4,0.0,15,378051348563867,35,22.3,-654.153564453125,0.7985000014305115,0,0.0,0.0,,,,,0,,1,,
Raw,15537561,15541497000000,,,-1291005709936225024,0.0,124.53926319722086,3.869030450761115,17.7598443366782,164,16,0.0,15,378051362067570,35,22.4,-368.3609619140625,0.7894999980926514,0,0.0,0.0,,,,,0,,1,,
Raw,15537561,15541497000000,,,-1291005709936225024,0.0,124.53926319722086,3.869030450761115,17.7598443366782,164,22,0.0,15,378051354417609,13,31.8,55.10893249511719,0.04620000347495079,0,0.0,0.0,,,,,0,,1,,
Raw,15537561,15541497000000,,,-1291005709936225024,0.0,124.53926319722086,3.869030450761115,17.7598443366782,164,27,0.0,15,378051352195071,24,25.9,-708.593017578125,0.39980000257492065,0,0.0,0.0,,,,,0,,1,,
Raw,15537561,15541497000000,,,-1291005709936225024,0.0,124.53926319722086,3.869030450761115,17.7598443366782,164,31,0.0,15,378051361443838,53,19.2,75.12794494628906,0.9980000257492065,0,0.0,0.0,,,,,0,,1,,
Raw,15537562,15541497000000,,,-1291005709936225024,0.0,124.53926319722086,3.869030450761115,17.7598443366782,164,32,0.0,15,378051362482142,79,17.7,381.7196044921875,2.5794999599456787,0,0.0,0.0,,,,,0,,1,,
Raw,15537562,15541497000000,,,-1291005709936225024,0.0,124.53926319722086,3.869030450761115,17.7598443366782,164,2,0.0,783,378037308231903,61,19.8,8.171279907226562,2.313500165939331,0,0.0,0.0,,,,,0,,5,,
Raw,15537562,15541497000000,,,-1291005709936225024,0.0,124.53926319722086,3.869030450761115,17.7598443366782,164,5,0.0,783,378037300029759,65,21.0,4.071237564086914,3.75350022315979,0,0.0,0.0,,,,,0,,5,,
Raw,15537562,15541497000000,,,-1291005709936225024,0.0,124.53926319722086,3.869030450761115,17.7598443366782,164,10,0.0,15,378037308929843,40,21.5,-32.483482360839844,0.7384999990463257,0,0.0,0.0,,,,,0,,5,,
Raw,15537562,15541497000000,,,-1291005709936225024,0.0,124.53926319722086,3.869030450761115,17.7598443366782,164,14,0.0,15,378037348420657,40,21.1,-404.80963134765625,0.7384999990463257,0,0.0,0.0,,,,,0,,5,,
Raw,15537562,15541497000000,,,-1291005709936225024,0.0,124.53926319722086,3.869030450761115,17.7598443366782,164,16,0.0,15,378037312953223,53,19.2,-76.10525512695312,0.9904999732971191,0,0.0,0.0,,,,,0,,5,,
Raw,15537563,15541497000000,,,-1291005709936225024,0.0,124.53926319722086,3.869030450761115,17.7598443366782,164,21,0.0,15,378037357343562,46,20.2,336.5588073730469,0.8119999766349792,0,0.0,0.0,,,,,0,,5,,
Raw,15537563,15541497000000,,,-1291005709936225024,0.0,124.53926319722086,3.869030450761115,17.7598443366782,164,24,0.0,15,378037346858195,12,32.7,-278.1268310546875,0.03290000185370445,0,0.0,0.0,,,,,0,,5,,
Raw,15537563,15541497000000,,,-1291005709936225024,0.0,124.53926319722086,3.869030450761115,17.7598443366782,164,26,0.0,15,378037357567481,61,18.5,-67.62670135498047,0.9419999718666077,0,0.0,0.0,,,,,0,,5,,
Raw,15537563,15541497000000,,,-1291005709936225024,0.0,124.53926319722086,3.869030450761115,17.7598443366782,164,3,0.0,7183,378051339830130,11,33.0,-513.1268920898438,0.29500001668930054,0,0.0,0.0,,,,,0,,6,,
Raw,15537563,15541497000000,,,-1291005709936225024,0.0,124.53926319722086,3.869030450761115,17.7598443366782,164,5,0.0,7183,378051353172183,348,13.9,-216.1450653076172,10.717000007629395,0,0.0,0.0,,,,,0,,6,,
Raw,15537563,15541497000000,,,-1291005709936225024,0.0,124.53926319722086,3.869030450761115,17.7598443366782,164,9,0.0,7183,378051359608895,86,16.5,285.0313720703125,2.0989999771118164,0,0.0,0.0,,,,,0,,6,,
Raw,15537563,15541497000000,,,-1291005709936225024,0.0,124.53926319722086,3.869030450761115,17.7598443366782,164,24,0.0,7183,378051352978659,1144,14.5,184.01397705078125,22.190500259399414,0,0.0,0.0,,,,,0,,6,,
Raw,15537564,15541497000000,,,-1291005709936225024,0.0,124.53926319722086,3.869030450761115,17.7598443366782,164,25,0.0,7183,378051348158228,16,29.3,-186.797119140625,0.0357000008225441,0,0.0,0.0,,,,,0,,6,,
Fix,gps,22.925513,120.294658,52.921143,2.410000,12.864000,1606986034000
NMEA,$GPGSV,3,1,11,03,18,296,37,04,03,319,22,16,46,240,22,22,24,274,32*71,1606986033509
NMEA,$GPGSV,3,2,11,27,12,189,26,31,47,021,19,32,51,133,18,10,02,168,*71,1606986033509
NMEA,$GPGSV,3,3,11,25,03,042,,26,70,305,,29,25,057,*40,1606986033511
NMEA,$GLGSV,3,1,10,74,37,302,24,75,00,000,30,73,35,009,14,71,69,254,16*64,1606986033511
NMEA,$GLGSV,3,2,10,72,30,322,14,70,33,175,,82,02,037,,80,04,049,*6C,1606986033512
NMEA,$GLGSV,3,3,10,84,10,137,,83,16,081,*69,1606986033513
NMEA,$GAGSV,2,1,07,03,08,320,33,05,59,309,14,09,61,158,17,24,60,344,15*63,1606986033515
NMEA,$GAGSV,2,2,07,25,35,260,29,04,10,146,,31,23,037,*50,1606986033516
NMEA,$PQGSV,1,1,03,193,47,165,18,194,63,032,18,195,38,135,16,0,5*6D,1606986033517
NMEA,$PQGSV,4,1,16,02,40,240,20,05,16,257,21,10,51,239,22,14,17,313,21,0,4*66,1606986033518
NMEA,$PQGSV,4,2,16,16,77,042,19,21,53,217,20,24,13,272,33,26,45,314,19,0,4*68,1606986033519
NMEA,$PQGSV,4,3,16,01,52,129,,03,59,202,,04,37,115,,06,76,057,,0,4*68,1606986033520
NMEA,$PQGSV,4,4,16,07,76,268,,09,59,338,,13,00,000,,22,17,167,,0,4*6F,1606986033523
NMEA,$GNGSA,A,3,03,16,22,31,,,,,,,,,2.1,1.8,1.0,1*3C,1606986033526
Raw,15538566,15542497000000,,,-1291005709936225024,0.0,129.24593465868384,3.8310348143116957,17.972840670183214,164,10,0.0,207,43234362769693,27,24.9,-31.788387298583984,0.8195000290870667,0,0.0,0.0,,,,,0,,3,,
Raw,15538566,15542497000000,,,-1291005709936225024,0.0,129.24593465868384,3.8310348143116957,17.972840670183214,164,11,0.0,207,43234358319401,13,31.2,-219.719482421875,0.25220000743865967,0,0.0,0.0,,,,,0,,3,,
Raw,15538566,15542497000000,,,-1291005709936225024,0.0,129.24593465868384,3.8310348143116957,17.972840670183214,164,9,0.0,207,43234362391751,469,14.3,311.08001708984375,13.559500694274902,0,0.0,0.0,,,,,0,,3,,
Raw,15538567,15542497000000,,,-1291005709936225024,0.0,129.24593465868384,3.8310348143116957,17.972840670183214,164,7,0.0,207,43234368410721,153,15.6,102.12815856933594,5.968500137329102,0,0.0,0.0,,,,,0,,3,,
Raw,15538567,15542497000000,,,-1291005709936225024,0.0,129.24593465868384,3.8310348143116957,17.972840670183214,164,8,0.0,207,43234361078911,954,14.3,-564.2998657226562,20.308000564575195,0,0.0,0.0,,,,,0,,3,,
Raw,15538567,15542497000000,,,-1291005709936225024,0.0,129.24593465868384,3.8310348143116957,17.972840670183214,164,3,0.0,15,378052353794040,6,38.1,-144.77432250976562,0.03959999978542328,0,0.0,0.0,,,,,0,,1,,
Raw,15538567,15542497000000,,,-1291005709936225024,0.0,129.24593465868384,3.8310348143116957,17.972840670183214,164,4,0.0,15,378052348566048,40,21.1,-652.5264892578125,0.8585000038146973,0,0.0,0.0,,,,,0,,1,,
Raw,15538567,15542497000000,,,-1291005709936225024,0.0,129.24593465868384,3.8310348143116957,17.972840670183214,164,16,0.0,15,378052362068735,24,25.6,-367.1211242675781,0.384799987077713,0,0.0,0.0,,,,,0,,1,,
Raw,15538567,15542497000000,,,-1291005709936225024,0.0,129.24593465868384,3.8310348143116957,17.972840670183214,164,22,0.0,15,378052354417418,12,32.5,56.34314727783203,0.04490000009536743,0,0.0,0.0,,,,,0,,1,,
Raw,15538567,15542497000000,,,-1291005709936225024,0.0,129.24593465868384,3.8310348143116957,17.972840670183214,164,27,0.0,15,378052352197448,24,25.7,-707.4635009765625,0.39980000257492065,0,0.0,0.0,,,,,0,,1,,
Raw,15538568,15542497000000,,,-1291005709936225024,0.0,129.24593465868384,3.8310348143116957,17.972840670183214,164,31,0.0,15,378052361443615,46,20.0,76.45048522949219,0.9179999828338623,0,0.0,0.0,,,,,0,,1,,
Raw,15538568,15542497000000,,,-1291005709936225024,0.0,129.24593465868384,3.8310348143116957,17.972840670183214,164,32,0.0,15,378052362480868,97,17.7,381.7196044921875,4.079500198364258,0,0.0,0.0,,,,,0,,1,,
Raw,15538568,15542497000000,,,-1291005709936225024,0.0,129.24593465868384,3.8310348143116957,17.972840670183214,164,2,0.0,783,378038308231875,79,19.8,8.171279907226562,3.813500165939331,0,0.0,0.0,,,,,0,,5,,
Raw,15538568,15542497000000,,,-1291005709936225024,0.0,129.24593465868384,3.8310348143116957,17.972840670183214,164,5,0.0,783,378038300029745,93,21.0,4.071237564086914,5.253499984741211,0,0.0,0.0,,,,,0,,5,,
Raw,15538568,15542497000000,,,-1291005709936225024,0.0,129.24593465868384,3.8310348143116957,17.972840670183214,164,10,0.0,15,378038308929934,35,22.2,-31.60970115661621,0.6784999966621399,0,0.0,0.0,,,,,0,,5,,
Raw,15538569,15542497000000,,,-1291005709936225024,0.0,129.24593465868384,3.8310348143116957,17.972840670183214,164,14,0.0,15,378038348422014,40,21.6,-403.01409912109375,0.7384999990463257,0,0.0,0.0,,,,,0,,5,,
Raw,15538569,15542497000000,,,-1291005709936225024,0.0,129.24593465868384,3.8310348143116957,17.972840670183214,164,16,0.0,15,378038312953484,53,19.5,-74.8761978149414,0.8644999861717224,0,0.0,0.0,,,,,0,,5,,
Raw,15538569,15542497000000,,,-1291005709936225024,0.0,129.24593465868384,3.8310348143116957,17.972840670183214,164,21,0.0,15,378038357342435,40,21.0,336.99090576171875,0.7519999742507935,0,0.0,0.0,,,,,0,,5,,
Raw,15538569,15542497000000,,,-1291005709936225024,0.0,129.24593465868384,3.8310348143116957,17.972840670183214,164,24,0.0,15,378038346859115,11,33.3,-276.9705810546875,0.03189999982714653,0,0.0,0.0,,,,,0,,5,,
Raw,15538569,15542497000000,,,-1291005709936225024,0.0,129.24593465868384,3.8310348143116957,17.972840670183214,164,26,0.0,15,378038357567702,53,19.7,-66.4744644165039,0.871999979019165,0,0.0,0.0,,,,,0,,5,,
Raw,15538569,15542497000000,,,-1291005709936225024,0.0,129.24593465868384,3.8310348143116957,17.972840670183214,164,3,0.0,7183,378052339831846,11,33.6,-512.1373901367188,0.29500001668930054,0,0.0,0.0,,,,,0,,6,,
Raw,15538570,15542497000000,,,-1291005709936225024,0.0,129.24593465868384,3.8310348143116957,17.972840670183214,164,5,0.0,7183,378052353172911,48,20.1,-216.4304962158203,1.3220000267028809,0,0.0,0.0,,,,,0,,6,,
Raw,15538570,15542497000000,,,-1291005709936225024,0.0,129.24593465868384,3.8310348143116957,17.972840670183214,164,9,0.0,7183,378052359607945,101,16.5,285.0313720703125,3.5990002155303955,0,0.0,0.0,,,,,0,,6,,
Raw,15538570,15542497000000,,,-1291005709936225024,0.0,129.24593465868384,3.8310348143116957,17.972840670183214,164,24,0.0,7183,378052352978045,1294,14.5,184.01397705078125,23.690500259399414,0,0.0,0.0,,,,,0,,6,,
Raw,15538570,15542497000000,,,-1291005709936225024,0.0,129.24593465868384,3.8310348143116957,17.972840670183214,164,25,0.0,7183,378052348158864,16,29.5,-187.39169311523438,0.37549999356269836,0,0.0,0.0,,,,,0,,6,,
NMEA,$GNGSA,A,2,74,,,,,,,,,,,,2.1,1.8,1.0,2*3B,1606986033526
NMEA,$GNGSA,A,2,25,,,,,,,,,,,,2.1,1.8,1.0,3*3E,1606986033526
NMEA,$PQGSA,A,2,14,24,,,,,,,,,,,2.1,1.8,1.0,4*35,1606986033527
NMEA,$GNVTG,303.2,T,303.2,M,4.7,N,8.7,K,A*31,1606986033527
NMEA,$GNRMC,090034.00,A,2255.530806,N,12017.679496,E,4.7,303.2,031220,2.8,W,A*30,1606986033527
NMEA,$GNGGA,090034.00,2255.530806,N,12017.679496,E,1,08,1.8,35.5,M,17.5,M,,*43,1606986033527
Fix,gps,22.925524,120.294656,52.024170,0.000000,12.864000,1606986035000
NMEA,$GPGSV,3,1,11,03,18,296,38,04,03,319,21,16,46,240,26,22,24,274,33*78,1606986034503
NMEA,$GPGSV,3,2,11,27,12,189,26,31,47,021,20,32,51,133,18,10,02,168,*7B,1606986034504
NMEA,$GPGSV,3,3,11,25,03,042,,26,70,305,,29,25,057,*40,1606986034504
NMEA,$GLGSV,3,1,10,74,37,302,25,75,00,000,31,73,35,009,14,71,69,254,16*64,1606986034505
NMEA,$GLGSV,3,2,10,72,30,322,14,70,33,175,,82,02,037,,80,04,049,*6C,1606986034505
NMEA,$GLGSV,3,3,10,84,10,137,,83,16,081,*69,1606986034505
NMEA,$GAGSV,2,1,07,03,08,320,34,05,59,309,20,09,61,158,17,24,60,344,15*63,1606986034506
NMEA,$GAGSV,2,2,07,25,35,260,30,04,10,146,,31,23,037,*58,1606986034507
NMEA,$PQGSV,1,1,03,193,47,165,18,194,63,032,18,195,38,135,16,0,5*6D,1606986034507
NMEA,$PQGSV,4,1,16,02,40,240,20,05,16,257,21,10,51,239,22,14,17,313,22,0,4*65,1606986034507
NMEA,$PQGSV,4,2,16,16,77,042,20,21,53,217,21,24,13,272,33,26,45,314,20,0,4*69,1606986034507
NMEA,$PQGSV,4,3,16,01,52,129,,03,59,202,,04,37,115,,06,76,057,,0,4*68,1606986034507
NMEA,$PQGSV,4,4,16,07,76,268,,09,59,338,,13,00,000,,22,17,167,,0,4*6F,1606986034508
NMEA,$GNGSA,A,3,03,16,22,31,,,,,,,,,2.0,1.8,1.0,1*3D,1606986034508
NMEA,$GNGSA,A,2,74,,,,,,,,,,,,2.0,1.8,1.0,2*3A,1606986034509
NMEA,$GNGSA,A,2,25,,,,,,,,,,,,2.0,1.8,1.0,3*3F,1606986034509
NMEA,$PQGSA,A,2,14,24,,,,,,,,,,,2.0,1.8,1.0,4*34,1606986034509
NMEA,$GNVTG,,T,,M,0.0,N,0.0,K,A*3D,1606986034509
NMEA,$GNRMC,090035.00,A,2255.531451,N,12017.679361,E,0.0,,031220,2.8,W,A*1E,1606986034510
NMEA,$GNGGA,090035.00,2255.531451,N,12017.679361,E,1,08,1.8,34.6,M,17.5,M,,*40,1606986034510
Raw,15539861,15543497000000,,,-1291005709936224768,0.0,125.389255117625,6.3887292957765265,18.846121979271388,164,10,0.0,207,43235362769771,27,24.3,-31.122419357299805,0.8195000290870667,0,0.0,0.0,,,,,0,,3,,
Raw,15539861,15543497000000,,,-1291005709936224768,0.0,125.389255117625,6.3887292957765265,18.846121979271388,164,11,0.0,207,43235358320115,13,31.3,-219.1141815185547,0.25220000743865967,0,0.0,0.0,,,,,0,,3,,
Raw,15539861,15543497000000,,,-1291005709936224768,0.0,125.389255117625,6.3887292957765265,18.846121979271388,164,9,0.0,207,43235362390713,559,14.3,311.08001708984375,15.059500694274902,0,0.0,0.0,,,,,0,,3,,
Raw,15539861,15543497000000,,,-1291005709936224768,0.0,125.389255117625,6.3887292957765265,18.846121979271388,164,7,0.0,207,43235368410346,90,16.0,104.24842834472656,2.878499984741211,0,0.0,0.0,,,,,0,,3,,
Raw,15539862,15543497000000,,,-1291005709936224768,0.0,125.389255117625,6.3887292957765265,18.846121979271388,164,8,0.0,207,43235361080793,1089,14.3,-564.2998657226562,21.808000564575195,0,0.0,0.0,,,,,0,,3,,
Raw,15539862,15543497000000,,,-1291005709936224768,0.0,125.389255117625,6.3887292957765265,18.846121979271388,164,3,0.0,15,378053353794530,7,37.5,-144.11769104003906,0.04010000079870224,0,0.0,0.0,,,,,0,,1,,
Raw,15539862,15543497000000,,,-1291005709936224768,0.0,125.389255117625,6.3887292957765265,18.846121979271388,164,4,0.0,15,378053348568263,31,23.5,-652.2886352539062,0.6784999966621399,0,0.0,0.0,,,,,0,,1,,
Raw,15539862,15543497000000,,,-1291005709936224768,0.0,125.389255117625,6.3887292957765265,18.846121979271388,164,16,0.0,15,378053362069919,31,23.6,-366.3058166503906,0.6694999933242798,0,0.0,0.0,,,,,0,,1,,
Raw,15539862,15543497000000,,,-1291005709936224768,0.0,125.389255117625,6.3887292957765265,18.846121979271388,164,22,0.0,15,378053354417230,12,32.0,56.97119903564453,0.04490000009536743,0,0.0,0.0,,,,,0,,1,,
Raw,15539862,15543497000000,,,-1291005709936224768,0.0,125.389255117625,6.3887292957765265,18.846121979271388,164,27,0.0,15,378053352199767,21,26.5,-706.9257202148438,0.12919999659061432,0,0.0,0.0,,,,,0,,1,,
Raw,15539863,15543497000000,,,-1291005709936224768,0.0,125.389255117625,6.3887292957765265,18.846121979271388,164,31,0.0,15,378053361443400,61,18.5,76.45999908447266,0.9980000257492065,0,0.0,0.0,,,,,0,,1,,
Raw,15539863,15543497000000,,,-1291005709936224768,0.0,125.389255117625,6.3887292957765265,18.846121979271388,164,32,0.0,15,378053362479595,126,17.7,381.7196044921875,5.579500198364258,0,0.0,0.0,,,,,0,,1,,
Raw,15539863,15543497000000,,,-1291005709936224768,0.0,125.389255117625,6.3887292957765265,18.846121979271388,164,2,0.0,783,378039308231848,106,19.8,8.171279907226562,5.31350040435791,0,0.0,0.0,,,,,0,,5,,
Raw,15539863,15543497000000,,,-1291005709936224768,0.0,125.389255117625,6.3887292957765265,18.846121979271388,164,5,0.0,783,378039300029807,54,20.0,11.868040084838867,2.313500165939331,0,0.0,0.0,,,,,0,,5,,
Raw,15539863,15543497000000,,,-1291005709936224768,0.0,125.389255117625,6.3887292957765265,18.846121979271388,164,10,0.0,15,378039308930057,35,22.1,-31.417661666870117,0.6784999966621399,0,0.0,0.0,,,,,0,,5,,
Raw,15539863,15543497000000,,,-1291005709936224768,0.0,125.389255117625,6.3887292957765265,18.846121979271388,164,14,0.0,15,378039348423382,31,23.2,-403.03326416015625,0.6285000443458557,0,0.0,0.0,,,,,0,,5,,
Raw,15539864,15543497000000,,,-1291005709936224768,0.0,125.389255117625,6.3887292957765265,18.846121979271388,164,16,0.0,15,378039312953730,70,17.3,-72.99420928955078,1.0145000219345093,0,0.0,0.0,,,,,0,,5,,
Raw,15539864,15543497000000,,,-1291005709936224768,0.0,125.389255117625,6.3887292957765265,18.846121979271388,164,21,0.0,15,378039357341304,46,20.0,337.7974548339844,0.8119999766349792,0,0.0,0.0,,,,,0,,5,,
Raw,15539864,15543497000000,,,-1291005709936224768,0.0,125.389255117625,6.3887292957765265,18.846121979271388,164,24,0.0,15,378039346860035,11,33.4,-276.40679931640625,0.03189999982714653,0,0.0,0.0,,,,,0,,5,,
Raw,15539864,15543497000000,,,-1291005709936224768,0.0,125.389255117625,6.3887292957765265,18.846121979271388,164,26,0.0,15,378039357567938,40,21.0,-67.07939910888672,0.7519999742507935,0,0.0,0.0,,,,,0,,5,,
Raw,15539864,15543497000000,,,-1291005709936224768,0.0,125.389255117625,6.3887292957765265,18.846121979271388,164,3,0.0,7183,378053339833548,11,33.8,-513.2789916992188,0.05140000209212303,0,0.0,0.0,,,,,0,,6,,
Raw,15539864,15543497000000,,,-1291005709936224768,0.0,125.389255117625,6.3887292957765265,18.846121979271388,164,5,0.0,7183,378053353173652,53,19.0,-215.7740020751953,0.8119999766349792,0,0.0,0.0,,,,,0,,6,,
Raw,15539865,15543497000000,,,-1291005709936224768,0.0,125.389255117625,6.3887292957765265,18.846121979271388,164,9,0.0,7183,378053359606984,73,17.0,285.86865234375,1.6890000104904175,0,0.0,0.0,,,,,0,,6,,
Raw,15539865,15543497000000,,,-1291005709936224768,0.0,125.389255117625,6.3887292957765265,18.846121979271388,164,24,0.0,7183,378053352977431,1453,14.5,184.01397705078125,25.190500259399414,0,0.0,0.0,,,,,0,,6,,
Raw,15539865,15543497000000,,,-1291005709936224768,0.0,125.389255117625,6.3887292957765265,18.846121979271388,164,25,0.0,7183,378053348159483,16,29.7,-188.292236328125,0.0357000008225441,0,0.0,0.0,,,,,0,,6,,
Fix,gps,22.925528,120.294657,52.470703,0.000000,12.864000,1606986036000
NMEA,$GPGSV,3,1,11,03,18,296,38,04,03,319,24,16,46,240,24,22,24,274,32*7E,1606986035494
NMEA,$GPGSV,3,2,11,27,12,189,27,31,47,021,19,32,51,133,18,10,02,168,*70,1606986035494
NMEA,$GPGSV,3,3,11,25,03,042,,26,70,305,,29,25,057,*40,1606986035494
NMEA,$GLGSV,3,1,10,74,37,302,24,75,00,000,31,73,35,009,14,71,69,254,16*65,1606986035495
NMEA,$GLGSV,3,2,10,72,30,322,14,70,33,175,,82,02,037,,80,04,049,*6C,1606986035495
NMEA,$GLGSV,3,3,10,84,10,137,,83,16,081,*69,1606986035495
NMEA,$GAGSV,2,1,07,03,08,320,34,05,59,309,19,09,61,158,17,24,60,344,15*69,1606986035496
NMEA,$GAGSV,2,2,07,25,35,260,30,04,10,146,,31,23,037,*58,1606986035496
NMEA,$PQGSV,1,1,03,193,47,165,20,194,63,032,16,195,38,135,14,0,5*6A,1606986035496
NMEA,$PQGSV,4,1,16,02,40,240,20,05,16,257,20,10,51,239,22,14,17,313,23,0,4*65,1606986035496
NMEA,$PQGSV,4,2,16,16,77,042,17,21,53,217,20,24,13,272,33,26,45,314,21,0,4*6D,1606986035496
NMEA,$PQGSV,4,3,16,01,52,129,,03,59,202,,04,37,115,,06,76,057,,0,4*68,1606986035497
NMEA,$PQGSV,4,4,16,07,76,268,,09,59,338,,13,00,000,,22,17,167,,0,4*6F,1606986035497
NMEA,$GNGSA,A,3,03,16,22,31,,,,,,,,,2.0,1.8,1.0,1*3D,1606986035498
NMEA,$GNGSA,A,2,74,,,,,,,,,,,,2.0,1.8,1.0,2*3A,1606986035498
NMEA,$GNGSA,A,2,05,25,,,,,,,,,,,2.0,1.8,1.0,3*3A,1606986035498
NMEA,$PQGSA,A,2,14,24,,,,,,,,,,,2.0,1.8,1.0,4*34,1606986035498
NMEA,$GNVTG,,T,,M,0.0,N,0.0,K,A*3D,1606986035498
NMEA,$GNRMC,090036.00,A,2255.531693,N,12017.679414,E,0.0,,031220,2.8,W,A*14,1606986035499
NMEA,$GNGGA,090036.00,2255.531693,N,12017.679414,E,1,09,1.8,35.0,M,17.5,M,,*4C,1606986035499
Raw,15540551,15544497000000,,,-1291005709936224768,0.0,128.2751909457147,6.408058546431202,20.375214025548026,164,10,0.0,207,43236362769941,24,25.4,-31.21186637878418,0.5848000049591064,0,0.0,0.0,,,,,0,,3,,
Raw,15540551,15544497000000,,,-1291005709936224768,0.0,128.2751909457147,6.408058546431202,20.375214025548026,164,11,0.0,207,43236358320851,16,29.7,-219.19097900390625,0.25369998812675476,0,0.0,0.0,,,,,0,,3,,
Raw,15540551,15544497000000,,,-1291005709936224768,0.0,128.2751909457147,6.408058546431202,20.375214025548026,164,9,0.0,207,43236362389675,659,14.3,311.08001708984375,16.55950164794922,0,0.0,0.0,,,,,0,,3,,
Raw,15540551,15544497000000,,,-1291005709936224768,0.0,128.2751909457147,6.408058546431202,20.375214025548026,164,7,0.0,207,43236368409998,110,16.0,104.24842834472656,4.378499984741211,0,0.0,0.0,,,,,0,,3,,
Raw,15540551,15544497000000,,,-1291005709936224768,0.0,128.2751909457147,6.408058546431202,20.375214025548026,164,8,0.0,207,43236361082676,1234,14.3,-564.2998657226562,23.308000564575195,0,0.0,0.0,,,,,0,,3,,
Raw,15540552,15544497000000,,,-1291005709936224768,0.0,128.2751909457147,6.408058546431202,20.375214025548026,164,3,0.0,15,378054353795001,8,36.7,-144.15390014648438,0.04070000350475311,0,0.0,0.0,,,,,0,,1,,
Raw,15540552,15544497000000,,,-1291005709936224768,0.0,128.2751909457147,6.408058546431202,20.375214025548026,164,4,0.0,15,378054348570412,35,22.4,-652.73583984375,0.7985000014305115,0,0.0,0.0,,,,,0,,1,,
Raw,15540552,15544497000000,,,-1291005709936224768,0.0,128.2751909457147,6.408058546431202,20.375214025548026,164,16,0.0,15,378054362071103,35,22.5,-366.2677307128906,0.7294999957084656,0,0.0,0.0,,,,,0,,1,,
Raw,15540552,15544497000000,,,-1291005709936224768,0.0,128.2751909457147,6.408058546431202,20.375214025548026,164,22,0.0,15,378054354417035,10,34.6,56.91627502441406,0.04310000315308571,0,0.0,0.0,,,,,0,,1,,
Raw,15540552,15544497000000,,,-1291005709936224768,0.0,128.2751909457147,6.408058546431202,20.375214025548026,164,27,0.0,15,378054352202113,24,25.9,-707.043212890625,0.39980000257492065,0,0.0,0.0,,,,,0,,1,,
Raw,15540552,15544497000000,,,-1291005709936224768,0.0,128.2751909457147,6.408058546431202,20.375214025548026,164,31,0.0,15,378054361443272,61,18.3,76.8881607055664,1.0779999494552612,0,0.0,0.0,,,,,0,,1,,
Raw,15540553,15544497000000,,,-1291005709936224768,0.0,128.2751909457147,6.408058546431202,20.375214025548026,164,32,0.0,15,378054362478322,165,17.7,381.7196044921875,7.079500198364258,0,0.0,0.0,,,,,0,,1,,
Raw,15540553,15544497000000,,,-1291005709936224768,0.0,128.2751909457147,6.408058546431202,20.375214025548026,164,2,0.0,783,378040308231871,61,19.3,4.253674507141113,2.373500108718872,0,0.0,0.0,,,,,0,,5,,
Raw,15540553,15544497000000,,,-1291005709936224768,0.0,128.2751909457147,6.408058546431202,20.375214025548026,164,5,0.0,783,378040300029767,72,20.0,11.868040084838867,3.813500165939331,0,0.0,0.0,,,,,0,,5,,
Raw,15540553,15544497000000,,,-1291005709936224768,0.0,128.2751909457147,6.408058546431202,20.375214025548026,164,10,0.0,15,378040308930170,35,22.2,-31.398456573486328,0.6784999966621399,0,0.0,0.0,,,,,0,,5,,
Raw,15540553,15544497000000,,,-1291005709936224768,0.0,128.2751909457147,6.408058546431202,20.375214025548026,164,14,0.0,15,378040348424738,46,20.1,-402.8220520019531,0.7985000014305115,0,0.0,0.0,,,,,0,,5,,
Raw,15540553,15544497000000,,,-1291005709936224768,0.0,128.2751909457147,6.408058546431202,20.375214025548026,164,16,0.0,15,378040312953974,78,17.3,-72.99420928955078,2.514500141143799,0,0.0,0.0,,,,,0,,5,,
Raw,15540554,15544497000000,,,-1291005709936224768,0.0,128.2751909457147,6.408058546431202,20.375214025548026,164,21,0.0,15,378040357340205,53,19.0,337.3173522949219,0.871999979019165,0,0.0,0.0,,,,,0,,5,,
Raw,15540554,15544497000000,,,-1291005709936224768,0.0,128.2751909457147,6.408058546431202,20.375214025548026,164,24,0.0,15,378040346860964,10,34.8,-276.51617431640625,0.03110000118613243,0,0.0,0.0,,,,,0,,5,,
Raw,15540554,15544497000000,,,-1291005709936224768,0.0,128.2751909457147,6.408058546431202,20.375214025548026,164,26,0.0,15,378040357568143,46,20.5,-65.821533203125,0.8119999766349792,0,0.0,0.0,,,,,0,,5,,
Raw,15540554,15544497000000,,,-1291005709936224768,0.0,128.2751909457147,6.408058546431202,20.375214025548026,164,3,0.0,7183,378054339835257,11,33.0,-510.8744812011719,0.05140000209212303,0,0.0,0.0,,,,,0,,6,,
Raw,15540554,15544497000000,,,-1291005709936224768,0.0,128.2751909457147,6.408058546431202,20.375214025548026,164,5,0.0,7183,378054353174372,61,19.0,-215.7740020751953,2.312000036239624,0,0.0,0.0,,,,,0,,6,,
Raw,15540554,15544497000000,,,-1291005709936224768,0.0,128.2751909457147,6.408058546431202,20.375214025548026,164,9,0.0,7183,378054359606030,86,17.0,285.86865234375,3.189000129699707,0,0.0,0.0,,,,,0,,6,,
Raw,15540554,15544497000000,,,-1291005709936224768,0.0,128.2751909457147,6.408058546431202,20.375214025548026,164,24,0.0,7183,378054352976818,1622,14.5,184.01397705078125,26.690500259399414,0,0.0,0.0,,,,,0,,6,,
Raw,15540555,15544497000000,,,-1291005709936224768,0.0,128.2751909457147,6.408058546431202,20.375214025548026,164,25,0.0,7183,378054348160119,14,30.2,-186.3067169189453,0.03480000048875809,0,0.0,0.0,,,,,0,,6,,
Fix,gps,22.925539,120.294633,53.584290,2.430000,12.864000,1606986037000
NMEA,$GPGSV,3,1,11,03,18,296,37,04,03,319,22,16,46,240,23,22,24,274,35*77,1606986036496
NMEA,$GPGSV,3,2,11,27,12,189,26,31,47,021,18,32,51,133,18,10,02,168,*70,1606986036496
NMEA,$GPGSV,3,3,11,25,03,042,,26,70,305,,29,25,057,*40,1606986036497
NMEA,$GLGSV,3,1,10,74,37,302,25,75,00,000,30,73,35,009,14,71,69,254,16*65,1606986036498
NMEA,$GLGSV,3,2,10,72,30,322,14,70,33,175,,82,02,037,,80,04,049,*6C,1606986036498
NMEA,$GLGSV,3,3,10,84,10,137,,83,16,081,*69,1606986036498
NMEA,$GAGSV,2,1,07,03,08,320,33,05,59,309,19,09,61,158,17,24,60,344,15*6E,1606986036499
NMEA,$GAGSV,2,2,07,25,35,260,30,04,10,146,,31,23,037,*58,1606986036499
NMEA,$PQGSV,1,1,03,193,47,165,20,194,63,032,16,195,38,135,14,0,5*6A,1606986036500
NMEA,$PQGSV,4,1,16,02,40,240,19,05,16,257,20,10,51,239,22,14,17,313,20,0,4*6C,1606986036500
NMEA,$PQGSV,4,2,16,16,77,042,17,21,53,217,19,24,13,272,35,26,45,314,21,0,4*61,1606986036500
NMEA,$PQGSV,4,3,16,01,52,129,,03,59,202,,04,37,115,,06,76,057,,0,4*68,1606986036500
NMEA,$PQGSV,4,4,16,07,76,268,,09,59,338,,13,00,000,,22,17,167,,0,4*6F,1606986036501
NMEA,$GNGSA,A,3,03,16,22,31,,,,,,,,,2.0,1.8,1.0,1*3D,1606986036502
NMEA,$GNGSA,A,2,74,,,,,,,,,,,,2.0,1.8,1.0,2*3A,1606986036502
NMEA,$GNGSA,A,2,05,25,,,,,,,,,,,2.0,1.8,1.0,3*3A,1606986036502
NMEA,$PQGSA,A,2,14,24,,,,,,,,,,,2.0,1.8,1.0,4*34,1606986036503
NMEA,$GNVTG,299.3,T,299.3,M,4.7,N,8.7,K,A*31,1606986036503
NMEA,$GNRMC,090037.00,A,2255.532365,N,12017.677999,E,4.7,299.3,031220,2.8,W,A*30,1606986036503
NMEA,$GNGGA,090037.00,2255.532365,N,12017.677999,E,1,09,1.8,36.1,M,17.5,M,,*46,1606986036503
Raw,15541640,15545497000000,,,-1291005709936224768,0.0,118.68917499668896,9.299870716650274,19.59419618839779,164,10,0.0,207,43237362770023,24,25.9,-31.87896728515625,0.5848000049591064,0,0.0,0.0,,,,,0,,3,,
Raw,15541640,15545497000000,,,-1291005709936224768,0.0,118.68917499668896,9.299870716650274,19.59419618839779,164,11,0.0,207,43237358321610,16,29.0,-219.77130126953125,0.25369998812675476,0,0.0,0.0,,,,,0,,3,,
Raw,15541641,15545497000000,,,-1291005709936224768,0.0,118.68917499668896,9.299870716650274,19.59419618839779,164,9,0.0,207,43237362388638,770,14.3,311.08001708984375,18.05950164794922,0,0.0,0.0,,,,,0,,3,,
Raw,15541641,15545497000000,,,-1291005709936224768,0.0,118.68917499668896,9.299870716650274,19.59419618839779,164,7,0.0,207,43237368409651,140,16.0,104.24842834472656,5.878500461578369,0,0.0,0.0,,,,,0,,3,,
Raw,15541641,15545497000000,,,-1291005709936224768,0.0,118.68917499668896,9.299870716650274,19.59419618839779,164,8,0.0,207,43237361084558,1390,14.3,-564.2998657226562,24.808000564575195,0,0.0,0.0,,,,,0,,3,,
Raw,15541641,15545497000000,,,-1291005709936224768,0.0,118.68917499668896,9.299870716650274,19.59419618839779,164,3,0.0,15,378055353795477,8,36.0,-144.67437744140625,0.04070000350475311,0,0.0,0.0,,,,,0,,1,,
Raw,15541641,15545497000000,,,-1291005709936224768,0.0,118.68917499668896,9.299870716650274,19.59419618839779,164,4,0.0,15,378055348572707,40,21.8,-653.6112060546875,0.7985000014305115,0,0.0,0.0,,,,,0,,1,,
Raw,15541641,15545497000000,,,-1291005709936224768,0.0,118.68917499668896,9.299870716650274,19.59419618839779,164,16,0.0,15,378055362072411,31,23.3,-366.876708984375,0.7294999957084656,0,0.0,0.0,,,,,0,,1,,
Raw,15541641,15545497000000,,,-1291005709936224768,0.0,118.68917499668896,9.299870716650274,19.59419618839779,164,22,0.0,15,378055354416846,10,34.1,56.381038665771484,0.04310000315308571,0,0.0,0.0,,,,,0,,1,,
Raw,15541642,15545497000000,,,-1291005709936224768,0.0,118.68917499668896,9.299870716650274,19.59419618839779,164,27,0.0,15,378055352204462,24,25.5,-707.6735229492188,0.39980000257492065,0,0.0,0.0,,,,,0,,1,,
Raw,15541642,15545497000000,,,-1291005709936224768,0.0,118.68917499668896,9.299870716650274,19.59419618839779,164,31,0.0,15,378055361442981,80,16.7,77.28777313232422,1.1679999828338623,0,0.0,0.0,,,,,0,,1,,
Raw,15541642,15545497000000,,,-1291005709936224768,0.0,118.68917499668896,9.299870716650274,19.59419618839779,164,32,0.0,15,378055362477197,191,11.7,381.5578308105469,4.7295002937316895,0,0.0,0.0,,,,,0,,1,,
Raw,15541642,15545497000000,,,-1291005709936224768,0.0,118.68917499668896,9.299870716650274,19.59419618839779,164,2,0.0,783,378041308231857,79,19.3,4.253674507141113,3.873500108718872,0,0.0,0.0,,,,,0,,5,,
Raw,15541642,15545497000000,,,-1291005709936224768,0.0,118.68917499668896,9.299870716650274,19.59419618839779,164,5,0.0,783,378041300029727,100,20.0,11.868040084838867,5.31350040435791,0,0.0,0.0,,,,,0,,5,,
Raw,15541642,15545497000000,,,-1291005709936224768,0.0,118.68917499668896,9.299870716650274,19.59419618839779,164,10,0.0,15,378041308930280,40,21.8,-32.099403381347656,0.6784999966621399,0,0.0,0.0,,,,,0,,5,,
Raw,15541643,15545497000000,,,-1291005709936224768,0.0,118.68917499668896,9.299870716650274,19.59419618839779,164,14,0.0,15,378041348425999,53,19.3,-403.8782653808594,0.8585000038146973,0,0.0,0.0,,,,,0,,5,,
Raw,15541643,15545497000000,,,-1291005709936224768,0.0,118.68917499668896,9.299870716650274,19.59419618839779,164,16,0.0,15,378041312954164,96,15.0,-75.13545227050781,1.934499979019165,0,0.0,0.0,,,,,0,,5,,
Raw,15541643,15545497000000,,,-1291005709936224768,0.0,118.68917499668896,9.299870716650274,19.59419618839779,164,21,0.0,15,378041357339054,53,19.7,337.3077697753906,0.871999979019165,0,0.0,0.0,,,,,0,,5,,
Raw,15541643,15545497000000,,,-1291005709936224768,0.0,118.68917499668896,9.299870716650274,19.59419618839779,164,24,0.0,15,378041346861888,10,34.4,-277.1506042480469,0.03110000118613243,0,0.0,0.0,,,,,0,,5,,
Raw,15541643,15545497000000,,,-1291005709936224768,0.0,118.68917499668896,9.299870716650274,19.59419618839779,164,26,0.0,15,378041357568339,53,19.6,-67.38665771484375,0.871999979019165,0,0.0,0.0,,,,,0,,5,,
Raw,15541643,15545497000000,,,-1291005709936224768,0.0,118.68917499668896,9.299870716650274,19.59419618839779,164,3,0.0,7183,378055339836968,12,32.5,-511.7811279296875,0.052400000393390656,0,0.0,0.0,,,,,0,,6,,
Raw,15541643,15545497000000,,,-1291005709936224768,0.0,118.68917499668896,9.299870716650274,19.59419618839779,164,5,0.0,7183,378055353175061,73,17.8,-215.38388061523438,1.6920000314712524,0,0.0,0.0,,,,,0,,6,,
Raw,15541644,15545497000000,,,-1291005709936224768,0.0,118.68917499668896,9.299870716650274,19.59419618839779,164,9,0.0,7183,378055359605101,96,15.9,286.7630615234375,1.8489999771118164,0,0.0,0.0,,,,,0,,6,,
Raw,15541644,15545497000000,,,-1291005709936224768,0.0,118.68917499668896,9.299870716650274,19.59419618839779,164,24,0.0,7183,378055352976204,1801,14.5,184.01397705078125,28.190502166748047,0,0.0,0.0,,,,,0,,6,,
Raw,15541644,15545497000000,,,-1291005709936224768,0.0,118.68917499668896,9.299870716650274,19.59419618839779,164,25,0.0,7183,378055348160740,16,29.7,-187.36062622070312,0.0357000008225441,0,0.0,0.0,,,,,0,,6,,
Fix,gps,22.925550,120.294608,53.989929,2.150000,11.792000,1606986038000
NMEA,$GPGSV,3,1,11,03,18,296,36,04,03,319,22,16,46,240,23,22,24,274,34*77,1606986037494
NMEA,$GPGSV,3,2,11,27,12,189,26,31,47,021,17,32,51,133,12,10,02,168,*75,1606986037494
NMEA,$GPGSV,3,3,11,25,03,042,,26,70,305,,29,25,057,*40,1606986037495
NMEA,$GLGSV,3,1,10,74,37,302,26,75,00,000,29,73,35,009,14,71,69,254,16*6E,1606986037495
NMEA,$GLGSV,3,2,10,72,30,322,14,70,33,175,,82,02,037,,80,04,049,*6C,1606986037495
NMEA,$GLGSV,3,3,10,84,10,137,,83,16,081,*69,1606986037495
NMEA,$GAGSV,2,1,07,03,08,320,33,05,59,309,18,09,61,158,16,24,60,344,15*6E,1606986037495
NMEA,$GAGSV,2,2,07,25,35,260,30,04,10,146,,31,23,037,*58,1606986037495
NMEA,$PQGSV,1,1,03,193,47,165,17,194,63,032,19,195,38,135,14,0,5*61,1606986037495
NMEA,$PQGSV,4,1,16,02,40,240,19,05,16,257,20,10,51,239,22,14,17,313,19,0,4*66,1606986037496
NMEA,$PQGSV,4,2,16,16,77,042,15,21,53,217,20,24,13,272,34,26,45,314,20,0,4*69,1606986037496
NMEA,$PQGSV,4,3,16,01,52,129,,03,59,202,,04,37,115,,06,76,057,,0,4*68,1606986037496
NMEA,$PQGSV,4,4,16,07,76,268,,09,59,338,,13,00,000,,22,17,167,,0,4*6F,1606986037496
NMEA,$GNGSA,A,3,03,16,22,31,,,,,,,,,3.0,2.8,1.0,1*3F,1606986037497
NMEA,$GNGSA,A,2,74,,,,,,,,,,,,3.0,2.8,1.0,2*38,1606986037497
NMEA,$GNGSA,A,2,05,25,,,,,,,,,,,3.0,2.8,1.0,3*38,1606986037497
NMEA,$PQGSA,A,2,14,24,,,,,,,,,,,3.0,2.8,1.0,4*36,1606986037498
NMEA,$GNVTG,295.2,T,295.2,M,4.2,N,7.7,K,A*3B,1606986037498
NMEA,$GNRMC,090038.00,A,2255.532990,N,12017.676475,E,4.2,295.2,031220,2.8,W,A*39,1606986037498
NMEA,$GNGGA,090038.00,2255.532990,N,12017.676475,E,1,09,2.8,36.5,M,17.5,M,,*40,1606986037498
Fix,gps,22.925558,120.294585,54.096985,2.330000,12.864000,1606986039000
Raw,15542612,15546497000000,,,-1291005709936224768,0.0,111.02729331469163,6.87590236139749,20.605644460384116,164,10,0.0,207,43238362770062,24,25.2,-33.63576126098633,0.5848000049591064,0,0.0,0.0,,,,,0,,3,,
Raw,15542612,15546497000000,,,-1291005709936224768,0.0,111.02729331469163,6.87590236139749,20.605644460384116,164,11,0.0,207,43238358322294,11,33.0,-221.5729522705078,0.24990001320838928,0,0.0,0.0,,,,,0,,3,,
Raw,15542612,15546497000000,,,-1291005709936224768,0.0,111.02729331469163,6.87590236139749,20.605644460384116,164,9,0.0,207,43238362387600,890,14.3,311.08001708984375,19.55950164794922,0,0.0,0.0,,,,,0,,3,,
Raw,15542613,15546497000000,,,-1291005709936224768,0.0,111.02729331469163,6.87590236139749,20.605644460384116,164,7,0.0,207,43238368409303,179,16.0,104.24842834472656,7.378500461578369,0,0.0,0.0,,,,,0,,3,,
Raw,15542613,15546497000000,,,-1291005709936224768,0.0,111.02729331469163,6.87590236139749,20.605644460384116,164,8,0.0,207,43238361086440,1555,14.3,-564.2998657226562,26.308000564575195,0,0.0,0.0,,,,,0,,3,,
Raw,15542614,15546497000000,,,-1291005709936224768,0.0,111.02729331469163,6.87590236139749,20.605644460384116,164,3,0.0,15,378056353795984,8,36.7,-146.3859100341797,0.04070000350475311,0,0.0,0.0,,,,,0,,1,,
Raw,15542614,15546497000000,,,-1291005709936224768,0.0,111.02729331469163,6.87590236139749,20.605644460384116,164,4,0.0,15,378056348574815,40,21.9,-655.466552734375,0.7985000014305115,0,0.0,0.0,,,,,0,,1,,
Raw,15542614,15546497000000,,,-1291005709936224768,0.0,111.02729331469163,6.87590236139749,20.605644460384116,164,16,0.0,15,378056362073614,27,24.1,-368.78912353515625,0.6694999933242798,0,0.0,0.0,,,,,0,,1,,
Raw,15542615,15546497000000,,,-1291005709936224768,0.0,111.02729331469163,6.87590236139749,20.605644460384116,164,22,0.0,15,378056354416656,11,33.7,54.63697814941406,0.04390000179409981,0,0.0,0.0,,,,,0,,1,,
Raw,15542615,15546497000000,,,-1291005709936224768,0.0,111.02729331469163,6.87590236139749,20.605644460384116,164,27,0.0,15,378056352206803,24,25.9,-709.5328979492188,0.39980000257492065,0,0.0,0.0,,,,,0,,1,,
Raw,15542616,15546497000000,,,-1291005709936224768,0.0,111.02729331469163,6.87590236139749,20.605644460384116,164,31,0.0,15,378056361442695,70,17.9,74.07180786132812,1.0779999494552612,0,0.0,0.0,,,,,0,,1,,
Raw,15542616,15546497000000,,,-1291005709936224768,0.0,111.02729331469163,6.87590236139749,20.605644460384116,164,32,0.0,15,378056362475924,221,11.7,381.5578308105469,6.2295002937316895,0,0.0,0.0,,,,,0,,1,,
Raw,15542617,15546497000000,,,-1291005709936224768,0.0,111.02729331469163,6.87590236139749,20.605644460384116,164,2,0.0,783,378042308231843,107,19.3,4.253674507141113,5.373500347137451,0,0.0,0.0,,,,,0,,5,,
Raw,15542617,15546497000000,,,-1291005709936224768,0.0,111.02729331469163,6.87590236139749,20.605644460384116,164,5,0.0,783,378042300029737,54,20.5,2.237260103225708,2.313500165939331,0,0.0,0.0,,,,,0,,5,,
Raw,15542618,15546497000000,,,-1291005709936224768,0.0,111.02729331469163,6.87590236139749,20.605644460384116,164,10,0.0,15,378042308930389,31,23.7,-33.21323013305664,0.6285000443458557,0,0.0,0.0,,,,,0,,5,,
Raw,15542618,15546497000000,,,-1291005709936224768,0.0,111.02729331469163,6.87590236139749,20.605644460384116,164,14,0.0,15,378042348427349,53,19.9,-406.1155090332031,0.7985000014305115,0,0.0,0.0,,,,,0,,5,,
Raw,15542618,15546497000000,,,-1291005709936224768,0.0,111.02729331469163,6.87590236139749,20.605644460384116,164,16,0.0,15,378042312954498,93,15.8,-76.69097137451172,1.094499945640564,0,0.0,0.0,,,,,0,,5,,
Raw,15542619,15546497000000,,,-1291005709936224768,0.0,111.02729331469163,6.87590236139749,20.605644460384116,164,21,0.0,15,378042357337974,35,22.8,335.9058837890625,0.6420000195503235,0,0.0,0.0,,,,,0,,5,,
Raw,15542619,15546497000000,,,-1291005709936224768,0.0,111.02729331469163,6.87590236139749,20.605644460384116,164,24,0.0,15,378042346862820,12,32.9,-278.9449768066406,0.03290000185370445,0,0.0,0.0,,,,,0,,5,,
Raw,15542620,15546497000000,,,-1291005709936224768,0.0,111.02729331469163,6.87590236139749,20.605644460384116,164,26,0.0,15,378042357568574,40,21.7,-68.47168731689453,0.7519999742507935,0,0.0,0.0,,,,,0,,5,,
Raw,15542620,15546497000000,,,-1291005709936224768,0.0,111.02729331469163,6.87590236139749,20.605644460384116,164,3,0.0,7183,378056339838681,12,32.9,-513.8595581054688,0.3150000274181366,0,0.0,0.0,,,,,0,,6,,
Raw,15542620,15546497000000,,,-1291005709936224768,0.0,111.02729331469163,6.87590236139749,20.605644460384116,164,5,0.0,7183,378056353175780,86,17.8,-215.38388061523438,3.192000150680542,0,0.0,0.0,,,,,0,,6,,
Raw,15542621,15546497000000,,,-1291005709936224768,0.0,111.02729331469163,6.87590236139749,20.605644460384116,164,9,0.0,7183,378056359604197,53,19.4,284.7934875488281,0.8089999556541443,0,0.0,0.0,,,,,0,,6,,
Raw,15542621,15546497000000,,,-1291005709936224768,0.0,111.02729331469163,6.87590236139749,20.605644460384116,164,24,0.0,7183,378056352975590,1991,14.5,184.01397705078125,29.690502166748047,0,0.0,0.0,,,,,0,,6,,
Raw,15542622,15546497000000,,,-1291005709936224768,0.0,111.02729331469163,6.87590236139749,20.605644460384116,164,25,0.0,7183,378056348161373,16,29.1,-189.31365966796875,0.37549999356269836,0,0.0,0.0,,,,,0,,6,,
NMEA,$GPGSV,3,1,11,03,18,296,37,04,03,319,22,16,46,240,24,22,24,274,34*71,1606986038495
NMEA,$GPGSV,3,2,11,27,12,189,26,31,47,021,18,32,51,133,12,10,02,168,*7A,1606986038496
NMEA,$GPGSV,3,3,11,25,03,042,,26,70,305,,29,25,057,*40,1606986038496
NMEA,$GLGSV,3,1,10,74,37,302,25,75,00,000,33,73,35,009,14,71,69,254,16*66,1606986038496
NMEA,$GLGSV,3,2,10,72,30,322,14,70,33,175,,82,02,037,,80,04,049,*6C,1606986038496
NMEA,$GLGSV,3,3,10,84,10,137,,83,16,081,*69,1606986038497
NMEA,$GAGSV,2,1,07,03,08,320,33,05,59,309,18,09,61,158,19,24,60,344,15*61,1606986038497
NMEA,$GAGSV,2,2,07,25,35,260,29,04,10,146,,31,23,037,*50,1606986038497
NMEA,$PQGSV,1,1,03,193,47,165,17,194,63,032,19,195,38,135,14,0,5*61,1606986038497
NMEA,$PQGSV,4,1,16,02,40,240,19,05,16,257,21,10,51,239,24,14,17,313,20,0,4*6B,1606986038501
NMEA,$PQGSV,4,2,16,16,77,042,16,21,53,217,23,24,13,272,33,26,45,314,22,0,4*6C,1606986038501
NMEA,$PQGSV,4,3,16,01,52,129,,03,59,202,,04,37,115,,06,76,057,,0,4*68,1606986038501
NMEA,$PQGSV,4,4,16,07,76,268,,09,59,338,,13,00,000,,22,17,167,,0,4*6F,1606986038501
NMEA,$GNGSA,A,2,03,16,22,,,,,,,,,,3.0,2.8,1.0,1*3C,1606986038502
NMEA,$GNGSA,A,2,74,,,,,,,,,,,,3.0,2.8,1.0,2*38,1606986038502
NMEA,$GNGSA,A,2,05,25,,,,,,,,,,,3.0,2.8,1.0,3*38,1606986038502
NMEA,$PQGSA,A,2,14,24,,,,,,,,,,,3.0,2.8,1.0,4*36,1606986038503
NMEA,$GNVTG,288.2,T,288.2,M,4.5,N,8.4,K,A*30,1606986038503
NMEA,$GNRMC,090039.00,A,2255.533461,N,12017.675092,E,4.5,288.2,031220,2.8,W,A*3F,1606986038503
Raw,15543607,15547497000000,,,-1291005709936224768,0.0,126.77405902650207,1.5354928475065988,21.292151367774974,164,10,0.0,207,43239362770243,31,23.6,-34.0489387512207,0.8694999814033508,0,0.0,0.0,,,,,0,,3,,
Raw,15543607,15547497000000,,,-1291005709936224768,0.0,126.77405902650207,1.5354928475065988,21.292151367774974,164,11,0.0,207,43239358323017,11,33.3,-221.89727783203125,0.24990001320838928,0,0.0,0.0,,,,,0,,3,,
Raw,15543608,15547497000000,,,-1291005709936224768,0.0,126.77405902650207,1.5354928475065988,21.292151367774974,164,9,0.0,207,43239362386521,371,10.4,308.54254150390625,10.319499969482422,0,0.0,0.0,,,,,0,,3,,
Raw,15543609,15547497000000,,,-1291005709936224768,0.0,126.77405902650207,1.5354928475065988,21.292151367774974,164,7,0.0,207,43239368408954,111,15.1,102.5858383178711,3.7185001373291016,0,0.0,0.0,,,,,0,,3,,
Raw,15543609,15547497000000,,,-1291005709936224768,0.0,126.77405902650207,1.5354928475065988,21.292151367774974,164,8,0.0,207,43239361088323,1731,14.3,-564.2998657226562,27.808000564575195,0,0.0,0.0,,,,,0,,3,,
Raw,15543610,15547497000000,,,-1291005709936224768,0.0,126.77405902650207,1.5354928475065988,21.292151367774974,164,3,0.0,15,378057353796468,9,35.7,-146.65956115722656,0.04110000282526016,0,0.0,0.0,,,,,0,,1,,
Raw,15543611,15547497000000,,,-1291005709936224768,0.0,126.77405902650207,1.5354928475065988,21.292151367774974,164,4,0.0,15,378057348577063,35,22.6,-655.47607421875,0.7384999990463257,0,0.0,0.0,,,,,0,,1,,
Raw,15543612,15547497000000,,,-1291005709936224768,0.0,126.77405902650207,1.5354928475065988,21.292151367774974,164,16,0.0,15,378057362074923,24,25.6,-369.2062072753906,0.384799987077713,0,0.0,0.0,,,,,0,,1,,
Raw,15543612,15547497000000,,,-1291005709936224768,0.0,126.77405902650207,1.5354928475065988,21.292151367774974,164,22,0.0,15,378057354416475,11,33.2,54.35921096801758,0.04390000179409981,0,0.0,0.0,,,,,0,,1,,
Raw,15543613,15547497000000,,,-1291005709936224768,0.0,126.77405902650207,1.5354928475065988,21.292151367774974,164,27,0.0,15,378057352209233,24,25.2,-709.9053344726562,0.39980000257492065,0,0.0,0.0,,,,,0,,1,,
Raw,15543614,15547497000000,,,-1291005709936224768,0.0,126.77405902650207,1.5354928475065988,21.292151367774974,164,31,0.0,15,378057361442391,80,16.5,74.2906494140625,1.1679999828338623,0,0.0,0.0,,,,,0,,1,,
Raw,15543614,15547497000000,,,-1291005709936224768,0.0,126.77405902650207,1.5354928475065988,21.292151367774974,164,32,0.0,15,378057362474652,262,11.7,381.5578308105469,7.7295002937316895,0,0.0,0.0,,,,,0,,1,,
Raw,15543615,15547497000000,,,-1291005709936224768,0.0,126.77405902650207,1.5354928475065988,21.292151367774974,164,2,0.0,783,378043308231786,69,18.9,22.814292907714844,2.373500108718872,0,0.0,0.0,,,,,0,,5,,
Raw,15543615,15547497000000,,,-1291005709936224768,0.0,126.77405902650207,1.5354928475065988,21.292151367774974,164,5,0.0,783,378043300029730,72,20.5,2.237260103225708,3.813500165939331,0,0.0,0.0,,,,,0,,5,,
Raw,15543616,15547497000000,,,-1291005709936224768,0.0,126.77405902650207,1.5354928475065988,21.292151367774974,164,10,0.0,15,378043308930495,40,21.6,-33.20362854003906,0.7384999990463257,0,0.0,0.0,,,,,0,,5,,
Raw,15543617,15547497000000,,,-1291005709936224768,0.0,126.77405902650207,1.5354928475065988,21.292151367774974,164,14,0.0,15,378043348428735,40,21.7,-405.28973388671875,0.7384999990463257,0,0.0,0.0,,,,,0,,5,,
Raw,15543617,15547497000000,,,-1291005709936224768,0.0,126.77405902650207,1.5354928475065988,21.292151367774974,164,16,0.0,15,378043312954804,70,17.5,-76.95982360839844,1.0145000219345093,0,0.0,0.0,,,,,0,,5,,
