# 
# Header Description:
# 
# Version: v2.0.0.1 Platform: 8.0.0 Manufacturer: Sony Model: G8142
# 
# Raw,ElapsedRealtimeMillis,TimeNanos,LeapSecond,TimeUncertaintyNanos,FullBiasNanos,BiasNanos,BiasUncertaintyNanos,DriftNanosPerSecond,DriftUncertaintyNanosPerSecond,HardwareClockDiscontinuityCount,Svid,TimeOffsetNanos,State,ReceivedSvTimeNanos,ReceivedSvTimeUncertaintyNanos,Cn0DbHz,PseudorangeRateMetersPerSecond,PseudorangeRateUncertaintyMetersPerSecond,AccumulatedDeltaRangeState,AccumulatedDeltaRangeMeters,AccumulatedDeltaRangeUncertaintyMeters,CarrierFrequencyHz,CarrierCycles,CarrierPhase,CarrierPhaseUncertainty,MultipathIndicator,SnrInDb,ConstellationType,AgcDb,CarrierFrequencyHz
# 
# Fix,Provider,Latitude,Longitude,Altitude,Speed,Accuracy,(UTC)TimeInMs
# 
# Nav,Svid,Type,Status,MessageId,Sub-messageId,Data(Bytes)
# 
Fix,gps,22.925603,120.294154,84.156738,0.840000,11.792000,1606986942000
NMEA,$GPGSV,3,1,09,03,19,289,29,04,09,320,25,16,51,251,16,22,23,265,38*73,1606986941488
NMEA,$GPGSV,3,2,09,27,18,187,17,31,47,032,17,32,44,139,18,26,67,326,*72,1606986941490
NMEA,$GPGSV,3,3,09,29,22,050,*4E,1606986941491
NMEA,$GLGSV,3,1,11,75,00,000,35,71,64,233,16,74,37,313,,70,25,175,*67,1606986941492
Raw,16445579,16449499000000,,,-1291005709936674560,0.0,129.76553989574313,-14.61980379025187,18.630432831830284,165,11,0.0,3,1377669,9,35.4,-187.8225555419922,0.22310000658035278,0,0.0,0.0,,,,,0,,3,,
Raw,16445579,16449499000000,,,-1291005709936674560,0.0,129.76553989574313,-14.61980379025187,18.630432831830284,165,7,0.0,207,44141370322004,96,15.6,247.04478454589844,2.2215001583099365,0,0.0,0.0,,,,,0,,3,,
Raw,16445580,16449499000000,,,-1291005709936674560,0.0,129.76553989574313,-14.61980379025187,18.630432831830284,165,3,0.0,15,378959356539860,17,28.6,-55.02288055419922,0.05730000138282776,0,0.0,0.0,,,,,0,,1,,
Raw,16445580,16449499000000,,,-1291005709936674560,0.0,129.76553989574313,-14.61980379025187,18.630432831830284,165,4,0.0,15,378959352997626,27,24.6,-658.568359375,0.6345000267028809,0,0.0,0.0,,,,,0,,1,,
Raw,16445581,16449499000000,,,-1291005709936674560,0.0,129.76553989574313,-14.61980379025187,18.630432831830284,165,16,0.0,15,378959365497990,463,15.5,-286.68695068359375,13.54900074005127,0,0.0,0.0,,,,,0,,1,,
Raw,16445582,16449499000000,,,-1291005709936674560,0.0,129.76553989574313,-14.61980379025187,18.630432831830284,165,22,0.0,15,378959356586140,7,37.5,124.10142517089844,0.044600002467632294,0,0.0,0.0,,,,,0,,1,,
Raw,16445582,16449499000000,,,-1291005709936674560,0.0,129.76553989574313,-14.61980379025187,18.630432831830284,165,27,0.0,15,378959356795464,81,16.5,-715.3709716796875,1.190500020980835,0,0.0,0.0,,,,,0,,1,,
Raw,16445582,16449499000000,,,-1291005709936674560,0.0,129.76553989574313,-14.61980379025187,18.630432831830284,165,31,0.0,15,378959363645203,87,16.7,83.56746673583984,2.430999994277954,0,0.0,0.0,,,,,0,,1,,
Raw,16445583,16449499000000,,,-1291005709936674560,0.0,129.76553989574313,-14.61980379025187,18.630432831830284,165,32,0.0,15,378959363650691,61,18.0,460.5582580566406,1.0809999704360962,0,0.0,0.0,,,,,0,,1,,
Raw,16445583,16449499000000,,,-1291005709936674560,0.0,129.76553989574313,-14.61980379025187,18.630432831830284,165,5,0.0,783,378945302464206,17,28.9,1.1906448602676392,0.41350001096725464,0,0.0,0.0,,,,,0,,5,,
Raw,16445583,16449499000000,,,-1291005709936674560,0.0,129.76553989574313,-14.61980379025187,18.630432831830284,165,9,0.0,15,378945314930265,347,14.4,-147.32310485839844,11.042500495910645,0,0.0,0.0,,,,,0,,5,,
Raw,16445583,16449499000000,,,-1291005709936674560,0.0,129.76553989574313,-14.61980379025187,18.630432831830284,165,21,0.0,15,378945358668918,53,19.9,399.7110290527344,0.8134999871253967,0,0.0,0.0,,,,,0,,5,,
Raw,16445584,16449499000000,,,-1291005709936674560,0.0,129.76553989574313,-14.61980379025187,18.630432831830284,165,24,0.0,15,378945350129109,9,35.1,-269.68182373046875,0.03660000115633011,0,0.0,0.0,,,,,0,,5,,
Raw,16445584,16449499000000,,,-1291005709936674560,0.0,129.76553989574313,-14.61980379025187,18.630432831830284,165,25,0.0,7183,378959351118901,10,34.0,-154.4290008544922,0.05060000345110893,0,0.0,0.0,,,,,0,,6,,
NMEA,$GLGSV,3,2,11,82,00,000,,73,32,016,,80,00,000,,65,00,000,*67,1606986941493
NMEA,$GLGSV,3,3,11,84,16,132,,83,18,073,,72,37,316,*5D,1606986941495
NMEA,$GAGSV,1,1,01,25,37,267,34*5E,1606986941496
NMEA,$PQGSV,1,1,02,194,62,032,13,195,41,133,13,0,5*68,1606986941496
NMEA,$PQGSV,4,1,16,05,16,257,29,09,61,337,14,21,47,210,20,24,16,279,35,0,4*66,1606986941496
NMEA,$PQGSV,4,2,16,01,52,129,,02,40,240,,03,58,202,,04,37,115,,0,4*6D,1606986941496
NMEA,$PQGSV,4,3,16,06,78,071,,07,75,282,,10,52,246,,14,21,307,,0,4*6D,1606986941496
NMEA,$PQGSV,4,4,16,16,80,053,,22,11,165,,26,46,324,,29,23,067,,0,4*6F,1606986941497
NMEA,$GNGSA,A,2,03,04,22,,,,,,,,,,7.5,7.4,1.0,1*37,1606986941498
NMEA,$GNGSA,A,2,25,,,,,,,,,,,,7.5,7.4,1.0,3*35,1606986941499
NMEA,$PQGSA,A,2,24,,,,,,,,,,,,7.5,7.4,1.0,4*3B,1606986941499
NMEA,$GNVTG,95.2,T,95.2,M,1.6,N,3.0,K,A*39,1606986941499
NMEA,$GNRMC,091542.00,A,2255.536177,N,12017.649256,E,1.6,95.2,031220,2.8,W,A*0D,1606986941500
NMEA,$GNGGA,091542.00,2255.536177,N,12017.649256,E,1,05,7.4,66.7,M,17.5,M,,*45,1606986941501
NMEA,$GPGSV,3,1,09,03,19,289,28,04,09,320,23,16,51,251,16,22,23,265,37*7B,1606986942489
Fix,gps,22.925614,120.294133,85.497314,0.260000,12.864000,1606986943000
NMEA,$GPGSV,3,2,09,26,67,326,22,27,18,187,17,31,47,032,18,32,44,139,18*7D,1606986942490
NMEA,$GPGSV,3,3,09,29,22,050,*4E,1606986942490
NMEA,$GLGSV,3,1,11,75,00,000,35,71,64,233,19,74,37,313,,70,25,175,*68,1606986942491
NMEA,$GLGSV,3,2,11,82,00,000,,73,32,016,,80,00,000,,65,00,000,*67,1606986942491
NMEA,$GLGSV,3,3,11,84,16,132,,83,18,073,,72,37,316,*5D,1606986942491
NMEA,$GAGSV,1,1,01,25,37,267,34*5E,1606986942491
NMEA,$PQGSV,1,1,02,194,62,032,13,195,41,133,13,0,5*68,1606986942491
NMEA,$PQGSV,4,1,16,05,16,257,29,09,61,337,14,21,47,210,20,24,16,279,34,0,4*67,1606986942492
NMEA,$PQGSV,4,2,16,01,52,129,,02,40,240,,03,58,202,,04,37,115,,0,4*6D,1606986942492
Raw,16446576,16450499000000,,,-1291005709936674560,0.0,133.95502173807472,-14.472384554071825,17.46950555163365,165,11,0.0,3,1378323,9,35.1,-188.50479125976562,0.22310000658035278,0,0.0,0.0,,,,,0,,3,,
Raw,16446576,16450499000000,,,-1291005709936674560,0.0,133.95502173807472,-14.472384554071825,17.46950555163365,165,7,0.0,207,44142370321296,61,18.7,245.7558135986328,1.2115000486373901,0,0.0,0.0,,,,,0,,3,,
Raw,16446576,16450499000000,,,-1291005709936674560,0.0,133.95502173807472,-14.472384554071825,17.46950555163365,165,3,0.0,15,378960356540058,17,28.4,-55.6033821105957,0.05730000138282776,0,0.0,0.0,,,,,0,,1,,
Raw,16446576,16450499000000,,,-1291005709936674560,0.0,133.95502173807472,-14.472384554071825,17.46950555163365,165,4,0.0,15,378960352999794,31,23.3,-658.7777099609375,0.7444999814033508,0,0.0,0.0,,,,,0,,1,,
Raw,16446577,16450499000000,,,-1291005709936674560,0.0,133.95502173807472,-14.472384554071825,17.46950555163365,165,16,0.0,15,378960365498911,107,15.9,-284.0323181152344,3.259000062942505,0,0.0,0.0,,,,,0,,1,,
Raw,16446577,16450499000000,,,-1291005709936674560,0.0,133.95502173807472,-14.472384554071825,17.46950555163365,165,22,0.0,15,378960356585720,8,36.7,123.4592056274414,0.04520000144839287,0,0.0,0.0,,,,,0,,1,,
Raw,16446577,16450499000000,,,-1291005709936674560,0.0,133.95502173807472,-14.472384554071825,17.46950555163365,165,26,0.0,15,378960367522557,423,22.2,125.92683410644531,1.097000002861023,0,0.0,0.0,,,,,0,,1,,
Raw,16446578,16450499000000,,,-1291005709936674560,0.0,133.95502173807472,-14.472384554071825,17.46950555163365,165,27,0.0,15,378960356797850,90,16.5,-715.3709716796875,2.690500020980835,0,0.0,0.0,,,,,0,,1,,
Raw,16446578,16450499000000,,,-1291005709936674560,0.0,133.95502173807472,-14.472384554071825,17.46950555163365,165,31,0.0,15,378960363644776,61,18.3,83.72921752929688,1.0809999704360962,0,0.0,0.0,,,,,0,,1,,
Raw,16446578,16450499000000,,,-1291005709936674560,0.0,133.95502173807472,-14.472384554071825,17.46950555163365,165,32,0.0,15,378960363649155,69,18.0,460.5582580566406,2.5810000896453857,0,0.0,0.0,,,,,0,,1,,
Raw,16446579,16450499000000,,,-1291005709936674560,0.0,133.95502173807472,-14.472384554071825,17.46950555163365,165,5,0.0,783,378946302464202,24,28.9,1.1906448602676392,1.9135000705718994,0,0.0,0.0,,,,,0,,5,,
Raw,16446579,16450499000000,,,-1291005709936674560,0.0,133.95502173807472,-14.472384554071825,17.46950555163365,165,9,0.0,15,378946314930757,421,14.4,-147.32310485839844,12.542500495910645,0,0.0,0.0,,,,,0,,5,,
Raw,16446579,16450499000000,,,-1291005709936674560,0.0,133.95502173807472,-14.472384554071825,17.46950555163365,165,21,0.0,15,378946358667584,61,19.9,399.7110290527344,2.313500165939331,0,0.0,0.0,,,,,0,,5,,
Raw,16446580,16450499000000,,,-1291005709936674560,0.0,133.95502173807472,-14.472384554071825,17.46950555163365,165,24,0.0,15,378946350130014,10,34.0,-270.3930358886719,0.03710000216960907,0,0.0,0.0,,,,,0,,5,,
Raw,16446580,16450499000000,,,-1291005709936674560,0.0,133.95502173807472,-14.472384554071825,17.46950555163365,165,25,0.0,7183,378960351119405,10,34.4,-154.3423309326172,0.05060000345110893,0,0.0,0.0,,,,,0,,6,,
NMEA,$PQGSV,4,3,16,06,78,071,,07,75,282,,10,52,246,,14,21,307,,0,4*6D,1606986942493
NMEA,$PQGSV,4,4,16,16,80,053,,22,11,165,,26,46,324,,29,23,067,,0,4*6F,1606986942493
NMEA,$GNGSA,A,2,03,04,22,,,,,,,,,,2.9,2.7,1.0,1*38,1606986942494
NMEA,$GNGSA,A,2,25,,,,,,,,,,,,2.9,2.7,1.0,3*3A,1606986942494
NMEA,$PQGSA,A,2,24,,,,,,,,,,,,2.9,2.7,1.0,4*34,1606986942495
NMEA,$GNVTG,81.6,T,81.6,M,0.5,N,0.9,K,A*31,1606986942495
NMEA,$GNRMC,091543.00,A,2255.536841,N,12017.647951,E,0.5,81.6,031220,2.8,W,A*01,1606986942496
NMEA,$GNGGA,091543.00,2255.536841,N,12017.647951,E,1,05,2.7,68.0,M,17.5,M,,*45,1606986942496
NMEA,$GPGSV,3,1,09,03,19,289,29,04,09,320,24,16,51,251,19,22,23,265,37*72,1606986943490
Fix,gps,22.925625,120.294111,86.168457,0.000000,12.864000,1606986944000
NMEA,$GPGSV,3,2,09,26,67,326,21,27,18,187,17,31,47,032,19,32,44,139,18*7F,1606986943490
NMEA,$GPGSV,3,3,09,29,22,050,*4E,1606986943490
NMEA,$GLGSV,3,1,11,75,00,000,35,71,64,233,18,74,37,313,,70,25,175,*69,1606986943490
Raw,16447616,16451499000000,,,-1291005709936674560,0.0,145.92996740248054,-15.179214015308789,19.368260669204584,165,11,0.0,3,1378963,9,35.1,-188.9896240234375,0.22310000658035278,0,0.0,0.0,,,,,0,,3,,
Raw,16447617,16451499000000,,,-1291005709936674560,0.0,145.92996740248054,-15.179214015308789,19.368260669204584,165,7,0.0,207,44143370320373,70,17.5,246.61512756347656,1.2914999723434448,0,0.0,0.0,,,,,0,,3,,
Raw,16447618,16451499000000,,,-1291005709936674560,0.0,145.92996740248054,-15.179214015308789,19.368260669204584,165,3,0.0,15,378961356540235,16,29.4,-56.10357666015625,0.050700001418590546,0,0.0,0.0,,,,,0,,1,,
Raw,16447618,16451499000000,,,-1291005709936674560,0.0,145.92996740248054,-15.179214015308789,19.368260669204584,165,4,0.0,15,378961353002033,31,23.9,-660.0430908203125,0.6859999895095825,0,0.0,0.0,,,,,0,,1,,
Raw,16447618,16451499000000,,,-1291005709936674560,0.0,145.92996740248054,-15.179214015308789,19.368260669204584,165,16,0.0,15,378961365499810,61,18.9,-284.4795227050781,1.0040000677108765,0,0.0,0.0,,,,,0,,1,,
Raw,16447619,16451499000000,,,-1291005709936674560,0.0,145.92996740248054,-15.179214015308789,19.368260669204584,165,22,0.0,15,378961356585315,8,36.7,122.97560119628906,0.04520000144839287,0,0.0,0.0,,,,,0,,1,,
Raw,16447619,16451499000000,,,-1291005709936674560,0.0,145.92996740248054,-15.179214015308789,19.368260669204584,165,26,0.0,15,378961367521980,47,20.9,124.63284301757812,1.2380000352859497,0,0.0,0.0,,,,,0,,1,,
Raw,16447619,16451499000000,,,-1291005709936674560,0.0,145.92996740248054,-15.179214015308789,19.368260669204584,165,27,0.0,15,378961356800237,109,16.5,-715.3709716796875,4.190500259399414,0,0.0,0.0,,,,,0,,1,,
Raw,16447619,16451499000000,,,-1291005709936674560,0.0,145.92996740248054,-15.179214015308789,19.368260669204584,165,31,0.0,15,378961363644597,61,18.9,83.06318664550781,1.0010000467300415,0,0.0,0.0,,,,,0,,1,,
Raw,16447620,16451499000000,,,-1291005709936674560,0.0,145.92996740248054,-15.179214015308789,19.368260669204584,165,32,0.0,15,378961363647619,88,18.0,460.5582580566406,4.080999851226807,0,0.0,0.0,,,,,0,,1,,
Raw,16447620,16451499000000,,,-1291005709936674560,0.0,145.92996740248054,-15.179214015308789,19.368260669204584,165,5,0.0,783,378947302464215,21,27.5,-4.964221000671387,1.2335000038146973,0,0.0,0.0,,,,,0,,5,,
Raw,16447620,16451499000000,,,-1291005709936674560,0.0,145.92996740248054,-15.179214015308789,19.368260669204584,165,9,0.0,15,378947314931227,115,14.5,-145.7867889404297,2.7325000762939453,0,0.0,0.0,,,,,0,,5,,
Raw,16447620,16451499000000,,,-1291005709936674560,0.0,145.92996740248054,-15.179214015308789,19.368260669204584,165,21,0.0,15,378947358666253,84,16.8,399.5477600097656,1.7735000848770142,0,0.0,0.0,,,,,0,,5,,
Raw,16447621,16451499000000,,,-1291005709936674560,0.0,145.92996740248054,-15.179214015308789,19.368260669204584,165,24,0.0,15,378947350130908,11,33.6,-270.9354248046875,0.03790000081062317,0,0.0,0.0,,,,,0,,5,,
Raw,16447621,16451499000000,,,-1291005709936674560,0.0,145.92996740248054,-15.179214015308789,19.368260669204584,165,25,0.0,7183,378961351119932,10,34.5,-153.79478454589844,0.05060000345110893,0,0.0,0.0,,,,,0,,6,,
NMEA,$GLGSV,3,2,11,82,00,000,,73,32,016,,80,00,000,,65,00,000,*67,1606986943491
NMEA,$GLGSV,3,3,11,84,16,132,,83,18,073,,72,37,316,*5D,1606986943492
NMEA,$GAGSV,1,1,01,25,37,267,35*5F,1606986943492
NMEA,$PQGSV,1,1,02,194,62,032,13,195,41,133,13,0,5*68,1606986943493
NMEA,$PQGSV,4,1,16,05,16,257,28,09,61,337,15,21,47,210,17,24,16,279,34,0,4*63,1606986943498
NMEA,$PQGSV,4,2,16,01,52,129,,02,40,240,,03,58,202,,04,37,115,,0,4*6D,1606986943498
NMEA,$PQGSV,4,3,16,06,78,071,,07,75,282,,10,52,246,,14,21,307,,0,4*6D,1606986943498
NMEA,$PQGSV,4,4,16,16,80,053,,22,11,165,,26,46,324,,29,23,067,,0,4*6F,1606986943498
NMEA,$GNGSA,A,3,03,04,22,26,,,,,,,,,2.9,2.7,1.0,1*3D,1606986943499
NMEA,$GNGSA,A,2,25,,,,,,,,,,,,2.9,2.7,1.0,3*3A,1606986943499
NMEA,$PQGSA,A,2,24,,,,,,,,,,,,2.9,2.7,1.0,4*34,1606986943500
NMEA,$GNVTG,,T,,M,0.0,N,0.0,K,A*3D,1606986943501
NMEA,$GNRMC,091544.00,A,2255.537484,N,12017.646652,E,0.0,,031220,2.8,W,A*1B,1606986943501
NMEA,$GNGGA,091544.00,2255.537484,N,12017.646652,E,1,06,2.7,68.7,M,17.5,M,,*4F,1606986943502
Fix,gps,22.925633,120.294099,81.494690,0.000000,12.864000,1606986945000
NMEA,$GPGSV,3,1,09,03,19,289,28,04,09,320,24,16,51,251,20,22,23,265,35*7B,1606986944489
NMEA,$GPGSV,3,2,09,26,67,326,21,27,18,187,15,31,47,032,18,32,44,139,18*7C,1606986944489
NMEA,$GPGSV,3,3,09,29,22,050,*4E,1606986944490
NMEA,$GLGSV,3,1,11,75,00,000,33,71,64,233,18,74,37,313,,70,25,175,*6F,1606986944490
NMEA,$GLGSV,3,2,11,82,00,000,,73,32,016,,80,00,000,,65,00,000,*67,1606986944490
NMEA,$GLGSV,3,3,11,84,16,132,,83,18,073,,72,37,316,*5D,1606986944490
NMEA,$GAGSV,1,1,01,25,37,267,34*5E,1606986944490
Raw,16448588,16452499000000,,,-1291005709936674560,0.0,144.6250535082072,-17.89680247583658,18.03487400528159,165,11,0.0,3,1379590,12,32.9,-187.5090789794922,0.22540001571178436,0,0.0,0.0,,,,,0,,3,,
Raw,16448589,16452499000000,,,-1291005709936674560,0.0,144.6250535082072,-17.89680247583658,18.03487400528159,165,7,0.0,207,44144370319550,79,17.5,246.61512756347656,2.7915000915527344,0,0.0,0.0,,,,,0,,3,,
Raw,16448590,16452499000000,,,-1291005709936674560,0.0,144.6250535082072,-17.89680247583658,18.03487400528159,165,3,0.0,15,378962356540428,17,28.1,-54.560874938964844,0.05730000138282776,0,0.0,0.0,,,,,0,,1,,
Raw,16448590,16452499000000,,,-1291005709936674560,0.0,144.6250535082072,-17.89680247583658,18.03487400528159,165,4,0.0,15,378962353004182,31,23.8,-658.6349487304688,0.6859999895095825,0,0.0,0.0,,,,,0,,1,,
Raw,16448591,16452499000000,,,-1291005709936674560,0.0,144.6250535082072,-17.89680247583658,18.03487400528159,165,16,0.0,15,378962365500627,46,20.0,-282.56707763671875,0.9239999651908875,0,0.0,0.0,,,,,0,,1,,
Raw,16448592,16452499000000,,,-1291005709936674560,0.0,144.6250535082072,-17.89680247583658,18.03487400528159,165,22,0.0,15,378962356584904,10,34.6,124.48965454101562,0.04610000178217888,0,0.0,0.0,,,,,0,,1,,
Raw,16448592,16452499000000,,,-1291005709936674560,0.0,144.6250535082072,-17.89680247583658,18.03487400528159,165,26,0.0,15,378962367521637,40,21.2,126.27888488769531,0.8569999933242798,0,0.0,0.0,,,,,0,,1,,
Raw,16448593,16452499000000,,,-1291005709936674560,0.0,144.6250535082072,-17.89680247583658,18.03487400528159,165,27,0.0,15,378962356802675,116,14.9,-713.7534790039062,2.880500078201294,0,0.0,0.0,,,,,0,,1,,
Raw,16448594,16452499000000,,,-1291005709936674560,0.0,144.6250535082072,-17.89680247583658,18.03487400528159,165,31,0.0,15,378962363644161,61,18.4,84.69971466064453,1.0809999704360962,0,0.0,0.0,,,,,0,,1,,
Raw,16448594,16452499000000,,,-1291005709936674560,0.0,144.6250535082072,-17.89680247583658,18.03487400528159,165,32,0.0,15,378962363646083,117,18.0,460.5582580566406,5.581000328063965,0,0.0,0.0,,,,,0,,1,,
Raw,16448595,16452499000000,,,-1291005709936674560,0.0,144.6250535082072,-17.89680247583658,18.03487400528159,165,5,0.0,783,378948302464232,33,27.5,-4.964221000671387,2.7335000038146973,0,0.0,0.0,,,,,0,,5,,
Raw,16448595,16452499000000,,,-1291005709936674560,0.0,144.6250535082072,-17.89680247583658,18.03487400528159,165,9,0.0,15,378948314931713,134,14.5,-145.7867889404297,4.232500076293945,0,0.0,0.0,,,,,0,,5,,
Raw,16448596,16452499000000,,,-1291005709936674560,0.0,144.6250535082072,-17.89680247583658,18.03487400528159,165,21,0.0,15,378948358664920,97,16.8,399.5477600097656,3.2735002040863037,0,0.0,0.0,,,,,0,,5,,
Raw,16448596,16452499000000,,,-1291005709936674560,0.0,144.6250535082072,-17.89680247583658,18.03487400528159,165,24,0.0,15,378948350131816,11,33.1,-269.474365234375,0.03790000081062317,0,0.0,0.0,,,,,0,,5,,
Raw,16448597,16452499000000,,,-1291005709936674560,0.0,144.6250535082072,-17.89680247583658,18.03487400528159,165,25,0.0,7183,378962351120441,11,33.6,-153.90951538085938,0.29500001668930054,0,0.0,0.0,,,,,0,,6,,
NMEA,$PQGSV,1,1,02,194,62,032,13,195,41,133,13,0,5*68,1606986944490
NMEA,$PQGSV,4,1,16,05,16,257,28,09,61,337,15,21,47,210,17,24,16,279,33,0,4*64,1606986944491
NMEA,$PQGSV,4,2,16,01,52,129,,02,40,240,,03,58,202,,04,37,115,,0,4*6D,1606986944491
NMEA,$PQGSV,4,3,16,06,78,071,,07,75,282,,10,52,246,,14,21,307,,0,4*6D,1606986944491
NMEA,$PQGSV,4,4,16,16,80,053,,22,11,165,,26,46,324,,29,23,067,,0,4*6F,1606986944491
NMEA,$GNGSA,A,3,03,04,22,26,,,,,,,,,1.4,1.1,0.8,1*3F,1606986944492
NMEA,$GNGSA,A,2,25,,,,,,,,,,,,1.4,1.1,0.8,3*38,1606986944492
NMEA,$PQGSA,A,2,24,,,,,,,,,,,,1.4,1.1,0.8,4*36,1606986944492
NMEA,$GNVTG,,T,,M,0.0,N,0.0,K,A*3D,1606986944492
NMEA,$GNRMC,091545.00,A,2255.537960,N,12017.645953,E,0.0,,031220,2.8,W,A*10,1606986944493
NMEA,$GNGGA,091545.00,2255.537960,N,12017.645953,E,1,06,1.1,64.0,M,17.5,M,,*4A,1606986944493
Fix,gps,22.925612,120.294150,73.500366,0.000000,11.792000,1606986946000
NMEA,$GPGSV,3,1,09,03,19,289,28,04,09,320,23,16,51,251,18,22,23,265,35*77,1606986945489
Raw,16449582,16453499000000,,,-1291005709936674816,0.0,139.51283472124487,-13.087242737953602,15.282630476803657,165,11,0.0,3,1380220,12,32.9,-187.0901336669922,0.22540001571178436,0,0.0,0.0,,,,,0,,3,,
Raw,16449583,16453499000000,,,-1291005709936674816,0.0,139.51283472124487,-13.087242737953602,15.282630476803657,165,7,0.0,207,44145370318728,99,17.5,246.61512756347656,4.291500091552734,0,0.0,0.0,,,,,0,,3,,
Raw,16449583,16453499000000,,,-1291005709936674816,0.0,139.51283472124487,-13.087242737953602,15.282630476803657,165,3,0.0,15,378963356540588,17,28.0,-54.0462532043457,0.05730000138282776,0,0.0,0.0,,,,,0,,1,,
Raw,16449583,16453499000000,,,-1291005709936674816,0.0,139.51283472124487,-13.087242737953602,15.282630476803657,165,4,0.0,15,378963353006414,35,22.9,-657.8071899414062,0.7459999918937683,0,0.0,0.0,,,,,0,,1,,
Raw,16449583,16453499000000,,,-1291005709936674816,0.0,139.51283472124487,-13.087242737953602,15.282630476803657,165,16,0.0,15,378963365501657,61,18.4,-282.6241760253906,1.0839999914169312,0,0.0,0.0,,,,,0,,1,,
Raw,16449584,16453499000000,,,-1291005709936674816,0.0,139.51283472124487,-13.087242737953602,15.282630476803657,165,22,0.0,15,378963356584480,9,35.0,124.97329711914062,0.04560000076889992,0,0.0,0.0,,,,,0,,1,,
Raw,16449584,16453499000000,,,-1291005709936674816,0.0,139.51283472124487,-13.087242737953602,15.282630476803657,165,26,0.0,15,378963367521231,53,19.2,126.87830352783203,1.0069999694824219,0,0.0,0.0,,,,,0,,1,,
Raw,16449584,16453499000000,,,-1291005709936674816,0.0,139.51283472124487,-13.087242737953602,15.282630476803657,165,27,0.0,15,378963356805164,61,18.4,-713.8010864257812,1.1004999876022339,0,0.0,0.0,,,,,0,,1,,
Raw,16449585,16453499000000,,,-1291005709936674816,0.0,139.51283472124487,-13.087242737953602,15.282630476803657,165,31,0.0,15,378963363643947,53,19.4,85.95565032958984,1.0010000467300415,0,0.0,0.0,,,,,0,,1,,
Raw,16449585,16453499000000,,,-1291005709936674816,0.0,139.51283472124487,-13.087242737953602,15.282630476803657,165,32,0.0,15,378963363644546,155,18.0,460.5582580566406,7.081000328063965,0,0.0,0.0,,,,,0,,1,,
Raw,16449585,16453499000000,,,-1291005709936674816,0.0,139.51283472124487,-13.087242737953602,15.282630476803657,165,5,0.0,783,378949302464180,24,26.6,-0.04800987243652344,1.2735000848770142,0,0.0,0.0,,,,,0,,5,,
Raw,16449586,16453499000000,,,-1291005709936674816,0.0,139.51283472124487,-13.087242737953602,15.282630476803657,165,9,0.0,15,378949314932199,163,14.5,-145.7867889404297,5.732500076293945,0,0.0,0.0,,,,,0,,5,,
Raw,16449586,16453499000000,,,-1291005709936674816,0.0,139.51283472124487,-13.087242737953602,15.282630476803657,165,21,0.0,15,378949358663568,96,15.2,400.1335144042969,1.94350004196167,0,0.0,0.0,,,,,0,,5,,
Raw,16449586,16453499000000,,,-1291005709936674816,0.0,139.51283472124487,-13.087242737953602,15.282630476803657,165,24,0.0,15,378949350132713,10,34.3,-269.07855224609375,0.03710000216960907,0,0.0,0.0,,,,,0,,5,,
Raw,16449586,16453499000000,,,-1291005709936674816,0.0,139.51283472124487,-13.087242737953602,15.282630476803657,165,25,0.0,7183,378963351120963,11,33.0,-154.13584899902344,0.05140000209212303,0,0.0,0.0,,,,,0,,6,,
NMEA,$GPGSV,3,2,09,26,67,326,19,27,18,187,18,31,47,032,19,32,44,139,18*7B,1606986945489
NMEA,$GPGSV,3,3,09,29,22,050,*4E,1606986945490
NMEA,$GLGSV,3,1,11,75,00,000,33,71,64,233,18,74,37,313,,70,25,175,*6F,1606986945490
NMEA,$GLGSV,3,2,11,82,00,000,,73,32,016,,80,00,000,,65,00,000,*67,1606986945490
NMEA,$GLGSV,3,3,11,84,16,132,,83,18,073,,72,37,316,*5D,1606986945490
NMEA,$GAGSV,1,1,01,25,37,267,33*59,1606986945492
NMEA,$PQGSV,1,1,02,194,62,032,13,195,41,133,13,0,5*68,1606986945493
NMEA,$PQGSV,4,1,16,05,16,257,27,09,61,337,15,21,47,210,15,24,16,279,34,0,4*6E,1606986945495
NMEA,$PQGSV,4,2,16,01,52,129,,02,40,240,,03,58,202,,04,37,115,,0,4*6D,1606986945495
NMEA,$PQGSV,4,3,16,06,78,071,,07,75,282,,10,52,246,,14,21,307,,0,4*6D,1606986945495
NMEA,$PQGSV,4,4,16,16,80,053,,22,11,165,,26,46,324,,29,23,067,,0,4*6F,1606986945495
NMEA,$GNGSA,A,3,03,04,16,22,26,27,31,,,,,,1.4,1.1,0.8,1*3F,1606986945497
NMEA,$GNGSA,A,2,25,,,,,,,,,,,,1.4,1.1,0.8,3*38,1606986945497
NMEA,$PQGSA,A,2,24,,,,,,,,,,,,1.4,1.1,0.8,4*36,1606986945498
NMEA,$GNVTG,,T,,M,0.0,N,0.0,K,A*3D,1606986945498
NMEA,$GNRMC,091546.00,A,2255.536695,N,12017.648984,E,0.0,,031220,2.8,W,A*10,1606986945498
NMEA,$GNGGA,091546.00,2255.536695,N,12017.648984,E,1,09,1.1,56.0,M,17.5,M,,*44,1606986945498
Fix,gps,22.925606,120.294171,73.310486,0.580000,12.864000,1606986947000
Raw,16450614,16454499000000,,,-1291005709936674816,0.0,133.52680252864957,-13.104835895039912,16.521797282999348,165,11,0.0,3,1380891,16,29.1,-186.83871459960938,0.2282000035047531,0,0.0,0.0,,,,,0,,3,,
Raw,16450615,16454499000000,,,-1291005709936674816,0.0,133.52680252864957,-13.104835895039912,16.521797282999348,165,7,0.0,207,44146370317905,128,17.5,246.61512756347656,5.791500091552734,0,0.0,0.0,,,,,0,,3,,
Raw,16450615,16454499000000,,,-1291005709936674816,0.0,133.52680252864957,-13.104835895039912,16.521797282999348,165,3,0.0,15,378964356540783,13,31.7,-53.7296028137207,0.04920000210404396,0,0.0,0.0,,,,,0,,1,,
Raw,16450616,16454499000000,,,-1291005709936674816,0.0,133.52680252864957,-13.104835895039912,16.521797282999348,165,4,0.0,15,378964353008667,35,22.8,-657.540771484375,0.7459999918937683,0,0.0,0.0,,,,,0,,1,,
Raw,16450616,16454499000000,,,-1291005709936674816,0.0,133.52680252864957,-13.104835895039912,16.521797282999348,165,16,0.0,15,378964365502649,35,22.7,-282.4529113769531,0.7339999675750732,0,0.0,0.0,,,,,0,,1,,
Raw,16450617,16454499000000,,,-1291005709936674816,0.0,133.52680252864957,-13.104835895039912,16.521797282999348,165,22,0.0,15,378964356584081,10,34.7,125.25546264648438,0.04610000178217888,0,0.0,0.0,,,,,0,,1,,
Raw,16450618,16454499000000,,,-1291005709936674816,0.0,133.52680252864957,-13.104835895039912,16.521797282999348,165,27,0.0,15,378964356807530,61,18.3,-712.3167724609375,1.1004999876022339,0,0.0,0.0,,,,,0,,1,,
Raw,16450618,16454499000000,,,-1291005709936674816,0.0,133.52680252864957,-13.104835895039912,16.521797282999348,165,31,0.0,15,378964363643661,61,19.4,85.95565032958984,2.501000165939331,0,0.0,0.0,,,,,0,,1,,
Raw,16450619,16454499000000,,,-1291005709936674816,0.0,133.52680252864957,-13.104835895039912,16.521797282999348,165,32,0.0,15,378964363642843,122,15.3,461.0054626464844,4.361000061035156,0,0.0,0.0,,,,,0,,1,,
Raw,16450621,16454499000000,,,-1291005709936674816,0.0,133.52680252864957,-13.104835895039912,16.521797282999348,165,5,0.0,783,378950302464180,35,26.6,-0.04800987243652344,2.7735002040863037,0,0.0,0.0,,,,,0,,5,,
Raw,16450621,16454499000000,,,-1291005709936674816,0.0,133.52680252864957,-13.104835895039912,16.521797282999348,165,9,0.0,15,378950314932666,102,15.4,-143.19424438476562,2.6875,0,0.0,0.0,,,,,0,,5,,
Raw,16450622,16454499000000,,,-1291005709936674816,0.0,133.52680252864957,-13.104835895039912,16.521797282999348,165,21,0.0,15,378950358662234,110,15.2,400.1335144042969,3.44350004196167,0,0.0,0.0,,,,,0,,5,,
Raw,16450622,16454499000000,,,-1291005709936674816,0.0,133.52680252864957,-13.104835895039912,16.521797282999348,165,24,0.0,15,378950350133609,7,37.1,-268.8429870605469,0.035600002855062485,0,0.0,0.0,,,,,0,,5,,
Raw,16450625,16454499000000,,,-1291005709936674816,0.0,133.52680252864957,-13.104835895039912,16.521797282999348,165,25,0.0,7183,378964351121461,10,34.9,-153.35997009277344,0.05060000345110893,0,0.0,0.0,,,,,0,,6,,
NMEA,$GPGSV,3,1,09,03,19,289,32,04,09,320,23,16,51,251,23,22,23,265,35*74,1606986946503
NMEA,$GPGSV,3,2,09,27,18,187,18,31,47,032,19,32,44,139,15,26,67,326,*7E,1606986946504
NMEA,$GPGSV,3,3,09,29,22,050,*4E,1606986946504
NMEA,$GLGSV,3,1,11,75,00,000,29,71,64,233,18,74,37,313,,70,25,175,*64,1606986946505
NMEA,$GLGSV,3,2,11,82,00,000,,73,32,016,,80,00,000,,65,00,000,*67,1606986946509
NMEA,$GLGSV,3,3,11,84,16,132,,83,18,073,,72,37,316,*5D,1606986946511
NMEA,$GAGSV,1,1,01,25,37,267,35*5F,1606986946512
NMEA,$PQGSV,1,1,02,194,62,032,13,195,41,133,17,0,5*6C,1606986946528
NMEA,$PQGSV,4,1,16,05,16,257,27,09,61,337,15,21,47,210,15,24,16,279,37,0,4*6D,1606986946528
NMEA,$PQGSV,4,2,16,01,52,129,,02,40,240,,03,58,202,,04,37,115,,0,4*6D,1606986946528
NMEA,$PQGSV,4,3,16,06,78,071,,07,75,282,,10,52,246,,14,21,307,,0,4*6D,1606986946529
NMEA,$PQGSV,4,4,16,16,80,053,,22,11,165,,26,46,324,,29,23,067,,0,4*6F,1606986946529
NMEA,$GNGSA,A,3,03,04,16,22,26,27,31,,,,,,1.4,1.1,0.8,1*3F,1606986946529
NMEA,$GNGSA,A,2,25,,,,,,,,,,,,1.4,1.1,0.8,3*38,1606986946530
NMEA,$PQGSA,A,2,24,,,,,,,,,,,,1.4,1.1,0.8,4*36,1606986946530
NMEA,$GNVTG,67.8,T,67.8,M,1.1,N,2.1,K,A*3E,1606986946530
NMEA,$GNRMC,091547.00,A,2255.536350,N,12017.650271,E,1.1,67.8,031220,2.8,W,A*02,1606986946530
NMEA,$GNGGA,091547.00,2255.536350,N,12017.650271,E,1,09,1.1,55.8,M,17.5,M,,*4A,1606986946530
NMEA,$GPGSV,3,1,09,03,19,289,31,04,09,320,22,16,51,251,21,22,23,265,35*74,1606986947490
NMEA,$GPGSV,3,2,09,27,18,187,21,31,47,032,17,32,44,139,15,26,67,326,*7A,1606986947490
NMEA,$GPGSV,3,3,09,29,22,050,*4E,1606986947493
NMEA,$GLGSV,3,1,11,75,00,000,31,71,64,233,18,74,37,313,,70,25,175,*6D,1606986947493
NMEA,$GLGSV,3,2,11,82,00,000,,73,32,016,,80,00,000,,65,00,000,*67,1606986947494
NMEA,$GLGSV,3,3,11,84,16,132,,83,18,073,,72,37,316,*5D,1606986947494
NMEA,$GAGSV,1,1,01,25,38,267,35*50,1606986947494
NMEA,$PQGSV,1,1,02,194,62,032,13,195,41,133,17,0,5*6C,1606986947495
NMEA,$PQGSV,4,1,15,05,16,257,27,09,61,337,15,14,21,307,13,21,47,210,15,0,4*67,1606986947497
NMEA,$PQGSV,4,2,15,24,16,279,36,01,52,129,,02,40,240,,03,58,202,,0,4*63,1606986947497
NMEA,$PQGSV,4,3,15,04,37,115,,07,75,282,,10,52,246,,16,80,053,,0,4*6F,1606986947498
NMEA,$PQGSV,4,4,15,22,11,165,,26,46,324,,29,23,067,,0,4*55,1606986947498
Fix,gps,22.925600,120.294197,72.225830,0.000000,12.864000,1606986948000
NMEA,$GNGSA,A,3,03,04,16,22,26,27,31,,,,,,1.4,1.1,0.8,1*3F,1606986947500
Raw,16451573,16455499000000,,,-1291005709936674816,0.0,143.6563761672005,-11.913528965593795,18.08957009839107,165,11,0.0,3,1381463,14,30.5,-185.62405395507812,0.2273000031709671,0,0.0,0.0,,,,,0,,3,,
Raw,16451574,16455499000000,,,-1291005709936674816,0.0,143.6563761672005,-11.913528965593795,18.08957009839107,165,7,0.0,207,44147370317083,168,17.5,246.61512756347656,7.291500091552734,0,0.0,0.0,,,,,0,,3,,
Raw,16451575,16455499000000,,,-1291005709936674816,0.0,143.6563761672005,-11.913528965593795,18.08957009839107,165,3,0.0,15,378965356540935,14,30.8,-52.437862396240234,0.049800001084804535,0,0.0,0.0,,,,,0,,1,,
Raw,16451575,16455499000000,,,-1291005709936674816,0.0,143.6563761672005,-11.913528965593795,18.08957009839107,165,4,0.0,15,378965353010904,40,21.9,-655.9803466796875,0.8059999942779541,0,0.0,0.0,,,,,0,,1,,
Raw,16451576,16455499000000,,,-1291005709936674816,0.0,143.6563761672005,-11.913528965593795,18.08957009839107,165,16,0.0,15,378965365503581,46,20.6,-280.9591064453125,0.8539999723434448,0,0.0,0.0,,,,,0,,1,,
Raw,16451577,16455499000000,,,-1291005709936674816,0.0,143.6563761672005,-11.913528965593795,18.08957009839107,165,22,0.0,15,378965356583658,10,34.7,126.5131607055664,0.04610000178217888,0,0.0,0.0,,,,,0,,1,,
Raw,16451577,16455499000000,,,-1291005709936674816,0.0,143.6563761672005,-11.913528965593795,18.08957009839107,165,27,0.0,15,378965356809724,46,20.5,-711.4033813476562,0.8704999685287476,0,0.0,0.0,,,,,0,,1,,
Raw,16451578,16455499000000,,,-1291005709936674816,0.0,143.6563761672005,-11.913528965593795,18.08957009839107,165,31,0.0,15,378965363643475,73,17.2,85.31816864013672,1.9210000038146973,0,0.0,0.0,,,,,0,,1,,
Raw,16451579,16455499000000,,,-1291005709936674816,0.0,143.6563761672005,-11.913528965593795,18.08957009839107,165,32,0.0,15,378965363641305,151,15.3,461.0054626464844,5.861000061035156,0,0.0,0.0,,,,,0,,1,,
Raw,16451579,16455499000000,,,-1291005709936674816,0.0,143.6563761672005,-11.913528965593795,18.08957009839107,165,24,0.0,15,378951350134501,8,36.4,-267.65728759765625,0.03620000183582306,0,0.0,0.0,,,,,0,,5,,
Raw,16451580,16455499000000,,,-1291005709936674816,0.0,143.6563761672005,-11.913528965593795,18.08957009839107,165,25,0.0,7183,378965351121981,10,34.7,-151.9399871826172,0.2750000059604645,0,0.0,0.0,,,,,0,,6,,
NMEA,$GNGSA,A,2,25,,,,,,,,,,,,1.4,1.1,0.8,3*38,1606986947500
NMEA,$PQGSA,A,2,24,,,,,,,,,,,,1.4,1.1,0.8,4*36,1606986947501
NMEA,$GNVTG,,T,,M,0.0,N,0.0,K,A*3D,1606986947501
NMEA,$GNRMC,091548.00,A,2255.535992,N,12017.651796,E,0.0,,031220,2.8,W,A*10,1606986947501
NMEA,$GNGGA,091548.00,2255.535992,N,12017.651796,E,1,09,1.1,54.8,M,17.5,M,,*4E,1606986947501
Fix,gps,22.925598,120.294208,70.912537,0.300000,11.792000,1606986949000
Raw,16452569,16456499000000,,,-1291005709936674816,0.0,143.43569637276232,-7.644695968479303,18.544631795227456,165,11,0.0,3,1382107,13,31.6,-186.03602600097656,0.22670000791549683,0,0.0,0.0,,,,,0,,3,,
Raw,16452570,16456499000000,,,-1291005709936674816,0.0,143.43569637276232,-7.644695968479303,18.544631795227456,165,7,0.0,207,44148370316260,217,17.5,246.61512756347656,8.791500091552734,0,0.0,0.0,,,,,0,,3,,
Raw,16452570,16456499000000,,,-1291005709936674816,0.0,143.43569637276232,-7.644695968479303,18.544631795227456,165,3,0.0,15,378966356541097,14,30.9,-52.74580764770508,0.049800001084804535,0,0.0,0.0,,,,,0,,1,,
Raw,16452571,16456499000000,,,-1291005709936674816,0.0,143.43569637276232,-7.644695968479303,18.544631795227456,165,4,0.0,15,378966353013094,31,23.8,-657.464599609375,0.6859999895095825,0,0.0,0.0,,,,,0,,1,,
Raw,16452571,16456499000000,,,-1291005709936674816,0.0,143.43569637276232,-7.644695968479303,18.544631795227456,165,16,0.0,15,378966365504530,40,21.4,-280.9685974121094,0.8539999723434448,0,0.0,0.0,,,,,0,,1,,
Raw,16452572,16456499000000,,,-1291005709936674816,0.0,143.43569637276232,-7.644695968479303,18.544631795227456,165,22,0.0,15,378966356583234,9,35.1,126.16578674316406,0.04560000076889992,0,0.0,0.0,,,,,0,,1,,
Raw,16452572,16456499000000,,,-1291005709936674816,0.0,143.43569637276232,-7.644695968479303,18.544631795227456,165,27,0.0,15,378966356812094,53,19.0,-712.0693969726562,1.0205000638961792,0,0.0,0.0,,,,,0,,1,,
Raw,16452573,16456499000000,,,-1291005709936674816,0.0,143.43569637276232,-7.644695968479303,18.544631795227456,165,31,0.0,15,378966363643076,46,20.0,85.79389953613281,0.9210000038146973,0,0.0,0.0,,,,,0,,1,,
Raw,16452574,16456499000000,,,-1291005709936674816,0.0,143.43569637276232,-7.644695968479303,18.544631795227456,165,32,0.0,15,378966363639767,191,15.3,461.0054626464844,7.3610005378723145,0,0.0,0.0,,,,,0,,1,,
Raw,16452574,16456499000000,,,-1291005709936674816,0.0,143.43569637276232,-7.644695968479303,18.544631795227456,165,5,0.0,783,378952302464187,35,26.6,-1.7667632102966309,2.7735002040863037,0,0.0,0.0,,,,,0,,5,,
Raw,16452575,16456499000000,,,-1291005709936674816,0.0,143.43569637276232,-7.644695968479303,18.544631795227456,165,9,0.0,15,378952314933621,150,15.4,-143.19424438476562,5.6875,0,0.0,0.0,,,,,0,,5,,
Raw,16452575,16456499000000,,,-1291005709936674816,0.0,143.43569637276232,-7.644695968479303,18.544631795227456,165,14,0.0,15,378952351996939,1109,13.8,-335.21453857421875,7.948000431060791,0,0.0,0.0,,,,,0,,5,,
Raw,16452576,16456499000000,,,-1291005709936674816,0.0,143.43569637276232,-7.644695968479303,18.544631795227456,165,24,0.0,15,378952350135396,8,36.4,-268.0826416015625,0.03620000183582306,0,0.0,0.0,,,,,0,,5,,
Raw,16452576,16456499000000,,,-1291005709936674816,0.0,143.43569637276232,-7.644695968479303,18.544631795227456,165,25,0.0,7183,378966351122486,12,32.6,-151.93521118164062,0.052400000393390656,0,0.0,0.0,,,,,0,,6,,
NMEA,$GPGSV,3,1,09,03,19,289,31,04,09,320,24,16,51,251,21,22,23,265,35*72,1606986948489
NMEA,$GPGSV,3,2,09,27,18,187,19,31,47,032,20,32,44,139,15,26,67,326,*75,1606986948489
NMEA,$GPGSV,3,3,09,29,22,050,*4E,1606986948489
NMEA,$GLGSV,3,1,11,75,00,000,32,71,64,233,18,74,37,313,,70,25,175,*6E,1606986948492
NMEA,$GLGSV,3,2,11,82,00,000,,73,32,016,,80,00,000,,65,00,000,*67,1606986948493
NMEA,$GLGSV,3,3,11,84,16,132,,83,18,073,,72,37,316,*5D,1606986948493
NMEA,$GAGSV,1,1,01,25,38,267,33*56,1606986948494
NMEA,$PQGSV,1,1,02,194,62,032,13,195,41,133,16,0,5*6D,1606986948495
NMEA,$PQGSV,4,1,15,05,16,257,27,09,61,337,15,14,21,307,14,24,16,279,36,0,4*6F,1606986948495
NMEA,$PQGSV,4,2,15,01,52,129,,02,40,240,,03,58,202,,04,37,115,,0,4*6E,1606986948496
NMEA,$PQGSV,4,3,15,07,75,282,,10,52,246,,16,80,053,,21,47,210,,0,4*69,1606986948496
NMEA,$PQGSV,4,4,15,22,11,165,,26,46,324,,29,23,067,,0,4*55,1606986948496
NMEA,$GNGSA,A,3,03,04,16,22,26,27,31,,,,,,1.4,1.1,0.8,1*3F,1606986948497
NMEA,$GNGSA,A,2,25,,,,,,,,,,,,1.4,1.1,0.8,3*38,1606986948497
NMEA,$PQGSA,A,2,24,,,,,,,,,,,,1.4,1.1,0.8,4*36,1606986948497
NMEA,$GNVTG,67.6,T,67.6,M,0.6,N,1.1,K,A*3B,1606986948497
NMEA,$GNRMC,091549.00,A,2255.535877,N,12017.652499,E,0.6,67.6,031220,2.8,W,A*0B,1606986948498
NMEA,$GNGGA,091549.00,2255.535877,N,12017.652499,E,1,09,1.1,53.4,M,17.5,M,,*41,1606986948498
Fix,gps,22.925602,120.294209,69.427979,1.170000,11.792000,1606986950000
Raw,16453630,16457499000000,,,-1291005709936674816,0.0,139.7192245349288,-8.28803434862118,18.47140570663334,165,11,0.0,3,1382647,16,29.4,-186.76016235351562,0.2282000035047531,0,0.0,0.0,,,,,0,,3,,
Raw,16453630,16457499000000,,,-1291005709936674816,0.0,139.7192245349288,-8.28803434862118,18.47140570663334,165,7,0.0,207,44149370315437,277,17.5,246.61512756347656,10.291500091552734,0,0.0,0.0,,,,,0,,3,,
Raw,16453630,16457499000000,,,-1291005709936674816,0.0,139.7192245349288,-8.28803434862118,18.47140570663334,165,3,0.0,15,378967356541294,12,32.2,-53.44444274902344,0.0479000024497509,0,0.0,0.0,,,,,0,,1,,
Raw,16453631,16457499000000,,,-1291005709936674816,0.0,139.7192245349288,-8.28803434862118,18.47140570663334,165,4,0.0,15,378967353015249,31,23.6,-657.6644287109375,0.6859999895095825,0,0.0,0.0,,,,,0,,1,,
Raw,16453631,16457499000000,,,-1291005709936674816,0.0,139.7192245349288,-8.28803434862118,18.47140570663334,165,16,0.0,15,378967365505433,53,19.1,-282.1579284667969,1.0040000677108765,0,0.0,0.0,,,,,0,,1,,
Raw,16453631,16457499000000,,,-1291005709936674816,0.0,139.7192245349288,-8.28803434862118,18.47140570663334,165,22,0.0,15,378967356582818,9,35.9,125.44990539550781,0.04560000076889992,0,0.0,0.0,,,,,0,,1,,
Raw,16453632,16457499000000,,,-1291005709936674816,0.0,139.7192245349288,-8.28803434862118,18.47140570663334,165,27,0.0,15,378967356814469,61,19.0,-712.0693969726562,2.5205001831054688,0,0.0,0.0,,,,,0,,1,,
Raw,16453632,16457499000000,,,-1291005709936674816,0.0,139.7192245349288,-8.28803434862118,18.47140570663334,165,31,0.0,15,378967363642790,54,20.0,85.79389953613281,2.4210000038146973,0,0.0,0.0,,,,,0,,1,,
Raw,16453632,16457499000000,,,-1291005709936674816,0.0,139.7192245349288,-8.28803434862118,18.47140570663334,165,32,0.0,15,378967363638452,102,15.5,461.4145812988281,2.761000156402588,0,0.0,0.0,,,,,0,,1,,
Raw,16453632,16457499000000,,,-1291005709936674816,0.0,139.7192245349288,-8.28803434862118,18.47140570663334,165,5,0.0,783,378953302464169,24,26.3,0.04800987243652344,1.2735000848770142,0,0.0,0.0,,,,,0,,5,,
Raw,16453633,16457499000000,,,-1291005709936674816,0.0,139.7192245349288,-8.28803434862118,18.47140570663334,165,9,0.0,15,378953314934079,102,15.5,-142.7525634765625,2.6875,0,0.0,0.0,,,,,0,,5,,
Raw,16453633,16457499000000,,,-1291005709936674816,0.0,139.7192245349288,-8.28803434862118,18.47140570663334,165,14,0.0,15,378953351998057,1135,14.2,-335.5409851074219,8.697999954223633,0,0.0,0.0,,,,,0,,5,,
Raw,16453633,16457499000000,,,-1291005709936674816,0.0,139.7192245349288,-8.28803434862118,18.47140570663334,165,24,0.0,15,378953350136293,8,36.3,-268.8511962890625,0.03620000183582306,0,0.0,0.0,,,,,0,,5,,
Raw,16453633,16457499000000,,,-1291005709936674816,0.0,139.7192245349288,-8.28803434862118,18.47140570663334,165,25,0.0,7183,378967351122991,9,35.6,-151.96717834472656,0.05010000243782997,0,0.0,0.0,,,,,0,,6,,
NMEA,$GPGSV,3,1,09,03,19,289,32,04,09,320,24,16,51,251,19,22,23,265,36*79,1606986949488
NMEA,$GPGSV,3,2,09,27,18,187,19,31,47,032,20,32,44,139,16,26,67,326,*76,1606986949488
NMEA,$GPGSV,3,3,09,29,22,050,*4E,1606986949488
NMEA,$GLGSV,3,1,11,75,00,000,29,71,64,233,18,74,37,313,,70,25,175,*64,1606986949488
NMEA,$GLGSV,3,2,11,82,00,000,,73,32,016,,80,00,000,,65,00,000,*67,1606986949488
NMEA,$GLGSV,3,3,11,84,16,132,,83,18,073,,72,37,316,*5D,1606986949488
NMEA,$GAGSV,1,1,01,25,38,267,36*53,1606986949488
NMEA,$PQGSV,1,1,02,194,62,032,13,195,41,133,16,0,5*6D,1606986949489
NMEA,$PQGSV,4,1,16,05,16,257,26,09,61,337,16,14,21,307,14,24,16,279,36,0,4*6E,1606986949489
NMEA,$PQGSV,4,2,16,01,52,129,,02,40,240,,03,58,202,,04,37,115,,0,4*6D,1606986949489
NMEA,$PQGSV,4,3,16,06,78,071,,07,75,282,,10,52,246,,16,80,053,,0,4*66,1606986949489
NMEA,$PQGSV,4,4,16,21,47,210,,22,11,165,,26,46,324,,29,23,067,,0,4*65,1606986949489
NMEA,$GNGSA,A,3,03,04,16,22,26,27,31,,,,,,1.4,1.1,0.8,1*3F,1606986949490
NMEA,$GNGSA,A,2,25,,,,,,,,,,,,1.4,1.1,0.8,3*38,1606986949490
NMEA,$PQGSA,A,2,24,,,,,,,,,,,,1.4,1.1,0.8,4*36,1606986949490
NMEA,$GNVTG,317.4,T,317.4,M,2.3,N,4.2,K,A*3A,1606986949490
NMEA,$GNRMC,091550.00,A,2255.536122,N,12017.652556,E,2.3,317.4,031220,2.8,W,A*3A,1606986949490
NMEA,$GNGGA,091550.00,2255.536122,N,12017.652556,E,1,09,1.1,52.0,M,17.5,M,,*44,1606986949490
Fix,gps,22.925609,120.294191,69.165649,2.180000,11.792000,1606986951000
NMEA,$GPGSV,3,1,09,03,19,289,32,04,09,320,22,16,51,251,21,22,23,265,37*75,1606986950488
NMEA,$GPGSV,3,2,09,26,67,326,21,27,18,187,18,31,47,032,18,32,44,139,16*7F,1606986950489
NMEA,$GPGSV,3,3,09,29,22,050,*4E,1606986950489
NMEA,$GLGSV,3,1,11,75,00,000,30,71,64,233,18,74,37,313,,70,25,175,*6C,1606986950489
NMEA,$GLGSV,3,2,11,82,00,000,,73,32,016,,80,00,000,,65,00,000,*67,1606986950489
NMEA,$GLGSV,3,3,11,84,16,132,,83,18,073,,72,37,316,*5D,1606986950491
NMEA,$GAGSV,1,1,01,25,38,267,35*50,1606986950491
NMEA,$PQGSV,1,1,02,194,62,032,12,195,41,133,16,0,5*6C,1606986950491
NMEA,$PQGSV,4,1,16,05,16,257,28,09,61,337,16,14,21,307,15,24,16,279,37,0,4*60,1606986950492
NMEA,$PQGSV,4,2,16,01,52,129,,02,40,240,,03,58,202,,04,37,115,,0,4*6D,1606986950492
NMEA,$PQGSV,4,3,16,06,78,071,,07,75,282,,10,52,246,,16,80,053,,0,4*66,1606986950492
NMEA,$PQGSV,4,4,16,21,47,210,,22,11,165,,26,46,324,,29,23,067,,0,4*65,1606986950492
NMEA,$GNGSA,A,3,03,04,16,22,26,27,31,,,,,,1.4,1.1,0.8,1*3F,1606986950493
Raw,16454561,16458499000000,,,-1291005709936674816,0.0,135.1306273136288,-8.976939021522174,19.261985975788182,165,11,0.0,3,1383337,14,30.4,-187.1914825439453,0.2273000031709671,0,0.0,0.0,,,,,0,,3,,
Raw,16454561,16458499000000,,,-1291005709936674816,0.0,135.1306273136288,-8.976939021522174,19.261985975788182,165,7,0.0,207,44150370314615,346,17.5,246.61512756347656,11.791500091552734,0,0.0,0.0,,,,,0,,3,,
Raw,16454562,16458499000000,,,-1291005709936674816,0.0,135.1306273136288,-8.976939021522174,19.261985975788182,165,3,0.0,15,378968356541483,12,32.4,-53.80807876586914,0.0479000024497509,0,0.0,0.0,,,,,0,,1,,
Raw,16454562,16458499000000,,,-1291005709936674816,0.0,135.1306273136288,-8.976939021522174,19.261985975788182,165,4,0.0,15,378968353017388,40,21.6,-658.5302734375,0.8059999942779541,0,0.0,0.0,,,,,0,,1,,
Raw,16454562,16458499000000,,,-1291005709936674816,0.0,135.1306273136288,-8.976939021522174,19.261985975788182,165,16,0.0,15,378968365506416,46,20.7,-281.87249755859375,0.8539999723434448,0,0.0,0.0,,,,,0,,1,,
Raw,16454562,16458499000000,,,-1291005709936674816,0.0,135.1306273136288,-8.976939021522174,19.261985975788182,165,22,0.0,15,378968356582402,8,36.5,125.06200408935547,0.04520000144839287,0,0.0,0.0,,,,,0,,1,,
Raw,16454563,16458499000000,,,-1291005709936674816,0.0,135.1306273136288,-8.976939021522174,19.261985975788182,165,26,0.0,15,378968367519085,487,20.8,124.5376968383789,0.9169999957084656,0,0.0,0.0,,,,,0,,1,,
Raw,16454563,16458499000000,,,-1291005709936674816,0.0,135.1306273136288,-8.976939021522174,19.261985975788182,165,27,0.0,15,378968356816937,73,17.5,-712.9542846679688,1.8504999876022339,0,0.0,0.0,,,,,0,,1,,
Raw,16454563,16458499000000,,,-1291005709936674816,0.0,135.1306273136288,-8.976939021522174,19.261985975788182,165,31,0.0,15,378968363642616,73,17.6,84.83292388916016,1.8309999704360962,0,0.0,0.0,,,,,0,,1,,
Raw,16454563,16458499000000,,,-1291005709936674816,0.0,135.1306273136288,-8.976939021522174,19.261985975788182,165,32,0.0,15,378968363636913,121,15.5,461.4145812988281,4.261000156402588,0,0.0,0.0,,,,,0,,1,,
Raw,16454564,16458499000000,,,-1291005709936674816,0.0,135.1306273136288,-8.976939021522174,19.261985975788182,165,5,0.0,783,378954302464146,19,27.5,4.762579441070557,0.48350000381469727,0,0.0,0.0,,,,,0,,5,,
Raw,16454564,16458499000000,,,-1291005709936674816,0.0,135.1306273136288,-8.976939021522174,19.261985975788182,165,9,0.0,15,378954314934555,121,15.5,-142.7525634765625,4.1875,0,0.0,0.0,,,,,0,,5,,
Raw,16454564,16458499000000,,,-1291005709936674816,0.0,135.1306273136288,-8.976939021522174,19.261985975788182,165,14,0.0,15,378954351999201,1163,14.6,-335.69464111328125,9.447999954223633,0,0.0,0.0,,,,,0,,5,,
Raw,16454564,16458499000000,,,-1291005709936674816,0.0,135.1306273136288,-8.976939021522174,19.261985975788182,165,24,0.0,15,378954350137196,8,36.7,-269.2873840332031,0.03620000183582306,0,0.0,0.0,,,,,0,,5,,
Raw,16454564,16458499000000,,,-1291005709936674816,0.0,135.1306273136288,-8.976939021522174,19.261985975788182,165,25,0.0,7183,378968351123505,9,35.2,-152.7799530029297,0.05010000243782997,0,0.0,0.0,,,,,0,,6,,
NMEA,$GNGSA,A,2,25,,,,,,,,,,,,1.4,1.1,0.8,3*38,1606986950493
NMEA,$PQGSA,A,2,24,,,,,,,,,,,,1.4,1.1,0.8,4*36,1606986950493
NMEA,$GNVTG,289.6,T,289.6,M,4.2,N,7.8,K,A*34,1606986950493
NMEA,$GNRMC,091551.00,A,2255.536515,N,12017.651437,E,4.2,289.6,031220,2.8,W,A*3D,1606986950493
NMEA,$GNGGA,091551.00,2255.536515,N,12017.651437,E,1,09,1.1,51.7,M,17.5,M,,*44,1606986950497
Fix,gps,22.925611,120.294171,68.789490,1.580000,10.720000,1606986952000
NMEA,$GPGSV,3,1,09,03,19,289,32,04,09,320,25,16,51,251,20,22,23,265,37*73,1606986951499
NMEA,$GPGSV,3,2,09,27,18,187,18,31,47,032,19,32,44,139,16,26,67,326,*7D,1606986951499
NMEA,$GPGSV,3,3,09,29,22,050,*4E,1606986951500
NMEA,$GLGSV,3,1,11,75,00,000,30,71,64,233,18,74,37,313,,70,25,175,*6C,1606986951501
NMEA,$GLGSV,3,2,11,82,00,000,,73,32,016,,80,00,000,,65,00,000,*67,1606986951508
NMEA,$GLGSV,3,3,11,84,16,132,,83,18,073,,72,37,316,*5D,1606986951510
NMEA,$GAGSV,1,1,01,25,38,267,36*53,1606986951511
NMEA,$PQGSV,1,1,02,194,62,032,12,195,41,133,16,0,5*6C,1606986951512
NMEA,$PQGSV,4,1,16,02,40,240,24,05,16,257,27,09,61,337,16,14,21,307,15,0,4*60,1606986951512
NMEA,$PQGSV,4,2,16,24,16,279,36,01,52,129,,03,58,202,,04,37,115,,0,4*65,1606986951513
NMEA,$PQGSV,4,3,16,06,78,071,,07,75,282,,10,52,246,,16,80,053,,0,4*66,1606986951514
NMEA,$PQGSV,4,4,16,21,47,210,,22,11,165,,26,46,324,,29,23,067,,0,4*65,1606986951514
NMEA,$GNGSA,A,3,03,04,16,22,26,27,31,,,,,,1.9,1.6,0.8,1*35,1606986951520
NMEA,$GNGSA,A,2,25,,,,,,,,,,,,1.9,1.6,0.8,3*32,1606986951520
NMEA,$PQGSA,A,2,24,,,,,,,,,,,,1.9,1.6,0.8,4*3C,1606986951521
NMEA,$GNVTG,283.8,T,283.8,M,3.1,N,5.7,K,A*3D,1606986951522
NMEA,$GNRMC,091552.00,A,2255.536648,N,12017.650232,E,3.1,283.8,031220,2.8,W,A*37,1606986951524
NMEA,$GNGGA,091552.00,2255.536648,N,12017.650232,E,1,09,1.6,51.3,M,17.5,M,,*4D,1606986951525
Raw,16455603,16459499000000,,,-1291005709936674816,0.0,133.09603673405945,-8.46614577860974,19.51328293515327,165,11,0.0,3,1383941,16,29.5,-187.56451416015625,0.2282000035047531,0,0.0,0.0,,,,,0,,3,,
Raw,16455604,16459499000000,,,-1291005709936674816,0.0,133.09603673405945,-8.46614577860974,19.51328293515327,165,7,0.0,207,44151370313792,425,17.5,246.61512756347656,13.291500091552734,0,0.0,0.0,,,,,0,,3,,
Raw,16455604,16459499000000,,,-1291005709936674816,0.0,133.09603673405945,-8.46614577860974,19.51328293515327,165,3,0.0,15,378969356541639,12,32.1,-54.07285690307617,0.0479000024497509,0,0.0,0.0,,,,,0,,1,,
Raw,16455605,16459499000000,,,-1291005709936674816,0.0,133.09603673405945,-8.46614577860974,19.51328293515327,165,4,0.0,15,378969353019584,24,25.0,-658.2777099609375,0.40130001306533813,0,0.0,0.0,,,,,0,,1,,
Raw,16455605,16459499000000,,,-1291005709936674816,0.0,133.09603673405945,-8.46614577860974,19.51328293515327,165,16,0.0,15,378969365507203,46,20.0,-283.16650390625,0.9239999651908875,0,0.0,0.0,,,,,0,,1,,
Raw,16455606,16459499000000,,,-1291005709936674816,0.0,133.09603673405945,-8.46614577860974,19.51328293515327,165,22,0.0,15,378969356581979,8,36.6,124.76256561279297,0.04520000144839287,0,0.0,0.0,,,,,0,,1,,
Raw,16455606,16459499000000,,,-1291005709936674816,0.0,133.09603673405945,-8.46614577860974,19.51328293515327,165,27,0.0,15,378969356819316,61,18.4,-713.220703125,1.1004999876022339,0,0.0,0.0,,,,,0,,1,,
Raw,16455607,16459499000000,,,-1291005709936674816,0.0,133.09603673405945,-8.46614577860974,19.51328293515327,165,31,0.0,15,378969363642306,61,18.7,83.78630828857422,1.0010000467300415,0,0.0,0.0,,,,,0,,1,,
Raw,16455607,16459499000000,,,-1291005709936674816,0.0,133.09603673405945,-8.46614577860974,19.51328293515327,165,32,0.0,15,378969363635351,84,16.3,459.9683837890625,2.011000156402588,0,0.0,0.0,,,,,0,,1,,
Raw,16455608,16459499000000,,,-1291005709936674816,0.0,133.09603673405945,-8.46614577860974,19.51328293515327,165,2,0.0,783,378955310673788,76,23.8,0.30726319551467896,4.7885003089904785,0,0.0,0.0,,,,,0,,5,,
Raw,16455608,16459499000000,,,-1291005709936674816,0.0,133.09603673405945,-8.46614577860974,19.51328293515327,165,5,0.0,783,378955302464168,19,27.3,-3.3798952102661133,0.48350000381469727,0,0.0,0.0,,,,,0,,5,,
Raw,16455609,16459499000000,,,-1291005709936674816,0.0,133.09603673405945,-8.46614577860974,19.51328293515327,165,9,0.0,15,378955314935031,150,15.5,-142.7525634765625,5.6875,0,0.0,0.0,,,,,0,,5,,
Raw,16455609,16459499000000,,,-1291005709936674816,0.0,133.09603673405945,-8.46614577860974,19.51328293515327,165,14,0.0,15,378955352000337,309,14.7,-336.1555480957031,10.19800090789795,0,0.0,0.0,,,,,0,,5,,
Raw,16455610,16459499000000,,,-1291005709936674816,0.0,133.09603673405945,-8.46614577860974,19.51328293515327,165,24,0.0,15,378955350138090,8,36.4,-269.6622314453125,0.03620000183582306,0,0.0,0.0,,,,,0,,5,,
Raw,16455610,16459499000000,,,-1291005709936674816,0.0,133.09603673405945,-8.46614577860974,19.51328293515327,165,25,0.0,7183,378969351124016,9,35.8,-153.57101440429688,0.05010000243782997,0,0.0,0.0,,,,,0,,6,,
NMEA,$GPGSV,3,1,09,03,19,289,32,04,09,320,26,16,51,251,24,22,23,265,37*74,1606986952490
Raw,16456585,16460499000000,,,-1291005709936674816,0.0,119.64842997258529,-9.868693861301873,17.10759962952206,165,11,0.0,3,1384518,16,29.2,-186.34080505371094,0.2282000035047531,0,0.0,0.0,,,,,0,,3,,
Raw,16456585,16460499000000,,,-1291005709936674816,0.0,119.64842997258529,-9.868693861301873,17.10759962952206,165,7,0.0,207,44152370312970,515,17.5,246.61512756347656,14.79150104522705,0,0.0,0.0,,,,,0,,3,,
Raw,16456586,16460499000000,,,-1291005709936674816,0.0,119.64842997258529,-9.868693861301873,17.10759962952206,165,3,0.0,15,378970356541811,13,31.9,-52.842899322509766,0.04920000210404396,0,0.0,0.0,,,,,0,,1,,
Raw,16456586,16460499000000,,,-1291005709936674816,0.0,119.64842997258529,-9.868693861301873,17.10759962952206,165,4,0.0,15,378970353021822,24,25.5,-657.43212890625,0.40130001306533813,0,0.0,0.0,,,,,0,,1,,
Raw,16456586,16460499000000,,,-1291005709936674816,0.0,119.64842997258529,-9.868693861301873,17.10759962952206,165,16,0.0,15,378970365508294,31,23.7,-281.3967590332031,0.6739999651908875,0,0.0,0.0,,,,,0,,1,,
Raw,16456586,16460499000000,,,-1291005709936674816,0.0,119.64842997258529,-9.868693861301873,17.10759962952206,165,22,0.0,15,378970356581559,7,37.2,125.96855926513672,0.044600002467632294,0,0.0,0.0,,,,,0,,1,,
Raw,16456587,16460499000000,,,-1291005709936674816,0.0,119.64842997258529,-9.868693861301873,17.10759962952206,165,27,0.0,15,378970356821695,70,18.4,-713.220703125,2.6005001068115234,0,0.0,0.0,,,,,0,,1,,
Raw,16456587,16460499000000,,,-1291005709936674816,0.0,119.64842997258529,-9.868693861301873,17.10759962952206,165,31,0.0,15,378970363641824,53,19.3,86.48847198486328,1.0010000467300415,0,0.0,0.0,,,,,0,,1,,
Raw,16456587,16460499000000,,,-1291005709936674816,0.0,119.64842997258529,-9.868693861301873,17.10759962952206,165,32,0.0,15,378970363633817,98,16.3,459.9683837890625,3.511000156402588,0,0.0,0.0,,,,,0,,1,,
Raw,16456587,16460499000000,,,-1291005709936674816,0.0,119.64842997258529,-9.868693861301873,17.10759962952206,165,2,0.0,783,378956310673786,111,23.8,0.30726319551467896,6.2885003089904785,0,0.0,0.0,,,,,0,,5,,
Raw,16456587,16460499000000,,,-1291005709936674816,0.0,119.64842997258529,-9.868693861301873,17.10759962952206,165,5,0.0,783,378956302464179,26,27.3,-3.3798952102661133,1.9835001230239868,0,0.0,0.0,,,,,0,,5,,
Raw,16456588,16460499000000,,,-1291005709936674816,0.0,119.64842997258529,-9.868693861301873,17.10759962952206,165,9,0.0,15,378956314935559,101,15.8,-143.84718322753906,2.5975000858306885,0,0.0,0.0,,,,,0,,5,,
Raw,16456588,16460499000000,,,-1291005709936674816,0.0,119.64842997258529,-9.868693861301873,17.10759962952206,165,14,0.0,15,378956352001485,62,18.1,-335.2337341308594,1.249500036239624,0,0.0,0.0,,,,,0,,5,,
Raw,16456588,16460499000000,,,-1291005709936674816,0.0,119.64842997258529,-9.868693861301873,17.10759962952206,165,24,0.0,15,378956350138992,9,35.1,-268.5082092285156,0.03660000115633011,0,0.0,0.0,,,,,0,,5,,
Raw,16456588,16460499000000,,,-1291005709936674816,0.0,119.64842997258529,-9.868693861301873,17.10759962952206,165,25,0.0,7183,378970351124525,9,35.2,-152.68212890625,0.2549999952316284,0,0.0,0.0,,,,,0,,6,,
Fix,gps,22.925603,120.294185,66.354675,0.000000,9.648001,1606986953000
NMEA,$GPGSV,3,2,09,27,18,187,18,31,47,032,19,32,44,139,16,26,67,326,*7D,1606986952490
NMEA,$GPGSV,3,3,09,29,22,050,*4E,1606986952496
NMEA,$GLGSV,3,1,11,75,00,000,29,71,64,233,18,74,37,313,,70,25,175,*64,1606986952497
NMEA,$GLGSV,3,2,11,82,00,000,,73,32,016,,80,00,000,,65,00,000,*67,1606986952497
NMEA,$GLGSV,3,3,11,84,16,132,,83,18,073,,72,37,316,*5D,1606986952498
NMEA,$GAGSV,1,1,01,25,38,267,35*50,1606986952498
NMEA,$PQGSV,1,1,02,194,62,032,12,195,41,133,16,0,5*6C,1606986952498
NMEA,$PQGSV,4,1,16,02,40,240,24,05,16,257,27,09,61,337,16,14,21,307,18,0,4*6D,1606986952499
NMEA,$PQGSV,4,2,16,24,16,279,35,01,52,129,,03,58,202,,04,37,115,,0,4*66,1606986952499
NMEA,$PQGSV,4,3,16,06,78,071,,07,75,282,,10,52,246,,16,80,053,,0,4*66,1606986952499
NMEA,$PQGSV,4,4,16,21,47,210,,22,11,165,,26,46,324,,29,23,067,,0,4*65,1606986952500
NMEA,$GNGSA,A,3,03,04,16,22,26,27,,,,,,,1.9,1.6,0.8,1*37,1606986952504
NMEA,$GNGSA,A,2,25,,,,,,,,,,,,1.9,1.6,0.8,3*32,1606986952505
NMEA,$PQGSA,A,2,24,,,,,,,,,,,,1.9,1.6,0.8,4*3C,1606986952505
NMEA,$GNVTG,,T,,M,0.0,N,0.0,K,A*3D,1606986952505
NMEA,$GNRMC,091553.00,A,2255.536161,N,12017.651077,E,0.0,,031220,2.8,W,A*15,1606986952505
NMEA,$GNGGA,091553.00,2255.536161,N,12017.651077,E,1,08,1.6,48.9,M,17.5,M,,*41,1606986952506
Fix,gps,22.925598,120.294197,64.922119,0.000000,9.648001,1606986954000
NMEA,$GPGSV,3,1,09,03,19,289,32,04,09,320,25,16,51,251,24,22,23,265,37*77,1606986953498
NMEA,$GPGSV,3,2,09,27,18,187,18,31,47,032,20,32,44,139,16,26,67,326,*77,1606986953499
NMEA,$GPGSV,3,3,09,29,22,050,*4E,1606986953502
NMEA,$GLGSV,3,1,11,75,00,000,30,71,64,233,18,74,37,313,,70,25,175,*6C,1606986953506
NMEA,$GLGSV,3,2,11,82,00,000,,73,32,016,,80,00,000,,65,00,000,*67,1606986953506
NMEA,$GLGSV,3,3,11,84,16,132,,83,18,073,,72,37,316,*5D,1606986953506
NMEA,$GAGSV,1,1,01,25,38,267,36*53,1606986953506
NMEA,$PQGSV,1,1,02,194,62,032,12,195,41,133,16,0,5*6C,1606986953507
NMEA,$PQGSV,4,1,16,02,40,240,24,05,16,257,26,09,61,337,17,14,21,307,19,0,4*6C,1606986953508
NMEA,$PQGSV,4,2,16,24,16,279,36,01,52,129,,03,58,202,,04,37,115,,0,4*65,1606986953508
NMEA,$PQGSV,4,3,16,06,78,071,,07,75,282,,10,52,246,,16,80,053,,0,4*66,1606986953508
NMEA,$PQGSV,4,4,16,21,47,210,,22,11,165,,26,46,324,,29,23,067,,0,4*65,1606986953508
NMEA,$GNGSA,A,3,03,04,16,22,26,27,,,,,,,2.6,2.4,1.0,1*33,1606986953509
NMEA,$GNGSA,A,2,25,,,,,,,,,,,,2.6,2.4,1.0,3*36,1606986953509
NMEA,$PQGSA,A,2,24,,,,,,,,,,,,2.6,2.4,1.0,4*38,1606986953509
NMEA,$GNVTG,,T,,M,0.0,N,0.0,K,A*3D,1606986953509
NMEA,$GNRMC,091554.00,A,2255.535899,N,12017.651815,E,0.0,,031220,2.8,W,A*13,1606986953510
NMEA,$GNGGA,091554.00,2255.535899,N,12017.651815,E,1,08,2.4,47.5,M,17.5,M,,*45,1606986953510
Raw,16457585,16461499000000,,,-1291005709936674816,0.0,114.56150241428986,-8.508787036030123,17.410055282000254,165,11,0.0,3,1385138,14,30.0,-185.38401794433594,0.2273000031709671,0,0.0,0.0,,,,,0,,3,,
Raw,16457585,16461499000000,,,-1291005709936674816,0.0,114.56150241428986,-8.508787036030123,17.410055282000254,165,7,0.0,207,44153370312147,614,17.5,246.61512756347656,16.291500091552734,0,0.0,0.0,,,,,0,,3,,
Raw,16457586,16461499000000,,,-1291005709936674816,0.0,114.56150241428986,-8.508787036030123,17.410055282000254,165,3,0.0,15,378971356541972,12,32.0,-51.769432067871094,0.0479000024497509,0,0.0,0.0,,,,,0,,1,,
Raw,16457586,16461499000000,,,-1291005709936674816,0.0,114.56150241428986,-8.508787036030123,17.410055282000254,165,4,0.0,15,378971353024044,27,24.7,-656.5797729492188,0.6360000371932983,0,0.0,0.0,,,,,0,,1,,
Raw,16457587,16461499000000,,,-1291005709936674816,0.0,114.56150241428986,-8.508787036030123,17.410055282000254,165,16,0.0,15,378971365509225,27,24.4,-280.9305419921875,0.6739999651908875,0,0.0,0.0,,,,,0,,1,,
Raw,16457587,16461499000000,,,-1291005709936674816,0.0,114.56150241428986,-8.508787036030123,17.410055282000254,165,22,0.0,15,378971356581135,7,37.3,127.00804901123047,0.044600002467632294,0,0.0,0.0,,,,,0,,1,,
Raw,16457588,16461499000000,,,-1291005709936674816,0.0,114.56150241428986,-8.508787036030123,17.410055282000254,165,27,0.0,15,378971356824023,64,18.0,-711.6412353515625,1.8504999876022339,0,0.0,0.0,,,,,0,,1,,
Raw,16457588,16461499000000,,,-1291005709936674816,0.0,114.56150241428986,-8.508787036030123,17.410055282000254,165,31,0.0,15,378971363641723,53,19.8,87.3067398071289,0.9210000038146973,0,0.0,0.0,,,,,0,,1,,
Raw,16457589,16461499000000,,,-1291005709936674816,0.0,114.56150241428986,-8.508787036030123,17.410055282000254,165,32,0.0,15,378971363632283,122,16.3,459.9683837890625,5.011000156402588,0,0.0,0.0,,,,,0,,1,,
Raw,16457589,16461499000000,,,-1291005709936674816,0.0,114.56150241428986,-8.508787036030123,17.410055282000254,165,2,0.0,783,378957310673809,37,23.5,-7.566356182098389,1.9635001420974731,0,0.0,0.0,,,,,0,,5,,
Raw,16457590,16461499000000,,,-1291005709936674816,0.0,114.56150241428986,-8.508787036030123,17.410055282000254,165,5,0.0,783,378957302464158,24,26.2,1.5459179878234863,1.2735000848770142,0,0.0,0.0,,,,,0,,5,,
Raw,16457591,16461499000000,,,-1291005709936674816,0.0,114.56150241428986,-8.508787036030123,17.410055282000254,165,9,0.0,15,378957314936058,70,17.3,-143.16543579101562,1.0175000429153442,0,0.0,0.0,,,,,0,,5,,
Raw,16457592,16461499000000,,,-1291005709936674816,0.0,114.56150241428986,-8.508787036030123,17.410055282000254,165,14,0.0,15,378957352002657,53,19.2,-334.57122802734375,0.8644999861717224,0,0.0,0.0,,,,,0,,5,,
Raw,16457592,16461499000000,,,-1291005709936674816,0.0,114.56150241428986,-8.508787036030123,17.410055282000254,165,24,0.0,15,378957350139885,9,35.6,-267.55126953125,0.03660000115633011,0,0.0,0.0,,,,,0,,5,,
Raw,16457593,16461499000000,,,-1291005709936674816,0.0,114.56150241428986,-8.508787036030123,17.410055282000254,165,25,0.0,7183,378971351125032,8,36.0,-153.32217407226562,0.04970000311732292,0,0.0,0.0,,,,,0,,6,,
NMEA,$GPGSV,3,1,09,03,19,289,32,04,09,320,23,16,51,251,23,22,23,265,38*79,1606986954496
Raw,16458587,16462499000000,,,-1291005709936674816,0.0,115.20204861881211,-6.592899227784277,16.95488542725031,165,11,0.0,3,1385803,14,30.5,-185.58033752441406,0.2273000031709671,0,0.0,0.0,,,,,0,,3,,
Raw,16458588,16462499000000,,,-1291005709936674816,0.0,115.20204861881211,-6.592899227784277,16.95488542725031,165,7,0.0,207,44154370311324,724,17.5,246.61512756347656,17.791500091552734,0,0.0,0.0,,,,,0,,3,,
Raw,16458588,16462499000000,,,-1291005709936674816,0.0,115.20204861881211,-6.592899227784277,16.95488542725031,165,3,0.0,15,378972356542148,13,31.5,-51.918365478515625,0.04920000210404396,0,0.0,0.0,,,,,0,,1,,
Raw,16458589,16462499000000,,,-1291005709936674816,0.0,115.20204861881211,-6.592899227784277,16.95488542725031,165,4,0.0,15,378972353026165,31,23.2,-656.51318359375,0.7459999918937683,0,0.0,0.0,,,,,0,,1,,
Raw,16458589,16462499000000,,,-1291005709936674816,0.0,115.20204861881211,-6.592899227784277,16.95488542725031,165,16,0.0,15,378972365510119,31,23.4,-280.7402648925781,0.7339999675750732,0,0.0,0.0,,,,,0,,1,,
Raw,16458590,16462499000000,,,-1291005709936674816,0.0,115.20204861881211,-6.592899227784277,16.95488542725031,165,22,0.0,15,378972356580710,7,37.8,126.83914947509766,0.044600002467632294,0,0.0,0.0,,,,,0,,1,,
Raw,16458591,16462499000000,,,-1291005709936674816,0.0,115.20204861881211,-6.592899227784277,16.95488542725031,165,27,0.0,15,378972356826408,46,20.7,-711.0133056640625,0.8704999685287476,0,0.0,0.0,,,,,0,,1,,
Raw,16458591,16462499000000,,,-1291005709936674816,0.0,115.20204861881211,-6.592899227784277,16.95488542725031,165,31,0.0,15,378972363641432,61,19.8,87.3067398071289,2.4210000038146973,0,0.0,0.0,,,,,0,,1,,
