# 
# Header Description:
# 
# Version: v2.0.0.1 Platform: 8.0.0 Manufacturer: Sony Model: G8142
# 
# Raw,ElapsedRealtimeMillis,TimeNanos,LeapSecond,TimeUncertaintyNanos,FullBiasNanos,BiasNanos,BiasUncertaintyNanos,DriftNanosPerSecond,DriftUncertaintyNanosPerSecond,HardwareClockDiscontinuityCount,Svid,TimeOffsetNanos,State,ReceivedSvTimeNanos,ReceivedSvTimeUncertaintyNanos,Cn0DbHz,PseudorangeRateMetersPerSecond,PseudorangeRateUncertaintyMetersPerSecond,AccumulatedDeltaRangeState,AccumulatedDeltaRangeMeters,AccumulatedDeltaRangeUncertaintyMeters,CarrierFrequencyHz,CarrierCycles,CarrierPhase,CarrierPhaseUncertainty,MultipathIndicator,SnrInDb,ConstellationType,AgcDb,CarrierFrequencyHz
# 
# Fix,Provider,Latitude,Longitude,Altitude,Speed,Accuracy,(UTC)TimeInMs
# 
# Nav,Svid,Type,Status,MessageId,Sub-messageId,Data(Bytes)
# 
NMEA,$GPGSV,3,1,09,03,19,286,36,04,11,320,28,16,52,255,18,22,22,262,25*75,1606987342489
Raw,16846606,16850499000000,,,-1291005709936674304,0.0,74.70672426279634,5.466848103037555,18.07445343941374,165,11,0.0,207,44542361614211,13,31.5,-170.6182098388672,0.22670000791549683,0,0.0,0.0,,,,,0,,3,,
Raw,16846606,16850499000000,,,-1291005709936674304,0.0,74.70672426279634,5.466848103037555,18.07445343941374,165,7,0.0,207,44542369942616,55,20.1,316.1358642578125,2.559999942779541,0,0.0,0.0,,,,,0,,3,,
Raw,16846606,16850499000000,,,-1291005709936674304,0.0,74.70672426279634,5.466848103037555,18.07445343941374,165,8,0.0,207,44542365659274,1670,12.6,-402.4683837890625,9.244000434875488,0,0.0,0.0,,,,,0,,3,,
Raw,16846606,16850499000000,,,-1291005709936674304,0.0,74.70672426279634,5.466848103037555,18.07445343941374,165,3,0.0,15,379360356580481,8,36.4,-10.369447708129883,0.04520000144839287,0,0.0,0.0,,,,,0,,1,,
Raw,16846607,16850499000000,,,-1291005709936674304,0.0,74.70672426279634,5.466848103037555,18.07445343941374,165,4,0.0,15,379360353870663,19,27.5,-650.8489379882812,0.06080000102519989,0,0.0,0.0,,,,,0,,1,,
Raw,16846607,16850499000000,,,-1291005709936674304,0.0,74.70672426279634,5.466848103037555,18.07445343941374,165,16,0.0,15,379360365845615,126,17.9,-240.5502166748047,5.584000110626221,0,0.0,0.0,,,,,0,,1,,
Raw,16846607,16850499000000,,,-1291005709936674304,0.0,74.70672426279634,5.466848103037555,18.07445343941374,165,22,0.0,15,379360356395078,27,24.6,156.98275756835938,0.640500009059906,0,0.0,0.0,,,,,0,,1,,
Raw,16846607,16850499000000,,,-1291005709936674304,0.0,74.70672426279634,5.466848103037555,18.07445343941374,165,26,0.0,15,379360367329803,27,24.0,158.3719024658203,0.6769999861717224,0,0.0,0.0,,,,,0,,1,,
Raw,16846607,16850499000000,,,-1291005709936674304,0.0,74.70672426279634,5.466848103037555,18.07445343941374,165,27,0.0,15,379360357741685,126,17.9,-703.0780029296875,5.6020002365112305,0,0.0,0.0,,,,,0,,1,,
Raw,16846607,16850499000000,,,-1291005709936674304,0.0,74.70672426279634,5.466848103037555,18.07445343941374,165,31,0.0,15,379360363522553,322,15.1,95.30858612060547,10.856000900268555,0,0.0,0.0,,,,,0,,1,,
Raw,16846608,16850499000000,,,-1291005709936674304,0.0,74.70672426279634,5.466848103037555,18.07445343941374,165,32,0.0,15,379360363007116,54,20.2,499.064208984375,2.4210000038146973,0,0.0,0.0,,,,,0,,1,,
Raw,16846608,16850499000000,,,-1291005709936674304,0.0,74.70672426279634,5.466848103037555,18.07445343941374,165,2,0.0,783,379346310669792,54,20.6,14.60460376739502,2.313500165939331,0,0.0,0.0,,,,,0,,5,,
Raw,16846608,16850499000000,,,-1291005709936674304,0.0,74.70672426279634,5.466848103037555,18.07445343941374,165,5,0.0,783,379346302457051,16,29.3,0.2400493621826172,0.41350001096725464,0,0.0,0.0,,,,,0,,5,,
Raw,16846608,16850499000000,,,-1291005709936674304,0.0,74.70672426279634,5.466848103037555,18.07445343941374,165,6,0.0,15,379346316227113,69,18.1,-56.920501708984375,2.440500020980835,0,0.0,0.0,,,,,0,,5,,
Raw,16846608,16850499000000,,,-1291005709936674304,0.0,74.70672426279634,5.466848103037555,18.07445343941374,165,9,0.0,15,379346315115622,149,14.1,-134.43724060058594,5.029000282287598,0,0.0,0.0,,,,,0,,5,,
Raw,16846608,16850499000000,,,-1291005709936674304,0.0,74.70672426279634,5.466848103037555,18.07445343941374,165,10,0.0,15,379346311461933,70,17.3,-6.884616374969482,1.0130000114440918,0,0.0,0.0,,,,,0,,5,,
Raw,16846609,16850499000000,,,-1291005709936674304,0.0,74.70672426279634,5.466848103037555,18.07445343941374,165,14,0.0,15,379346352412132,53,19.9,-300.2057189941406,0.8044999837875366,0,0.0,0.0,,,,,0,,5,,
Raw,16846609,16850499000000,,,-1291005709936674304,0.0,74.70672426279634,5.466848103037555,18.07445343941374,165,16,0.0,15,379346315672863,61,18.1,-46.617584228515625,0.9389999508857727,0,0.0,0.0,,,,,0,,5,,
Raw,16846609,16850499000000,,,-1291005709936674304,0.0,74.70672426279634,5.466848103037555,18.07445343941374,165,24,0.0,15,379346350481506,10,34.5,-261.8323669433594,0.03710000216960907,0,0.0,0.0,,,,,0,,5,,
Raw,16846609,16850499000000,,,-1291005709936674304,0.0,74.70672426279634,5.466848103037555,18.07445343941374,165,26,0.0,15,379346360283345,70,17.9,-55.518619537353516,0.9164999723434448,0,0.0,0.0,,,,,0,,5,,
Raw,16846609,16850499000000,,,-1291005709936674304,0.0,74.70672426279634,5.466848103037555,18.07445343941374,165,3,0.0,7183,379360344458099,242,20.7,-479.62567138671875,9.750500679016113,0,0.0,0.0,,,,,0,,6,,
Raw,16846609,16850499000000,,,-1291005709936674304,0.0,74.70672426279634,5.466848103037555,18.07445343941374,165,24,0.0,7183,379360354581528,380,21.3,206.9253387451172,12.693500518798828,0,0.0,0.0,,,,,0,,6,,
Raw,16846610,16850499000000,,,-1291005709936674304,0.0,74.70672426279634,5.466848103037555,18.07445343941374,165,25,0.0,7183,379360351309045,14,30.0,-134.6422882080078,0.36500000953674316,0,0.0,0.0,,,,,0,,6,,
Fix,gps,22.925537,120.294281,66.752258,0.000000,10.720000,1606987343000
NMEA,$GPGSV,3,2,09,26,66,333,24,27,21,187,18,31,47,035,15,32,41,142,20*73,1606987342489
NMEA,$GPGSV,3,3,09,29,21,047,*4B,1606987342489
NMEA,$GLGSV,3,1,11,75,00,000,32,71,61,226,20,72,39,313,13,74,37,317,*6F,1606987342490
NMEA,$GLGSV,3,2,11,70,21,175,,82,00,000,,73,30,021,,80,00,000,*65,1606987342491
NMEA,$GLGSV,3,3,11,65,02,331,,84,18,129,,83,18,068,*56,1606987342491
NMEA,$GAGSV,1,1,03,03,15,319,21,24,55,357,21,25,39,271,30*5A,1606987342491
NMEA,$PQGSV,1,1,03,193,42,168,21,194,61,032,14,195,42,132,16,0,5*6B,1606987342491
NMEA,$PQGSV,4,1,16,02,40,240,21,05,16,257,29,06,79,078,18,09,63,336,14,0,4*62,1606987342494
NMEA,$PQGSV,4,2,16,10,52,248,17,14,22,306,20,16,80,059,18,24,16,282,35,0,4*63,1606987342495
NMEA,$PQGSV,4,3,16,26,47,329,18,01,52,129,,03,58,202,,04,37,115,,0,4*6A,1606987342496
NMEA,$PQGSV,4,4,16,07,74,288,,21,45,208,,22,09,165,,29,22,064,,0,4*60,1606987342496
NMEA,$GNGSA,A,3,03,04,16,22,26,27,31,32,,,,,1.7,1.4,0.9,1*39,1606987342497
NMEA,$GNGSA,A,2,25,,,,,,,,,,,,1.7,1.4,0.9,3*3F,1606987342497
NMEA,$PQGSA,A,2,14,24,,,,,,,,,,,1.7,1.4,0.9,4*34,1606987342497
NMEA,$GNVTG,,T,,M,0.0,N,0.0,K,A*3D,1606987342498
NMEA,$GNRMC,092223.00,A,2255.532230,N,12017.656841,E,0.0,,031220,2.8,W,A*1F,1606987342498
NMEA,$GNGGA,092223.00,2255.532230,N,12017.656841,E,1,11,1.4,49.3,M,17.5,M,,*4A,1606987342498
Fix,gps,22.925537,120.294278,67.727417,0.000000,10.720000,1606987344000
Raw,16847563,16851499000000,,,-1291005709936674304,0.0,76.49208419024944,1.590170649204231,18.372193088749277,165,11,0.0,207,44543361614797,13,31.3,-170.76016235351562,0.22670000791549683,0,0.0,0.0,,,,,0,,3,,
Raw,16847563,16851499000000,,,-1291005709936674304,0.0,76.49208419024944,1.590170649204231,18.372193088749277,165,7,0.0,207,44543369941561,73,20.1,316.1358642578125,4.059999942779541,0,0.0,0.0,,,,,0,,3,,
Raw,16847563,16851499000000,,,-1291005709936674304,0.0,76.49208419024944,1.590170649204231,18.372193088749277,165,8,0.0,207,44543365660616,1731,12.6,-402.4683837890625,10.744000434875488,0,0.0,0.0,,,,,0,,3,,
Raw,16847563,16851499000000,,,-1291005709936674304,0.0,76.49208419024944,1.590170649204231,18.372193088749277,165,3,0.0,15,379361356580520,8,36.6,-10.442334175109863,0.04520000144839287,0,0.0,0.0,,,,,0,,1,,
Raw,16847563,16851499000000,,,-1291005709936674304,0.0,76.49208419024944,1.590170649204231,18.372193088749277,165,4,0.0,15,379361353872832,19,27.5,-651.0120239257812,0.06080000102519989,0,0.0,0.0,,,,,0,,1,,
Raw,16847564,16851499000000,,,-1291005709936674304,0.0,76.49208419024944,1.590170649204231,18.372193088749277,165,16,0.0,15,379361365846459,124,14.6,-239.70343017578125,3.614000082015991,0,0.0,0.0,,,,,0,,1,,
Raw,16847564,16851499000000,,,-1291005709936674304,0.0,76.49208419024944,1.590170649204231,18.372193088749277,165,22,0.0,15,379361356394517,35,22.9,156.1454620361328,0.750499963760376,0,0.0,0.0,,,,,0,,1,,
Raw,16847564,16851499000000,,,-1291005709936674304,0.0,76.49208419024944,1.590170649204231,18.372193088749277,165,26,0.0,15,379361367329289,27,24.4,157.7439422607422,0.6769999861717224,0,0.0,0.0,,,,,0,,1,,
Raw,16847564,16851499000000,,,-1291005709936674304,0.0,76.49208419024944,1.590170649204231,18.372193088749277,165,27,0.0,15,379361357744030,165,17.9,-703.0780029296875,7.1020002365112305,0,0.0,0.0,,,,,0,,1,,
Raw,16847564,16851499000000,,,-1291005709936674304,0.0,76.49208419024944,1.590170649204231,18.372193088749277,165,31,0.0,15,379361363522235,395,15.1,95.30858612060547,12.356000900268555,0,0.0,0.0,,,,,0,,1,,
Raw,16847565,16851499000000,,,-1291005709936674304,0.0,76.49208419024944,1.590170649204231,18.372193088749277,165,32,0.0,15,379361363005514,84,16.7,498.44573974609375,1.9210000038146973,0,0.0,0.0,,,,,0,,1,,
Raw,16847565,16851499000000,,,-1291005709936674304,0.0,76.49208419024944,1.590170649204231,18.372193088749277,165,2,0.0,783,379347310669743,72,20.6,14.60460376739502,3.813500165939331,0,0.0,0.0,,,,,0,,5,,
Raw,16847565,16851499000000,,,-1291005709936674304,0.0,76.49208419024944,1.590170649204231,18.372193088749277,165,5,0.0,783,379347302457033,16,29.7,6.740586757659912,0.41350001096725464,0,0.0,0.0,,,,,0,,5,,
Raw,16847565,16851499000000,,,-1291005709936674304,0.0,76.49208419024944,1.590170649204231,18.372193088749277,165,6,0.0,15,379347316227338,73,17.6,-58.86970901489258,1.7705000638961792,0,0.0,0.0,,,,,0,,5,,
Raw,16847565,16851499000000,,,-1291005709936674304,0.0,76.49208419024944,1.590170649204231,18.372193088749277,165,9,0.0,15,379347315116126,84,16.3,-137.11619567871094,1.8489999771118164,0,0.0,0.0,,,,,0,,5,,
Raw,16847565,16851499000000,,,-1291005709936674304,0.0,76.49208419024944,1.590170649204231,18.372193088749277,165,10,0.0,15,379347311461979,70,17.4,-4.791385650634766,1.0130000114440918,0,0.0,0.0,,,,,0,,5,,
Raw,16847566,16851499000000,,,-1291005709936674304,0.0,76.49208419024944,1.590170649204231,18.372193088749277,165,14,0.0,15,379347352413157,70,17.3,-299.5047912597656,1.0145000219345093,0,0.0,0.0,,,,,0,,5,,
Raw,16847566,16851499000000,,,-1291005709936674304,0.0,76.49208419024944,1.590170649204231,18.372193088749277,165,16,0.0,15,379347315672966,61,18.2,-46.33913040161133,0.9389999508857727,0,0.0,0.0,,,,,0,,5,,
Raw,16847566,16851499000000,,,-1291005709936674304,0.0,76.49208419024944,1.590170649204231,18.372193088749277,165,24,0.0,15,379347350482387,10,34.4,-262.0111083984375,0.03710000216960907,0,0.0,0.0,,,,,0,,5,,
Raw,16847566,16851499000000,,,-1291005709936674304,0.0,76.49208419024944,1.590170649204231,18.372193088749277,165,26,0.0,15,379347360283521,61,18.7,-55.77787399291992,0.9164999723434448,0,0.0,0.0,,,,,0,,5,,
Raw,16847566,16851499000000,,,-1291005709936674304,0.0,76.49208419024944,1.590170649204231,18.372193088749277,165,3,0.0,7183,379361344459699,310,20.7,-479.62567138671875,11.250500679016113,0,0.0,0.0,,,,,0,,6,,
Raw,16847566,16851499000000,,,-1291005709936674304,0.0,76.49208419024944,1.590170649204231,18.372193088749277,165,24,0.0,7183,379361354580838,467,21.3,206.9253387451172,14.193500518798828,0,0.0,0.0,,,,,0,,6,,
Raw,16847567,16851499000000,,,-1291005709936674304,0.0,76.49208419024944,1.590170649204231,18.372193088749277,165,25,0.0,7183,379361351309499,14,30.0,-134.3042449951172,0.05430000275373459,0,0.0,0.0,,,,,0,,6,,
NMEA,$GPGSV,3,1,09,03,19,286,37,04,11,320,28,16,52,255,15,22,22,262,23*7F,1606987343489
NMEA,$GPGSV,3,2,09,26,66,333,24,27,21,187,18,31,47,035,15,32,41,142,17*77,1606987343489
NMEA,$GPGSV,3,3,09,29,21,047,*4B,1606987343489
NMEA,$GLGSV,3,1,11,75,00,000,31,71,61,226,20,72,39,313,13,74,37,317,*6C,1606987343489
NMEA,$GLGSV,3,2,11,70,21,175,,82,00,000,,73,30,021,,80,00,000,*65,1606987343489
NMEA,$GLGSV,3,3,11,65,02,331,,84,18,129,,83,18,068,*56,1606987343491
NMEA,$GAGSV,1,1,03,03,15,319,21,24,55,357,21,25,39,271,30*5A,1606987343492
NMEA,$PQGSV,1,1,03,193,42,168,21,194,61,032,14,195,42,132,16,0,5*6B,1606987343493
NMEA,$PQGSV,4,1,16,02,40,240,21,05,16,257,30,06,79,078,18,09,63,336,16,0,4*68,1606987343493
NMEA,$PQGSV,4,2,16,10,52,248,17,14,22,306,17,16,80,059,18,24,16,282,34,0,4*66,1606987343493
NMEA,$PQGSV,4,3,16,26,47,329,19,01,52,129,,03,58,202,,04,37,115,,0,4*6B,1606987343493
NMEA,$PQGSV,4,4,16,07,74,288,,21,45,208,,22,09,165,,29,22,064,,0,4*60,1606987343494
NMEA,$GNGSA,A,3,03,04,16,22,26,32,,,,,,,1.7,1.4,0.9,1*3E,1606987343494
NMEA,$GNGSA,A,2,25,,,,,,,,,,,,1.7,1.4,0.9,3*3F,1606987343494
NMEA,$PQGSA,A,2,14,24,,,,,,,,,,,1.7,1.4,0.9,4*34,1606987343495
NMEA,$GNVTG,,T,,M,0.0,N,0.0,K,A*3D,1606987343495
NMEA,$GNRMC,092224.00,A,2255.532192,N,12017.656663,E,0.0,,031220,2.8,W,A*1D,1606987343495
NMEA,$GNGGA,092224.00,2255.532192,N,12017.656663,E,1,09,1.4,50.3,M,17.5,M,,*49,1606987343495
Fix,gps,22.925535,120.294286,68.559265,0.000000,10.720000,1606987345000
Raw,16848577,16852499000000,,,-1291005709936674304,0.0,80.83833381533623,2.5891002391552576,19.07134492868115,165,11,0.0,207,44544361615367,13,31.6,-171.7698211669922,0.22670000791549683,0,0.0,0.0,,,,,0,,3,,
Raw,16848578,16852499000000,,,-1291005709936674304,0.0,80.83833381533623,2.5891002391552576,19.07134492868115,165,7,0.0,207,44544369940488,117,14.9,315.6781921386719,3.070000171661377,0,0.0,0.0,,,,,0,,3,,
Raw,16848578,16852499000000,,,-1291005709936674304,0.0,80.83833381533623,2.5891002391552576,19.07134492868115,165,8,0.0,207,44544365661970,1699,12.5,-402.6551208496094,9.994000434875488,0,0.0,0.0,,,,,0,,3,,
Raw,16848579,16852499000000,,,-1291005709936674304,0.0,80.83833381533623,2.5891002391552576,19.07134492868115,165,3,0.0,15,379362356580547,8,36.8,-11.390719413757324,0.04520000144839287,0,0.0,0.0,,,,,0,,1,,
Raw,16848579,16852499000000,,,-1291005709936674304,0.0,80.83833381533623,2.5891002391552576,19.07134492868115,165,4,0.0,15,379362353875017,19,27.6,-652.06494140625,0.06080000102519989,0,0.0,0.0,,,,,0,,1,,
Raw,16848580,16852499000000,,,-1291005709936674304,0.0,80.83833381533623,2.5891002391552576,19.07134492868115,165,16,0.0,15,379362365847259,149,14.6,-239.70343017578125,5.11400032043457,0,0.0,0.0,,,,,0,,1,,
Raw,16848580,16852499000000,,,-1291005709936674304,0.0,80.83833381533623,2.5891002391552576,19.07134492868115,165,22,0.0,15,379362356394029,27,24.6,155.46041870117188,0.640500009059906,0,0.0,0.0,,,,,0,,1,,
Raw,16848581,16852499000000,,,-1291005709936674304,0.0,80.83833381533623,2.5891002391552576,19.07134492868115,165,26,0.0,15,379362367328775,24,25.2,157.28350830078125,0.392300009727478,0,0.0,0.0,,,,,0,,1,,
Raw,16848581,16852499000000,,,-1291005709936674304,0.0,80.83833381533623,2.5891002391552576,19.07134492868115,165,27,0.0,15,379362357746375,214,17.9,-703.0780029296875,8.60200023651123,0,0.0,0.0,,,,,0,,1,,
Raw,16848582,16852499000000,,,-1291005709936674304,0.0,80.83833381533623,2.5891002391552576,19.07134492868115,165,31,0.0,15,379362363521917,478,15.1,95.30858612060547,13.856000900268555,0,0.0,0.0,,,,,0,,1,,
Raw,16848582,16852499000000,,,-1291005709936674304,0.0,80.83833381533623,2.5891002391552576,19.07134492868115,165,32,0.0,15,379362363003851,98,16.7,498.44573974609375,3.4210000038146973,0,0.0,0.0,,,,,0,,1,,
Raw,16848583,16852499000000,,,-1291005709936674304,0.0,80.83833381533623,2.5891002391552576,19.07134492868115,165,2,0.0,783,379348310669694,100,20.6,14.60460376739502,5.31350040435791,0,0.0,0.0,,,,,0,,5,,
Raw,16848583,16852499000000,,,-1291005709936674304,0.0,80.83833381533623,2.5891002391552576,19.07134492868115,165,5,0.0,783,379348302457026,16,29.9,2.333279848098755,0.3935000002384186,0,0.0,0.0,,,,,0,,5,,
Raw,16848583,16852499000000,,,-1291005709936674304,0.0,80.83833381533623,2.5891002391552576,19.07134492868115,165,6,0.0,15,379348316227512,53,19.0,-60.30039978027344,0.8704999685287476,0,0.0,0.0,,,,,0,,5,,
Raw,16848584,16852499000000,,,-1291005709936674304,0.0,80.83833381533623,2.5891002391552576,19.07134492868115,165,9,0.0,15,379348315116584,97,16.3,-137.11619567871094,3.3489999771118164,0,0.0,0.0,,,,,0,,5,,
Raw,16848585,16852499000000,,,-1291005709936674304,0.0,80.83833381533623,2.5891002391552576,19.07134492868115,165,10,0.0,15,379348311461982,80,16.8,-7.431928634643555,1.0130000114440918,0,0.0,0.0,,,,,0,,5,,
Raw,16848585,16852499000000,,,-1291005709936674304,0.0,80.83833381533623,2.5891002391552576,19.07134492868115,165,14,0.0,15,379348352414178,70,17.9,-300.5514221191406,0.934499979019165,0,0.0,0.0,,,,,0,,5,,
Raw,16848585,16852499000000,,,-1291005709936674304,0.0,80.83833381533623,2.5891002391552576,19.07134492868115,165,16,0.0,15,379348315673215,46,20.1,-49.28693389892578,0.8089999556541443,0,0.0,0.0,,,,,0,,5,,
Raw,16848586,16852499000000,,,-1291005709936674304,0.0,80.83833381533623,2.5891002391552576,19.07134492868115,165,24,0.0,15,379348350483266,10,34.3,-263.04071044921875,0.03710000216960907,0,0.0,0.0,,,,,0,,5,,
Raw,16848586,16852499000000,,,-1291005709936674304,0.0,80.83833381533623,2.5891002391552576,19.07134492868115,165,26,0.0,15,379348360283725,61,18.8,-57.669464111328125,0.8464999794960022,0,0.0,0.0,,,,,0,,5,,
Raw,16848587,16852499000000,,,-1291005709936674304,0.0,80.83833381533623,2.5891002391552576,19.07134492868115,165,3,0.0,7183,379362344461299,387,20.7,-479.62567138671875,12.750500679016113,0,0.0,0.0,,,,,0,,6,,
Raw,16848587,16852499000000,,,-1291005709936674304,0.0,80.83833381533623,2.5891002391552576,19.07134492868115,165,24,0.0,7183,379362354580148,565,21.3,206.9253387451172,15.693500518798828,0,0.0,0.0,,,,,0,,6,,
Raw,16848587,16852499000000,,,-1291005709936674304,0.0,80.83833381533623,2.5891002391552576,19.07134492868115,165,25,0.0,7183,379362351309961,16,29.5,-135.8411407470703,0.39500001072883606,0,0.0,0.0,,,,,0,,6,,
NMEA,$GPGSV,3,1,09,03,19,286,37,04,11,320,28,16,52,255,15,22,22,262,25*79,1606987344488
NMEA,$GPGSV,3,2,09,26,66,333,25,27,21,187,18,31,47,035,15,32,41,142,17*76,1606987344489
NMEA,$GPGSV,3,3,09,29,21,047,*4B,1606987344489
NMEA,$GLGSV,3,1,11,75,00,000,32,71,61,226,15,72,39,313,13,74,37,317,*69,1606987344489
NMEA,$GLGSV,3,2,11,70,21,175,,82,00,000,,73,30,021,,80,00,000,*65,1606987344489
NMEA,$GLGSV,3,3,11,65,02,331,,84,18,129,,83,18,068,*56,1606987344490
NMEA,$GAGSV,1,1,03,03,15,319,21,24,55,357,21,25,39,271,30*5A,1606987344491
NMEA,$PQGSV,1,1,03,193,42,168,19,194,61,032,14,195,42,132,16,0,5*60,1606987344491
NMEA,$PQGSV,4,1,16,02,40,240,21,05,16,257,30,06,79,078,19,09,63,336,16,0,4*69,1606987344492
NMEA,$PQGSV,4,2,16,10,52,248,17,14,22,306,18,16,80,059,20,24,16,282,34,0,4*62,1606987344493
NMEA,$PQGSV,4,3,16,26,47,329,19,01,52,129,,03,58,202,,04,37,115,,0,4*6B,1606987344494
NMEA,$PQGSV,4,4,16,07,74,288,,21,45,208,,22,09,165,,29,22,064,,0,4*60,1606987344494
NMEA,$GNGSA,A,3,03,04,16,22,26,32,,,,,,,1.7,1.5,0.9,1*3F,1606987344496
NMEA,$GNGSA,A,2,25,,,,,,,,,,,,1.7,1.5,0.9,3*3E,1606987344496
NMEA,$PQGSA,A,2,14,24,,,,,,,,,,,1.7,1.5,0.9,4*35,1606987344496
NMEA,$GNVTG,,T,,M,0.0,N,0.0,K,A*3D,1606987344496
NMEA,$GNRMC,092225.00,A,2255.532121,N,12017.657172,E,0.0,,031220,2.8,W,A*12,1606987344497
NMEA,$GNGGA,092225.00,2255.532121,N,12017.657172,E,1,09,1.5,51.1,M,17.5,M,,*44,1606987344498
Fix,gps,22.925534,120.294294,69.336609,0.000000,11.792000,1606987346000
NMEA,$GPGSV,3,1,09,03,19,286,36,04,11,320,27,16,52,255,15,22,22,262,25*77,1606987345489
NMEA,$GPGSV,3,2,09,26,66,333,26,27,21,187,18,31,47,035,15,32,41,142,18*7A,1606987345489
NMEA,$GPGSV,3,3,09,29,21,047,*4B,1606987345490
NMEA,$GLGSV,3,1,11,75,00,000,32,71,61,226,18,72,39,313,11,74,37,317,*66,1606987345490
Raw,16849653,16853499000000,,,-1291005709936674304,0.0,83.73462333111092,-1.3173133839877829,18.75207549231729,165,11,0.0,207,44545361615929,13,31.8,-171.05203247070312,0.22670000791549683,0,0.0,0.0,,,,,0,,3,,
Raw,16849653,16853499000000,,,-1291005709936674304,0.0,83.73462333111092,-1.3173133839877829,18.75207549231729,165,7,0.0,207,44545369939426,70,17.9,315.27655029296875,1.2899999618530273,0,0.0,0.0,,,,,0,,3,,
Raw,16849653,16853499000000,,,-1291005709936674304,0.0,83.73462333111092,-1.3173133839877829,18.75207549231729,165,8,0.0,207,44545365663289,417,10.9,-402.3750305175781,11.388999938964844,0,0.0,0.0,,,,,0,,3,,
Raw,16849654,16853499000000,,,-1291005709936674304,0.0,83.73462333111092,-1.3173133839877829,18.75207549231729,165,3,0.0,15,379363356580582,8,36.1,-10.636493682861328,0.04520000144839287,0,0.0,0.0,,,,,0,,1,,
Raw,16849654,16853499000000,,,-1291005709936674304,0.0,83.73462333111092,-1.3173133839877829,18.75207549231729,165,4,0.0,15,379363353877191,19,27.4,-651.3817138671875,0.06080000102519989,0,0.0,0.0,,,,,0,,1,,
Raw,16849654,16853499000000,,,-1291005709936674304,0.0,83.73462333111092,-1.3173133839877829,18.75207549231729,165,16,0.0,15,379363365848059,184,14.6,-239.70343017578125,6.61400032043457,0,0.0,0.0,,,,,0,,1,,
Raw,16849654,16853499000000,,,-1291005709936674304,0.0,83.73462333111092,-1.3173133839877829,18.75207549231729,165,22,0.0,15,379363356393497,27,24.9,156.107421875,0.640500009059906,0,0.0,0.0,,,,,0,,1,,
Raw,16849655,16853499000000,,,-1291005709936674304,0.0,83.73462333111092,-1.3173133839877829,18.75207549231729,165,26,0.0,15,379363367328230,24,25.7,158.03533935546875,0.392300009727478,0,0.0,0.0,,,,,0,,1,,
Raw,16849655,16853499000000,,,-1291005709936674304,0.0,83.73462333111092,-1.3173133839877829,18.75207549231729,165,27,0.0,15,379363357748721,273,17.9,-703.0780029296875,10.10200023651123,0,0.0,0.0,,,,,0,,1,,
Raw,16849655,16853499000000,,,-1291005709936674304,0.0,83.73462333111092,-1.3173133839877829,18.75207549231729,165,31,0.0,15,379363363521589,109,15.0,93.23438262939453,3.4610002040863037,0,0.0,0.0,,,,,0,,1,,
Raw,16849655,16853499000000,,,-1291005709936674304,0.0,83.73462333111092,-1.3173133839877829,18.75207549231729,165,32,0.0,15,379363363002232,73,17.5,496.7616271972656,1.8309999704360962,0,0.0,0.0,,,,,0,,1,,
Raw,16849656,16853499000000,,,-1291005709936674304,0.0,83.73462333111092,-1.3173133839877829,18.75207549231729,165,2,0.0,783,379349310669789,48,21.7,3.0918359756469727,2.253499984741211,0,0.0,0.0,,,,,0,,5,,
Raw,16849656,16853499000000,,,-1291005709936674304,0.0,83.73462333111092,-1.3173133839877829,18.75207549231729,165,5,0.0,783,379349302457011,16,29.7,0.7201480865478516,0.41350001096725464,0,0.0,0.0,,,,,0,,5,,
Raw,16849657,16853499000000,,,-1291005709936674304,0.0,83.73462333111092,-1.3173133839877829,18.75207549231729,165,6,0.0,15,379349316227676,53,19.6,-59.50343704223633,0.8704999685287476,0,0.0,0.0,,,,,0,,5,,
Raw,16849657,16853499000000,,,-1291005709936674304,0.0,83.73462333111092,-1.3173133839877829,18.75207549231729,165,9,0.0,15,379349315117041,121,16.3,-137.11619567871094,4.848999977111816,0,0.0,0.0,,,,,0,,5,,
Raw,16849657,16853499000000,,,-1291005709936674304,0.0,83.73462333111092,-1.3173133839877829,18.75207549231729,165,10,0.0,15,379349311462030,61,18.8,-7.287899017333984,0.8629999756813049,0,0.0,0.0,,,,,0,,5,,
Raw,16849657,16853499000000,,,-1291005709936674304,0.0,83.73462333111092,-1.3173133839877829,18.75207549231729,165,14,0.0,15,379349352415148,46,20.4,-300.09051513671875,0.8044999837875366,0,0.0,0.0,,,,,0,,5,,
Raw,16849657,16853499000000,,,-1291005709936674304,0.0,83.73462333111092,-1.3173133839877829,18.75207549231729,165,16,0.0,15,379349315673438,53,19.1,-47.568180084228516,0.8689999580383301,0,0.0,0.0,,,,,0,,5,,
Raw,16849658,16853499000000,,,-1291005709936674304,0.0,83.73462333111092,-1.3173133839877829,18.75207549231729,165,24,0.0,15,379349350484143,10,34.3,-262.3621520996094,0.03710000216960907,0,0.0,0.0,,,,,0,,5,,
Raw,16849658,16853499000000,,,-1291005709936674304,0.0,83.73462333111092,-1.3173133839877829,18.75207549231729,165,26,0.0,15,379349360283880,53,19.9,-57.899906158447266,0.7864999771118164,0,0.0,0.0,,,,,0,,5,,
Raw,16849658,16853499000000,,,-1291005709936674304,0.0,83.73462333111092,-1.3173133839877829,18.75207549231729,165,3,0.0,7183,379363344462898,475,20.7,-479.62567138671875,14.250500679016113,0,0.0,0.0,,,,,0,,6,,
Raw,16849658,16853499000000,,,-1291005709936674304,0.0,83.73462333111092,-1.3173133839877829,18.75207549231729,165,24,0.0,7183,379363354579458,672,21.3,206.9253387451172,17.193500518798828,0,0.0,0.0,,,,,0,,6,,
Raw,16849659,16853499000000,,,-1291005709936674304,0.0,83.73462333111092,-1.3173133839877829,18.75207549231729,165,25,0.0,7183,379363351310420,16,29.9,-136.3426055908203,0.0552000030875206,0,0.0,0.0,,,,,0,,6,,
NMEA,$GLGSV,3,2,11,70,21,175,,82,00,000,,73,30,021,,80,00,000,*65,1606987345490
NMEA,$GLGSV,3,3,11,65,02,331,,84,18,129,,83,18,068,*56,1606987345490
NMEA,$GAGSV,1,1,03,03,15,319,21,24,55,357,21,25,39,271,30*5A,1606987345490
NMEA,$PQGSV,1,1,03,193,42,168,21,194,61,032,14,195,42,132,15,0,5*68,1606987345490
NMEA,$PQGSV,4,1,16,02,40,240,22,05,16,257,30,06,79,078,20,09,63,336,16,0,4*60,1606987345490
NMEA,$PQGSV,4,2,16,10,52,248,19,14,22,306,20,16,80,059,19,24,16,282,34,0,4*6D,1606987345491
NMEA,$PQGSV,4,3,16,26,47,329,20,01,52,129,,03,58,202,,04,37,115,,0,4*61,1606987345491
NMEA,$PQGSV,4,4,16,07,74,288,,21,45,208,,22,09,165,,29,22,064,,0,4*60,1606987345491
NMEA,$GNGSA,A,3,03,04,22,26,32,,,,,,,,1.7,1.5,0.9,1*38,1606987345491
NMEA,$GNGSA,A,2,25,,,,,,,,,,,,1.7,1.5,0.9,3*3E,1606987345492
NMEA,$PQGSA,A,2,14,24,,,,,,,,,,,1.7,1.5,0.9,4*35,1606987345492
NMEA,$GNVTG,,T,,M,0.0,N,0.0,K,A*3D,1606987345492
NMEA,$GNRMC,092226.00,A,2255.532051,N,12017.657661,E,0.0,,031220,2.8,W,A*12,1606987345492
NMEA,$GNGGA,092226.00,2255.532051,N,12017.657661,E,1,08,1.5,51.9,M,17.5,M,,*4D,1606987345493
NMEA,$GPGSV,3,1,09,03,19,286,35,04,11,320,27,16,52,255,15,22,22,262,25*74,1606987346501
Raw,16850603,16854499000000,,,-1291005709936674304,0.0,85.49480844521895,-3.864222990559201,18.668186305892362,165,11,0.0,207,44546361616525,13,31.2,-170.10992431640625,0.22670000791549683,0,0.0,0.0,,,,,0,,3,,
Raw,16850603,16854499000000,,,-1291005709936674304,0.0,85.49480844521895,-3.864222990559201,18.668186305892362,165,7,0.0,207,44546369938374,79,17.9,315.27655029296875,2.7899999618530273,0,0.0,0.0,,,,,0,,3,,
Raw,16850604,16854499000000,,,-1291005709936674304,0.0,85.49480844521895,-3.864222990559201,18.668186305892362,165,8,0.0,207,44546365664631,492,10.9,-402.3750305175781,12.88900089263916,0,0.0,0.0,,,,,0,,3,,
Raw,16850604,16854499000000,,,-1291005709936674304,0.0,85.49480844521895,-3.864222990559201,18.668186305892362,165,3,0.0,15,379364356580620,9,35.4,-9.594793319702148,0.04560000076889992,0,0.0,0.0,,,,,0,,1,,
Raw,16850605,16854499000000,,,-1291005709936674304,0.0,85.49480844521895,-3.864222990559201,18.668186305892362,165,4,0.0,15,379364353879307,19,27.2,-650.412353515625,0.06080000102519989,0,0.0,0.0,,,,,0,,1,,
Raw,16850605,16854499000000,,,-1291005709936674304,0.0,85.49480844521895,-3.864222990559201,18.668186305892362,165,16,0.0,15,379364365848739,116,14.8,-241.26382446289062,2.864000082015991,0,0.0,0.0,,,,,0,,1,,
Raw,16850605,16854499000000,,,-1291005709936674304,0.0,85.49480844521895,-3.864222990559201,18.668186305892362,165,22,0.0,15,379364356392962,27,24.8,157.6392822265625,0.640500009059906,0,0.0,0.0,,,,,0,,1,,
Raw,16850606,16854499000000,,,-1291005709936674304,0.0,85.49480844521895,-3.864222990559201,18.668186305892362,165,26,0.0,15,379364367327711,27,24.6,159.41851806640625,0.6270000338554382,0,0.0,0.0,,,,,0,,1,,
Raw,16850606,16854499000000,,,-1291005709936674304,0.0,85.49480844521895,-3.864222990559201,18.668186305892362,165,27,0.0,15,379364357751066,342,17.9,-703.0780029296875,11.60200023651123,0,0.0,0.0,,,,,0,,1,,
Raw,16850606,16854499000000,,,-1291005709936674304,0.0,85.49480844521895,-3.864222990559201,18.668186305892362,165,31,0.0,15,379364363521278,132,15.0,93.23438262939453,4.961000442504883,0,0.0,0.0,,,,,0,,1,,
Raw,16850607,16854499000000,,,-1291005709936674304,0.0,85.49480844521895,-3.864222990559201,18.668186305892362,165,32,0.0,15,379364363000575,87,17.5,496.7616271972656,3.3310000896453857,0,0.0,0.0,,,,,0,,1,,
Raw,16850607,16854499000000,,,-1291005709936674304,0.0,85.49480844521895,-3.864222990559201,18.668186305892362,165,2,0.0,783,379350310669779,65,21.7,3.0918359756469727,3.75350022315979,0,0.0,0.0,,,,,0,,5,,
Raw,16850608,16854499000000,,,-1291005709936674304,0.0,85.49480844521895,-3.864222990559201,18.668186305892362,165,5,0.0,783,379350302456972,14,30.1,4.925812721252441,0.3935000002384186,0,0.0,0.0,,,,,0,,5,,
Raw,16850608,16854499000000,,,-1291005709936674304,0.0,85.49480844521895,-3.864222990559201,18.668186305892362,165,6,0.0,15,379350316227837,46,20.0,-57.9287109375,0.8104999661445618,0,0.0,0.0,,,,,0,,5,,
Raw,16850609,16854499000000,,,-1291005709936674304,0.0,85.49480844521895,-3.864222990559201,18.668186305892362,165,9,0.0,15,379350315117432,102,15.3,-137.3850555419922,2.689000129699707,0,0.0,0.0,,,,,0,,5,,
Raw,16850609,16854499000000,,,-1291005709936674304,0.0,85.49480844521895,-3.864222990559201,18.668186305892362,165,10,0.0,15,379350311462057,61,18.6,-5.962826251983643,0.9329999685287476,0,0.0,0.0,,,,,0,,5,,
Raw,16850610,16854499000000,,,-1291005709936674304,0.0,85.49480844521895,-3.864222990559201,18.668186305892362,165,14,0.0,15,379350352416060,61,18.7,-298.5830078125,0.934499979019165,0,0.0,0.0,,,,,0,,5,,
Raw,16850610,16854499000000,,,-1291005709936674304,0.0,85.49480844521895,-3.864222990559201,18.668186305892362,165,16,0.0,15,379350315673504,53,19.2,-46.934452056884766,0.8689999580383301,0,0.0,0.0,,,,,0,,5,,
Raw,16850611,16854499000000,,,-1291005709936674304,0.0,85.49480844521895,-3.864222990559201,18.668186305892362,165,24,0.0,15,379350350485014,10,34.1,-261.4216003417969,0.03710000216960907,0,0.0,0.0,,,,,0,,5,,
Raw,16850611,16854499000000,,,-1291005709936674304,0.0,85.49480844521895,-3.864222990559201,18.668186305892362,165,26,0.0,15,379350360284042,61,18.3,-55.9026985168457,0.9164999723434448,0,0.0,0.0,,,,,0,,5,,
Raw,16850611,16854499000000,,,-1291005709936674304,0.0,85.49480844521895,-3.864222990559201,18.668186305892362,165,3,0.0,7183,379364344464498,573,20.7,-479.62567138671875,15.750500679016113,0,0.0,0.0,,,,,0,,6,,
Raw,16850612,16854499000000,,,-1291005709936674304,0.0,85.49480844521895,-3.864222990559201,18.668186305892362,165,24,0.0,7183,379364354578767,790,21.3,206.9253387451172,18.693500518798828,0,0.0,0.0,,,,,0,,6,,
Raw,16850612,16854499000000,,,-1291005709936674304,0.0,85.49480844521895,-3.864222990559201,18.668186305892362,165,25,0.0,7183,379364351310861,17,28.8,-134.58242797851562,0.06180000305175781,0,0.0,0.0,,,,,0,,6,,
Fix,gps,22.925534,120.294296,69.770996,0.000000,11.792000,1606987347000
NMEA,$GPGSV,3,2,09,26,66,333,25,27,21,187,18,31,47,035,15,32,41,142,18*79,1606987346501
NMEA,$GPGSV,3,3,09,29,21,047,*4B,1606987346502
NMEA,$GLGSV,3,1,11,75,00,000,31,71,61,226,18,72,39,313,11,74,37,317,*65,1606987346503
NMEA,$GLGSV,3,2,11,70,21,175,,82,00,000,,73,30,021,,80,00,000,*65,1606987346504
NMEA,$GLGSV,3,3,11,65,02,331,,84,18,129,,83,18,068,*56,1606987346509
NMEA,$GAGSV,1,1,03,03,15,319,21,24,55,357,21,25,39,271,29*52,1606987346512
NMEA,$PQGSV,1,1,03,193,42,168,21,194,61,032,14,195,42,132,15,0,5*68,1606987346513
NMEA,$PQGSV,4,1,16,02,40,240,22,05,16,257,30,06,79,078,20,09,63,336,15,0,4*63,1606987346514
NMEA,$PQGSV,4,2,16,10,52,248,19,14,22,306,19,16,80,059,19,24,16,282,34,0,4*67,1606987346516
NMEA,$PQGSV,4,3,16,26,47,329,18,01,52,129,,03,58,202,,04,37,115,,0,4*6A,1606987346518
NMEA,$PQGSV,4,4,16,07,74,288,,21,45,208,,22,09,165,,29,22,064,,0,4*60,1606987346519
NMEA,$GNGSA,A,3,03,04,22,26,32,,,,,,,,1.7,1.5,0.9,1*38,1606987346523
NMEA,$GNGSA,A,2,25,,,,,,,,,,,,1.7,1.5,0.9,3*3E,1606987346524
NMEA,$PQGSA,A,2,14,24,,,,,,,,,,,1.7,1.5,0.9,4*35,1606987346526
NMEA,$GNVTG,,T,,M,0.0,N,0.0,K,A*3D,1606987346526
NMEA,$GNRMC,092227.00,A,2255.532034,N,12017.657776,E,0.0,,031220,2.8,W,A*17,1606987346527
NMEA,$GNGGA,092227.00,2255.532034,N,12017.657776,E,1,08,1.5,52.3,M,17.5,M,,*41,1606987346528
Fix,gps,22.925533,120.294297,70.018799,0.000000,11.792000,1606987348000
Raw,16851587,16855499000000,,,-1291005709936674304,0.0,94.66054325457662,-1.1026081952124884,18.65561772011386,165,11,0.0,207,44547361617051,13,31.5,-171.08255004882812,0.22670000791549683,0,0.0,0.0,,,,,0,,3,,
Raw,16851587,16855499000000,,,-1291005709936674304,0.0,94.66054325457662,-1.1026081952124884,18.65561772011386,165,7,0.0,207,44547369937534,84,16.0,317.0792541503906,2.130000114440918,0,0.0,0.0,,,,,0,,3,,
Raw,16851588,16855499000000,,,-1291005709936674304,0.0,94.66054325457662,-1.1026081952124884,18.65561772011386,165,8,0.0,207,44547365665974,576,10.9,-402.3750305175781,14.38900089263916,0,0.0,0.0,,,,,0,,3,,
Raw,16851588,16855499000000,,,-1291005709936674304,0.0,94.66054325457662,-1.1026081952124884,18.65561772011386,165,3,0.0,15,379365356580638,9,35.2,-10.461295127868652,0.04560000076889992,0,0.0,0.0,,,,,0,,1,,
Raw,16851589,16855499000000,,,-1291005709936674304,0.0,94.66054325457662,-1.1026081952124884,18.65561772011386,165,4,0.0,15,379365353881538,19,27.6,-651.285888671875,0.06080000102519989,0,0.0,0.0,,,,,0,,1,,
Raw,16851589,16855499000000,,,-1291005709936674304,0.0,94.66054325457662,-1.1026081952124884,18.65561772011386,165,16,0.0,15,379365365849544,135,14.8,-241.26382446289062,4.36400032043457,0,0.0,0.0,,,,,0,,1,,
Raw,16851590,16855499000000,,,-1291005709936674304,0.0,94.66054325457662,-1.1026081952124884,18.65561772011386,165,22,0.0,15,379365356392443,24,25.4,156.782958984375,0.640500009059906,0,0.0,0.0,,,,,0,,1,,
Raw,16851590,16855499000000,,,-1291005709936674304,0.0,94.66054325457662,-1.1026081952124884,18.65561772011386,165,26,0.0,15,379365367327165,27,24.9,158.2577362060547,0.6270000338554382,0,0.0,0.0,,,,,0,,1,,
Raw,16851591,16855499000000,,,-1291005709936674304,0.0,94.66054325457662,-1.1026081952124884,18.65561772011386,165,27,0.0,15,379365357753411,421,17.9,-703.0780029296875,13.10200023651123,0,0.0,0.0,,,,,0,,1,,
Raw,16851591,16855499000000,,,-1291005709936674304,0.0,94.66054325457662,-1.1026081952124884,18.65561772011386,165,31,0.0,15,379365363520903,84,16.5,95.10877990722656,1.9210000038146973,0,0.0,0.0,,,,,0,,1,,
Raw,16851591,16855499000000,,,-1291005709936674304,0.0,94.66054325457662,-1.1026081952124884,18.65561772011386,165,32,0.0,15,379365362998941,96,15.3,497.03753662109375,2.1095001697540283,0,0.0,0.0,,,,,0,,1,,
Raw,16851592,16855499000000,,,-1291005709936674304,0.0,94.66054325457662,-1.1026081952124884,18.65561772011386,165,2,0.0,783,379351310669768,93,21.7,3.0918359756469727,5.253499984741211,0,0.0,0.0,,,,,0,,5,,
Raw,16851592,16855499000000,,,-1291005709936674304,0.0,94.66054325457662,-1.1026081952124884,18.65561772011386,165,5,0.0,783,379351302456970,14,30.0,3.341486930847168,0.3935000002384186,0,0.0,0.0,,,,,0,,5,,
Raw,16851593,16855499000000,,,-1291005709936674304,0.0,94.66054325457662,-1.1026081952124884,18.65561772011386,165,6,0.0,15,379351316228028,53,19.4,-59.34020233154297,0.8704999685287476,0,0.0,0.0,,,,,0,,5,,
Raw,16851593,16855499000000,,,-1291005709936674304,0.0,94.66054325457662,-1.1026081952124884,18.65561772011386,165,9,0.0,15,379351315117891,121,15.3,-137.3850555419922,4.189000129699707,0,0.0,0.0,,,,,0,,5,,
Raw,16851593,16855499000000,,,-1291005709936674304,0.0,94.66054325457662,-1.1026081952124884,18.65561772011386,165,10,0.0,15,379351311462108,61,18.2,-5.74198055267334,0.9329999685287476,0,0.0,0.0,,,,,0,,5,,
Raw,16851594,16855499000000,,,-1291005709936674304,0.0,94.66054325457662,-1.1026081952124884,18.65561772011386,165,14,0.0,15,379351352417155,46,20.0,-299.0631103515625,0.8044999837875366,0,0.0,0.0,,,,,0,,5,,
Raw,16851594,16855499000000,,,-1291005709936674304,0.0,94.66054325457662,-1.1026081952124884,18.65561772011386,165,16,0.0,15,379351315673670,70,17.0,-47.5297737121582,1.0190000534057617,0,0.0,0.0,,,,,0,,5,,
Raw,16851595,16855499000000,,,-1291005709936674304,0.0,94.66054325457662,-1.1026081952124884,18.65561772011386,165,24,0.0,15,379351350485888,11,33.4,-262.3900451660156,0.03790000081062317,0,0.0,0.0,,,,,0,,5,,
Raw,16851595,16855499000000,,,-1291005709936674304,0.0,94.66054325457662,-1.1026081952124884,18.65561772011386,165,26,0.0,15,379351360284228,69,18.3,-55.9026985168457,2.4165000915527344,0,0.0,0.0,,,,,0,,5,,
Raw,16851595,16855499000000,,,-1291005709936674304,0.0,94.66054325457662,-1.1026081952124884,18.65561772011386,165,3,0.0,7183,379365344466098,680,20.7,-479.62567138671875,17.25050163269043,0,0.0,0.0,,,,,0,,6,,
Raw,16851596,16855499000000,,,-1291005709936674304,0.0,94.66054325457662,-1.1026081952124884,18.65561772011386,165,24,0.0,7183,379365354578077,918,21.3,206.9253387451172,20.193500518798828,0,0.0,0.0,,,,,0,,6,,
Raw,16851596,16855499000000,,,-1291005709936674304,0.0,94.66054325457662,-1.1026081952124884,18.65561772011386,165,25,0.0,7183,379365351311310,17,28.4,-134.9848175048828,0.4150000214576721,0,0.0,0.0,,,,,0,,6,,
NMEA,$GPGSV,3,1,09,03,19,286,35,04,11,320,28,16,52,255,15,22,22,262,25*7B,1606987347489
NMEA,$GPGSV,3,2,09,26,66,333,25,27,21,187,18,31,47,035,17,32,41,142,15*76,1606987347489
NMEA,$GPGSV,3,3,09,29,21,047,*4B,1606987347489
NMEA,$GLGSV,3,1,11,75,00,000,32,71,61,226,16,72,39,313,11,74,37,317,*68,1606987347490
NMEA,$GLGSV,3,2,11,70,21,175,,82,00,000,,73,30,021,,80,00,000,*65,1606987347490
NMEA,$GLGSV,3,3,11,65,02,331,,84,18,129,,83,18,068,*56,1606987347490
NMEA,$GAGSV,1,1,03,03,15,319,21,24,55,357,21,25,39,271,28*53,1606987347490
NMEA,$PQGSV,1,1,03,193,42,168,21,194,61,032,14,195,42,132,17,0,5*6A,1606987347491
NMEA,$PQGSV,4,1,16,02,40,240,22,05,16,257,30,06,79,078,19,09,63,336,15,0,4*69,1606987347492
NMEA,$PQGSV,4,2,16,10,52,248,18,14,22,306,20,16,80,059,17,24,16,282,33,0,4*65,1606987347492
NMEA,$PQGSV,4,3,16,26,47,329,18,01,52,129,,03,58,202,,04,37,115,,0,4*6A,1606987347492
NMEA,$PQGSV,4,4,16,07,74,288,,21,45,208,,22,09,165,,29,22,064,,0,4*60,1606987347492
NMEA,$GNGSA,A,3,03,04,22,26,32,,,,,,,,2.8,2.6,1.0,1*3C,1606987347493
NMEA,$GNGSA,A,2,25,,,,,,,,,,,,2.8,2.6,1.0,3*3A,1606987347493
NMEA,$PQGSA,A,2,14,24,,,,,,,,,,,2.8,2.6,1.0,4*31,1606987347493
NMEA,$GNVTG,,T,,M,0.0,N,0.0,K,A*3D,1606987347494
NMEA,$GNRMC,092228.00,A,2255.532000,N,12017.657803,E,0.0,,031220,2.8,W,A*12,1606987347494
NMEA,$GNGGA,092228.00,2255.532000,N,12017.657803,E,1,08,2.6,52.6,M,17.5,M,,*41,1606987347494
NMEA,$GPGSV,3,1,09,03,19,286,33,04,11,320,27,16,52,255,15,22,22,262,24*73,1606987348488
NMEA,$GPGSV,3,2,09,26,66,333,24,27,21,187,18,31,47,035,17,32,41,142,15*77,1606987348490
Raw,16852594,16856499000000,,,-1291005709936674304,0.0,91.73334547085688,-3.9263072234992524,19.43549035582642,165,11,0.0,207,44548361617653,13,31.4,-171.76251220703125,0.22670000791549683,0,0.0,0.0,,,,,0,,3,,
Raw,16852594,16856499000000,,,-1291005709936674304,0.0,91.73334547085688,-3.9263072234992524,19.43549035582642,165,7,0.0,207,44548369936477,99,16.0,317.0792541503906,3.630000114440918,0,0.0,0.0,,,,,0,,3,,
Raw,16852595,16856499000000,,,-1291005709936674304,0.0,91.73334547085688,-3.9263072234992524,19.43549035582642,165,8,0.0,207,44548365667316,670,10.9,-402.3750305175781,15.88900089263916,0,0.0,0.0,,,,,0,,3,,
Raw,16852595,16856499000000,,,-1291005709936674304,0.0,91.73334547085688,-3.9263072234992524,19.43549035582642,165,3,0.0,15,379366356580689,11,33.3,-11.118473052978516,0.04690000042319298,0,0.0,0.0,,,,,0,,1,,
Raw,16852595,16856499000000,,,-1291005709936674304,0.0,91.73334547085688,-3.9263072234992524,19.43549035582642,165,4,0.0,15,379366353883689,19,27.0,-652.1349487304688,0.06080000102519989,0,0.0,0.0,,,,,0,,1,,
Raw,16852596,16856499000000,,,-1291005709936674304,0.0,91.73334547085688,-3.9263072234992524,19.43549035582642,165,16,0.0,15,379366365850348,165,14.8,-241.26382446289062,5.86400032043457,0,0.0,0.0,,,,,0,,1,,
Raw,16852596,16856499000000,,,-1291005709936674304,0.0,91.73334547085688,-3.9263072234992524,19.43549035582642,165,22,0.0,15,379366356391879,27,24.3,156.1645050048828,0.6904999613761902,0,0.0,0.0,,,,,0,,1,,
Raw,16852597,16856499000000,,,-1291005709936674304,0.0,91.73334547085688,-3.9263072234992524,19.43549035582642,165,26,0.0,15,379366367326680,31,23.8,157.9722900390625,0.6769999861717224,0,0.0,0.0,,,,,0,,1,,
Raw,16852597,16856499000000,,,-1291005709936674304,0.0,91.73334547085688,-3.9263072234992524,19.43549035582642,165,27,0.0,15,379366357755756,510,17.9,-703.0780029296875,14.60200023651123,0,0.0,0.0,,,,,0,,1,,
Raw,16852597,16856499000000,,,-1291005709936674304,0.0,91.73334547085688,-3.9263072234992524,19.43549035582642,165,31,0.0,15,379366363520585,98,16.5,95.10877990722656,3.4210000038146973,0,0.0,0.0,,,,,0,,1,,
Raw,16852598,16856499000000,,,-1291005709936674304,0.0,91.73334547085688,-3.9263072234992524,19.43549035582642,165,32,0.0,15,379366362997283,111,15.3,497.03753662109375,3.6095001697540283,0,0.0,0.0,,,,,0,,1,,
Raw,16852598,16856499000000,,,-1291005709936674304,0.0,91.73334547085688,-3.9263072234992524,19.43549035582642,165,3,0.0,7183,379366344467698,798,20.7,-479.62567138671875,18.75050163269043,0,0.0,0.0,,,,,0,,6,,
Raw,16852599,16856499000000,,,-1291005709936674304,0.0,91.73334547085688,-3.9263072234992524,19.43549035582642,165,24,0.0,7183,379366354577387,1055,21.3,206.9253387451172,21.693500518798828,0,0.0,0.0,,,,,0,,6,,
Raw,16852600,16856499000000,,,-1291005709936674304,0.0,91.73334547085688,-3.9263072234992524,19.43549035582642,165,25,0.0,7183,379366351311795,21,26.9,-133.9544677734375,0.1397000104188919,0,0.0,0.0,,,,,0,,6,,
Fix,gps,22.925534,120.294299,71.364685,0.000000,11.792000,1606987349000
NMEA,$GPGSV,3,3,09,29,21,047,*4B,1606987348490
NMEA,$GLGSV,3,1,11,75,00,000,31,71,61,226,16,72,39,313,11,74,37,317,*6B,1606987348491
NMEA,$GLGSV,3,2,11,70,21,175,,82,00,000,,73,30,021,,80,00,000,*65,1606987348491
NMEA,$GLGSV,3,3,11,65,02,331,,84,18,129,,83,18,068,*56,1606987348491
NMEA,$GAGSV,1,1,03,03,15,319,21,24,55,357,21,25,39,271,27*5C,1606987348492
NMEA,$PQGSV,1,1,03,193,42,168,21,194,61,032,11,195,42,132,17,0,5*6F,1606987348492
NMEA,$PQGSV,4,1,16,02,40,240,22,05,16,257,29,06,79,078,19,09,63,336,15,0,4*61,1606987348492
NMEA,$PQGSV,4,2,16,10,52,248,17,14,22,306,20,16,80,059,17,21,45,208,17,0,4*6D,1606987348493
NMEA,$PQGSV,4,3,16,24,16,282,33,26,47,329,18,01,52,129,,03,58,202,,0,4*66,1606987348493
NMEA,$PQGSV,4,4,16,04,37,115,,07,74,288,,22,09,165,,29,22,064,,0,4*6D,1606987348495
NMEA,$GNGSA,A,3,03,04,22,26,,,,,,,,,2.8,2.6,1.0,1*3D,1606987348498
NMEA,$GNGSA,A,2,25,,,,,,,,,,,,2.8,2.6,1.0,3*3A,1606987348499
NMEA,$PQGSA,A,2,14,24,,,,,,,,,,,2.8,2.6,1.0,4*31,1606987348500
NMEA,$GNVTG,,T,,M,0.0,N,0.0,K,A*3D,1606987348501
NMEA,$GNRMC,092229.00,A,2255.532012,N,12017.657912,E,0.0,,031220,2.8,W,A*11,1606987348501
NMEA,$GNGGA,092229.00,2255.532012,N,12017.657912,E,1,07,2.6,53.9,M,17.5,M,,*43,1606987348501
Fix,gps,22.925529,120.294306,70.316772,0.000000,11.792000,1606987350000
NMEA,$GPGSV,3,1,09,03,19,286,34,04,11,320,27,16,52,255,15,22,22,262,27*77,1606987349490
NMEA,$GPGSV,3,2,09,26,66,333,25,27,21,187,18,31,47,035,16,32,41,142,17*75,1606987349490
NMEA,$GPGSV,3,3,09,29,21,047,*4B,1606987349490
NMEA,$GLGSV,3,1,11,75,00,000,31,71,61,226,18,72,39,313,11,74,37,317,*65,1606987349490
NMEA,$GLGSV,3,2,11,70,21,175,,82,00,000,,73,30,021,,80,00,000,*65,1606987349491
NMEA,$GLGSV,3,3,11,65,02,331,,84,18,129,,83,18,068,*56,1606987349491
NMEA,$GAGSV,1,1,03,03,15,319,21,24,55,357,21,25,39,271,26*5D,1606987349492
NMEA,$PQGSV,1,1,03,193,42,168,20,194,61,032,11,195,42,132,16,0,5*6F,1606987349492
NMEA,$PQGSV,4,1,16,02,40,240,22,05,16,257,30,06,79,078,16,09,63,336,15,0,4*66,1606987349492
Raw,16853589,16857499000000,,,-1291005709936674304,0.0,101.82910045841709,-4.719579908950795,20.019950271774963,165,11,0.0,207,44549361618211,13,31.0,-171.8317108154297,0.22670000791549683,0,0.0,0.0,,,,,0,,3,,
Raw,16853590,16857499000000,,,-1291005709936674304,0.0,101.82910045841709,-4.719579908950795,20.019950271774963,165,7,0.0,207,44549369935142,64,18.0,314.5853576660156,1.9600001573562622,0,0.0,0.0,,,,,0,,3,,
Raw,16853590,16857499000000,,,-1291005709936674304,0.0,101.82910045841709,-4.719579908950795,20.019950271774963,165,8,0.0,207,44549365668658,774,10.9,-402.3750305175781,17.388999938964844,0,0.0,0.0,,,,,0,,3,,
Raw,16853591,16857499000000,,,-1291005709936674304,0.0,101.82910045841709,-4.719579908950795,20.019950271774963,165,3,0.0,15,379367356580726,11,33.9,-11.077938079833984,0.04690000042319298,0,0.0,0.0,,,,,0,,1,,
Raw,16853591,16857499000000,,,-1291005709936674304,0.0,101.82910045841709,-4.719579908950795,20.019950271774963,165,4,0.0,15,379367353885833,19,27.3,-652.1680297851562,0.06080000102519989,0,0.0,0.0,,,,,0,,1,,
Raw,16853592,16857499000000,,,-1291005709936674304,0.0,101.82910045841709,-4.719579908950795,20.019950271774963,165,16,0.0,15,379367365851153,205,14.8,-241.26382446289062,7.36400032043457,0,0.0,0.0,,,,,0,,1,,
Raw,16853592,16857499000000,,,-1291005709936674304,0.0,101.82910045841709,-4.719579908950795,20.019950271774963,165,22,0.0,15,379367356391400,21,26.5,155.8372039794922,0.13520000874996185,0,0.0,0.0,,,,,0,,1,,
Raw,16853593,16857499000000,,,-1291005709936674304,0.0,101.82910045841709,-4.719579908950795,20.019950271774963,165,26,0.0,15,379367367326073,27,24.7,157.79151916503906,0.6270000338554382,0,0.0,0.0,,,,,0,,1,,
Raw,16853593,16857499000000,,,-1291005709936674304,0.0,101.82910045841709,-4.719579908950795,20.019950271774963,165,27,0.0,15,379367357758101,608,17.9,-703.0780029296875,16.102001190185547,0,0.0,0.0,,,,,0,,1,,
Raw,16853594,16857499000000,,,-1291005709936674304,0.0,101.82910045841709,-4.719579908950795,20.019950271774963,165,31,0.0,15,379367363520239,84,16.0,93.60545349121094,2.011000156402588,0,0.0,0.0,,,,,0,,1,,
Raw,16853594,16857499000000,,,-1291005709936674304,0.0,101.82910045841709,-4.719579908950795,20.019950271774963,165,32,0.0,15,379367362995626,73,17.3,496.8187255859375,1.9194999933242798,0,0.0,0.0,,,,,0,,1,,
Raw,16853595,16857499000000,,,-1291005709936674304,0.0,101.82910045841709,-4.719579908950795,20.019950271774963,165,2,0.0,783,379353310669763,65,21.8,5.636359214782715,3.69350004196167,0,0.0,0.0,,,,,0,,5,,
Raw,16853595,16857499000000,,,-1291005709936674304,0.0,101.82910045841709,-4.719579908950795,20.019950271774963,165,5,0.0,783,379353302456953,14,30.2,5.165862083435059,0.3935000002384186,0,0.0,0.0,,,,,0,,5,,
Raw,16853596,16857499000000,,,-1291005709936674304,0.0,101.82910045841709,-4.719579908950795,20.019950271774963,165,6,0.0,15,379353316228464,84,16.3,-60.67488098144531,1.8504999876022339,0,0.0,0.0,,,,,0,,5,,
Raw,16853596,16857499000000,,,-1291005709936674304,0.0,101.82910045841709,-4.719579908950795,20.019950271774963,165,9,0.0,15,379353315118807,189,15.3,-137.3850555419922,7.189000129699707,0,0.0,0.0,,,,,0,,5,,
Raw,16853597,16857499000000,,,-1291005709936674304,0.0,101.82910045841709,-4.719579908950795,20.019950271774963,165,10,0.0,15,379353311462094,89,16.8,-6.356507778167725,2.513000011444092,0,0.0,0.0,,,,,0,,5,,
Raw,16853597,16857499000000,,,-1291005709936674304,0.0,101.82910045841709,-4.719579908950795,20.019950271774963,165,14,0.0,15,379353352419152,46,20.3,-300.26336669921875,0.8044999837875366,0,0.0,0.0,,,,,0,,5,,
Raw,16853598,16857499000000,,,-1291005709936674304,0.0,101.82910045841709,-4.719579908950795,20.019950271774963,165,16,0.0,15,379353315674028,84,16.7,-48.70121765136719,1.8489999771118164,0,0.0,0.0,,,,,0,,5,,
Raw,16853598,16857499000000,,,-1291005709936674304,0.0,101.82910045841709,-4.719579908950795,20.019950271774963,165,21,0.0,15,379353358101294,81,16.6,428.57452392578125,1.3585000038146973,0,0.0,0.0,,,,,0,,5,,
Raw,16853599,16857499000000,,,-1291005709936674304,0.0,101.82910045841709,-4.719579908950795,20.019950271774963,165,24,0.0,15,379353350487645,11,33.2,-263.19158935546875,0.03790000081062317,0,0.0,0.0,,,,,0,,5,,
Raw,16853599,16857499000000,,,-1291005709936674304,0.0,101.82910045841709,-4.719579908950795,20.019950271774963,165,26,0.0,15,379353360284587,89,16.9,-57.65985870361328,2.496500015258789,0,0.0,0.0,,,,,0,,5,,
Raw,16853600,16857499000000,,,-1291005709936674304,0.0,101.82910045841709,-4.719579908950795,20.019950271774963,165,3,0.0,7183,379367344469298,926,20.7,-479.62567138671875,20.25050163269043,0,0.0,0.0,,,,,0,,6,,
Raw,16853600,16857499000000,,,-1291005709936674304,0.0,101.82910045841709,-4.719579908950795,20.019950271774963,165,24,0.0,7183,379367354576697,1203,21.3,206.9253387451172,23.193500518798828,0,0.0,0.0,,,,,0,,6,,
Raw,16853601,16857499000000,,,-1291005709936674304,0.0,101.82910045841709,-4.719579908950795,20.019950271774963,165,25,0.0,7183,379367351312235,21,26.3,-134.5326385498047,0.1397000104188919,0,0.0,0.0,,,,,0,,6,,
NMEA,$PQGSV,4,2,16,10,52,248,17,14,22,306,20,16,80,059,17,21,45,208,17,0,4*6D,1606987349492
NMEA,$PQGSV,4,3,16,24,16,282,33,26,47,329,17,01,52,129,,03,58,202,,0,4*69,1606987349492
NMEA,$PQGSV,4,4,16,04,37,115,,07,74,288,,22,09,165,,29,22,064,,0,4*6D,1606987349493
NMEA,$GNGSA,A,3,03,04,22,26,,,,,,,,,1.5,1.2,0.9,1*3C,1606987349493
NMEA,$GNGSA,A,2,25,,,,,,,,,,,,1.5,1.2,0.9,3*3B,1606987349494
NMEA,$PQGSA,A,2,14,24,,,,,,,,,,,1.5,1.2,0.9,4*30,1606987349494
NMEA,$GNVTG,,T,,M,0.0,N,0.0,K,A*3D,1606987349494
NMEA,$GNRMC,092230.00,A,2255.531743,N,12017.658376,E,0.0,,031220,2.8,W,A*1E,1606987349494
NMEA,$GNGGA,092230.00,2255.531743,N,12017.658376,E,1,07,1.2,52.8,M,17.5,M,,*4B,1606987349495
NMEA,$GPGSV,3,1,09,03,19,286,36,04,11,320,27,16,52,255,15,22,22,262,30*73,1606987350488
NMEA,$GPGSV,3,2,09,26,66,333,23,27,21,187,18,31,47,035,19,32,41,142,18*73,1606987350488
Fix,gps,22.925528,120.294305,71.425720,0.000000,11.792000,1606987351000
NMEA,$GPGSV,3,3,09,29,21,047,*4B,1606987350488
Raw,16854579,16858499000000,,,-1291005709936674560,0.0,92.50544098904356,-4.5963116986453105,14.934167947124351,165,11,0.0,207,44550361618807,12,32.9,-171.91566467285156,0.22540001571178436,0,0.0,0.0,,,,,0,,3,,
Raw,16854579,16858499000000,,,-1291005709936674560,0.0,92.50544098904356,-4.5963116986453105,14.934167947124351,165,7,0.0,207,44550369934093,78,18.0,314.5853576660156,3.4600002765655518,0,0.0,0.0,,,,,0,,3,,
Raw,16854580,16858499000000,,,-1291005709936674560,0.0,92.50544098904356,-4.5963116986453105,14.934167947124351,165,8,0.0,207,44550365670000,888,10.9,-402.3750305175781,18.888999938964844,0,0.0,0.0,,,,,0,,3,,
Raw,16854580,16858499000000,,,-1291005709936674560,0.0,92.50544098904356,-4.5963116986453105,14.934167947124351,165,3,0.0,15,379368356580768,8,36.0,-11.102666854858398,0.04520000144839287,0,0.0,0.0,,,,,0,,1,,
Raw,16854581,16858499000000,,,-1291005709936674560,0.0,92.50544098904356,-4.5963116986453105,14.934167947124351,165,4,0.0,15,379368353888043,19,27.0,-652.2860717773438,0.06080000102519989,0,0.0,0.0,,,,,0,,1,,
Raw,16854581,16858499000000,,,-1291005709936674560,0.0,92.50544098904356,-4.5963116986453105,14.934167947124351,165,16,0.0,15,379368365851986,111,15.3,-241.74908447265625,3.614000082015991,0,0.0,0.0,,,,,0,,1,,
Raw,16854582,16858499000000,,,-1291005709936674560,0.0,92.50544098904356,-4.5963116986453105,14.934167947124351,165,22,0.0,15,379368356390875,16,29.5,155.7944793701172,0.050700001418590546,0,0.0,0.0,,,,,0,,1,,
Raw,16854583,16858499000000,,,-1291005709936674560,0.0,92.50544098904356,-4.5963116986453105,14.934167947124351,165,26,0.0,15,379368367325579,35,22.7,158.00083923339844,0.7369999885559082,0,0.0,0.0,,,,,0,,1,,
Raw,16854583,16858499000000,,,-1291005709936674560,0.0,92.50544098904356,-4.5963116986453105,14.934167947124351,165,27,0.0,15,379368357760447,717,17.9,-703.0780029296875,17.602001190185547,0,0.0,0.0,,,,,0,,1,,
Raw,16854583,16858499000000,,,-1291005709936674560,0.0,92.50544098904356,-4.5963116986453105,14.934167947124351,165,31,0.0,15,379368363519826,61,18.5,94.2429428100586,1.0010000467300415,0,0.0,0.0,,,,,0,,1,,
Raw,16854584,16858499000000,,,-1291005709936674560,0.0,92.50544098904356,-4.5963116986453105,14.934167947124351,165,32,0.0,15,379368362993977,61,18.0,497.1993103027344,1.0794999599456787,0,0.0,0.0,,,,,0,,1,,
Raw,16854584,16858499000000,,,-1291005709936674560,0.0,92.50544098904356,-4.5963116986453105,14.934167947124351,165,2,0.0,783,379354310669744,92,21.8,5.636359214782715,5.19350004196167,0,0.0,0.0,,,,,0,,5,,
Raw,16854585,16858499000000,,,-1291005709936674560,0.0,92.50544098904356,-4.5963116986453105,14.934167947124351,165,5,0.0,783,379354302456932,14,30.9,5.588349342346191,0.3634999990463257,0,0.0,0.0,,,,,0,,5,,
Raw,16854585,16858499000000,,,-1291005709936674560,0.0,92.50544098904356,-4.5963116986453105,14.934167947124351,165,6,0.0,15,379354316228667,97,16.3,-60.67488098144531,3.3505001068115234,0,0.0,0.0,,,,,0,,5,,
Raw,16854586,16858499000000,,,-1291005709936674560,0.0,92.50544098904356,-4.5963116986453105,14.934167947124351,165,9,0.0,15,379354315119265,238,15.3,-137.3850555419922,8.689000129699707,0,0.0,0.0,,,,,0,,5,,
Raw,16854586,16858499000000,,,-1291005709936674560,0.0,92.50544098904356,-4.5963116986453105,14.934167947124351,165,10,0.0,15,379354311462099,96,15.4,-8.094465255737305,1.9329999685287476,0,0.0,0.0,,,,,0,,5,,
Raw,16854587,16858499000000,,,-1291005709936674560,0.0,92.50544098904356,-4.5963116986453105,14.934167947124351,165,14,0.0,15,379354352420132,46,20.3,-299.66802978515625,0.8044999837875366,0,0.0,0.0,,,,,0,,5,,
Raw,16854587,16858499000000,,,-1291005709936674560,0.0,92.50544098904356,-4.5963116986453105,14.934167947124351,165,16,0.0,15,379354315674114,46,20.0,-48.72041702270508,0.8089999556541443,0,0.0,0.0,,,,,0,,5,,
Raw,16854587,16858499000000,,,-1291005709936674560,0.0,92.50544098904356,-4.5963116986453105,14.934167947124351,165,21,0.0,15,379354358099806,70,17.6,428.3056945800781,1.0234999656677246,0,0.0,0.0,,,,,0,,5,,
Raw,16854588,16858499000000,,,-1291005709936674560,0.0,92.50544098904356,-4.5963116986453105,14.934167947124351,165,24,0.0,15,379354350488524,11,33.9,-263.30462646484375,0.03790000081062317,0,0.0,0.0,,,,,0,,5,,
Raw,16854589,16858499000000,,,-1291005709936674560,0.0,92.50544098904356,-4.5963116986453105,14.934167947124351,165,26,0.0,15,379354360284790,46,20.3,-57.01652145385742,0.7864999771118164,0,0.0,0.0,,,,,0,,5,,
Raw,16854589,16858499000000,,,-1291005709936674560,0.0,92.50544098904356,-4.5963116986453105,14.934167947124351,165,3,0.0,7183,379368344470898,1064,20.7,-479.62567138671875,21.75050163269043,0,0.0,0.0,,,,,0,,6,,
Raw,16854590,16858499000000,,,-1291005709936674560,0.0,92.50544098904356,-4.5963116986453105,14.934167947124351,165,24,0.0,7183,379368354576006,1360,21.3,206.9253387451172,24.693500518798828,0,0.0,0.0,,,,,0,,6,,
Raw,16854590,16858499000000,,,-1291005709936674560,0.0,92.50544098904356,-4.5963116986453105,14.934167947124351,165,25,0.0,7183,379368351312703,19,27.3,-135.64271545410156,0.06980000436306,0,0.0,0.0,,,,,0,,6,,
NMEA,$GLGSV,3,1,11,75,00,000,33,71,61,226,18,72,39,313,11,74,37,317,*67,1606987350488
NMEA,$GLGSV,3,2,11,70,21,175,,82,00,000,,73,30,021,,80,00,000,*65,1606987350489
NMEA,$GLGSV,3,3,11,65,02,331,,84,18,129,,83,18,068,*56,1606987350489
NMEA,$GAGSV,1,1,03,03,15,319,21,24,55,357,21,25,39,271,27*5C,1606987350489
NMEA,$PQGSV,1,1,03,193,42,168,19,194,61,032,16,195,42,132,16,0,5*62,1606987350489
NMEA,$PQGSV,4,1,16,02,40,240,22,05,16,257,31,06,79,078,16,09,63,336,15,0,4*67,1606987350489
NMEA,$PQGSV,4,2,16,10,52,248,15,14,22,306,20,16,80,059,20,21,45,208,18,0,4*64,1606987350489
NMEA,$PQGSV,4,3,16,24,16,282,34,26,47,329,20,01,52,129,,03,58,202,,0,4*6A,1606987350492
NMEA,$PQGSV,4,4,16,04,37,115,,07,74,288,,22,09,165,,29,22,064,,0,4*6D,1606987350493
NMEA,$GNGSA,A,3,03,04,22,26,31,32,,,,,,,1.5,1.2,0.9,1*3F,1606987350494
NMEA,$GNGSA,A,2,25,,,,,,,,,,,,1.5,1.2,0.9,3*3B,1606987350499
NMEA,$PQGSA,A,2,14,24,,,,,,,,,,,1.5,1.2,0.9,4*30,1606987350500
NMEA,$GNVTG,,T,,M,0.0,N,0.0,K,A*3D,1606987350500
NMEA,$GNRMC,092231.00,A,2255.531652,N,12017.658308,E,0.0,,031220,2.8,W,A*17,1606987350501
NMEA,$GNGGA,092231.00,2255.531652,N,12017.658308,E,1,09,1.2,54.0,M,17.5,M,,*42,1606987350502
NMEA,$GPGSV,3,1,09,03,19,286,36,04,11,320,27,16,52,255,17,22,22,262,29*79,1606987351488
Raw,16855579,16859499000000,,,-1291005709936674560,0.0,96.15153248887509,-4.615286254965818,14.568212465484532,165,11,0.0,207,44551361619365,12,32.4,-171.43698120117188,0.22540001571178436,0,0.0,0.0,,,,,0,,3,,
Raw,16855579,16859499000000,,,-1291005709936674560,0.0,96.15153248887509,-4.615286254965818,14.568212465484532,165,7,0.0,207,44551369933152,64,18.6,315.25787353515625,1.9600001573562622,0,0.0,0.0,,,,,0,,3,,
Raw,16855580,16859499000000,,,-1291005709936674560,0.0,96.15153248887509,-4.615286254965818,14.568212465484532,165,8,0.0,207,44551365671649,197,12.2,-403.1686706542969,6.064000129699707,0,0.0,0.0,,,,,0,,3,,
Raw,16855580,16859499000000,,,-1291005709936674560,0.0,96.15153248887509,-4.615286254965818,14.568212465484532,165,3,0.0,15,379369356580791,9,35.5,-10.586101531982422,0.04560000076889992,0,0.0,0.0,,,,,0,,1,,
Raw,16855581,16859499000000,,,-1291005709936674560,0.0,96.15153248887509,-4.615286254965818,14.568212465484532,165,4,0.0,15,379369353890256,21,26.8,-651.851806640625,0.1307000070810318,0,0.0,0.0,,,,,0,,1,,
Raw,16855581,16859499000000,,,-1291005709936674560,0.0,96.15153248887509,-4.615286254965818,14.568212465484532,165,16,0.0,15,379369365852823,70,17.4,-240.52169799804688,1.1740000247955322,0,0.0,0.0,,,,,0,,1,,
Raw,16855582,16859499000000,,,-1291005709936674560,0.0,96.15153248887509,-4.615286254965818,14.568212465484532,165,22,0.0,15,379369356390360,16,29.1,156.27618408203125,0.050700001418590546,0,0.0,0.0,,,,,0,,1,,
Raw,16855582,16859499000000,,,-1291005709936674560,0.0,96.15153248887509,-4.615286254965818,14.568212465484532,165,26,0.0,15,379369367325080,27,24.0,157.82957458496094,0.6769999861717224,0,0.0,0.0,,,,,0,,1,,
Raw,16855583,16859499000000,,,-1291005709936674560,0.0,96.15153248887509,-4.615286254965818,14.568212465484532,165,27,0.0,15,379369357762792,836,17.9,-703.0780029296875,19.102001190185547,0,0.0,0.0,,,,,0,,1,,
Raw,16855583,16859499000000,,,-1291005709936674560,0.0,96.15153248887509,-4.615286254965818,14.568212465484532,165,31,0.0,15,379369363519557,61,18.2,92.89185333251953,1.0809999704360962,0,0.0,0.0,,,,,0,,1,,
Raw,16855584,16859499000000,,,-1291005709936674560,0.0,96.15153248887509,-4.615286254965818,14.568212465484532,165,32,0.0,15,379369362992266,53,19.4,497.6274719238281,0.999500036239624,0,0.0,0.0,,,,,0,,1,,
Raw,16855584,16859499000000,,,-1291005709936674560,0.0,96.15153248887509,-4.615286254965818,14.568212465484532,165,2,0.0,783,379355310669843,61,19.8,-6.567750930786133,2.313500165939331,0,0.0,0.0,,,,,0,,5,,
Raw,16855584,16859499000000,,,-1291005709936674560,0.0,96.15153248887509,-4.615286254965818,14.568212465484532,165,5,0.0,783,379355302456913,13,31.0,-0.18243750929832458,0.3634999990463257,0,0.0,0.0,,,,,0,,5,,
Raw,16855585,16859499000000,,,-1291005709936674560,0.0,96.15153248887509,-4.615286254965818,14.568212465484532,165,6,0.0,15,379355316228952,73,17.5,-59.13856506347656,1.7705000638961792,0,0.0,0.0,,,,,0,,5,,
Raw,16855585,16859499000000,,,-1291005709936674560,0.0,96.15153248887509,-4.615286254965818,14.568212465484532,165,7,0.0,15,379355314429298,49,20.5,43.72739028930664,1.662500023841858,0,0.0,0.0,,,,,0,,5,,
Raw,16855586,16859499000000,,,-1291005709936674560,0.0,96.15153248887509,-4.615286254965818,14.568212465484532,165,9,0.0,15,379355315119724,297,15.3,-137.3850555419922,10.189000129699707,0,0.0,0.0,,,,,0,,5,,
Raw,16855586,16859499000000,,,-1291005709936674560,0.0,96.15153248887509,-4.615286254965818,14.568212465484532,165,10,0.0,15,379355311461882,80,16.8,-11.973662376403809,1.0130000114440918,0,0.0,0.0,,,,,0,,5,,
Raw,16855587,16859499000000,,,-1291005709936674560,0.0,96.15153248887509,-4.615286254965818,14.568212465484532,165,14,0.0,15,379355352421153,53,19.0,-299.4471740722656,0.8644999861717224,0,0.0,0.0,,,,,0,,5,,
Raw,16855587,16859499000000,,,-1291005709936674560,0.0,96.15153248887509,-4.615286254965818,14.568212465484532,165,16,0.0,15,379355315674294,53,19.2,-48.45156478881836,0.8689999580383301,0,0.0,0.0,,,,,0,,5,,
Raw,16855588,16859499000000,,,-1291005709936674560,0.0,96.15153248887509,-4.615286254965818,14.568212465484532,165,21,0.0,15,379355358098504,70,17.1,428.7569885253906,1.0234999656677246,0,0.0,0.0,,,,,0,,5,,
