# 
# Header Description:
# 
# Version: v2.0.0.1 Platform: 8.0.0 Manufacturer: Sony Model: G8142
# 
# Raw,ElapsedRealtimeMillis,TimeNanos,LeapSecond,TimeUncertaintyNanos,FullBiasNanos,BiasNanos,BiasUncertaintyNanos,DriftNanosPerSecond,DriftUncertaintyNanosPerSecond,HardwareClockDiscontinuityCount,Svid,TimeOffsetNanos,State,ReceivedSvTimeNanos,ReceivedSvTimeUncertaintyNanos,Cn0DbHz,PseudorangeRateMetersPerSecond,PseudorangeRateUncertaintyMetersPerSecond,AccumulatedDeltaRangeState,AccumulatedDeltaRangeMeters,AccumulatedDeltaRangeUncertaintyMeters,CarrierFrequencyHz,CarrierCycles,CarrierPhase,CarrierPhaseUncertainty,MultipathIndicator,SnrInDb,ConstellationType,AgcDb,CarrierFrequencyHz
# 
# Fix,Provider,Latitude,Longitude,Altitude,Speed,Accuracy,(UTC)TimeInMs
# 
# Nav,Svid,Type,Status,MessageId,Sub-messageId,Data(Bytes)
# 
Raw,17371658,17375499000000,,,-1291005709936673792,0.0,91.25463111558929,9.149477933126148,19.86855146059899,165,10,0.0,207,45067365242748,2835,16.8,13.807171821594238,35.874000549316406,0,0.0,0.0,,,,,0,,3,,
Raw,17371658,17375499000000,,,-1291005709936673792,0.0,91.25463111558929,9.149477933126148,19.86855146059899,165,11,0.0,207,45067361899546,19,27.7,-154.78892517089844,0.2428000122308731,0,0.0,0.0,,,,,0,,3,,
Raw,17371659,17375499000000,,,-1291005709936673792,0.0,91.25463111558929,9.149477933126148,19.86855146059899,165,6,0.0,207,45067359679057,2035,13.1,806.8207397460938,30.17500114440918,0,0.0,0.0,,,,,0,,3,,
Raw,17371659,17375499000000,,,-1291005709936673792,0.0,91.25463111558929,9.149477933126148,19.86855146059899,165,9,0.0,207,45067362993183,602,10.3,293.1116943359375,14.821000099182129,0,0.0,0.0,,,,,0,,3,,
Raw,17371659,17375499000000,,,-1291005709936673792,0.0,91.25463111558929,9.149477933126148,19.86855146059899,165,1,0.0,207,45067355697253,1135,12.3,-687.37255859375,22.069000244140625,0,0.0,0.0,,,,,0,,3,,
Raw,17371659,17375499000000,,,-1291005709936673792,0.0,91.25463111558929,9.149477933126148,19.86855146059899,165,7,0.0,207,45067369322602,84,16.5,393.0168762207031,2.130000114440918,0,0.0,0.0,,,,,0,,3,,
Raw,17371659,17375499000000,,,-1291005709936673792,0.0,91.25463111558929,9.149477933126148,19.86855146059899,165,8,0.0,207,45067366298491,46,20.5,-325.9598083496094,1.0555000305175781,0,0.0,0.0,,,,,0,,3,,
Raw,17371659,17375499000000,,,-1291005709936673792,0.0,91.25463111558929,9.149477933126148,19.86855146059899,165,3,0.0,15,379885356552946,11,33.9,42.4785041809082,0.04690000042319298,0,0.0,0.0,,,,,0,,1,,
Raw,17371659,17375499000000,,,-1291005709936673792,0.0,91.25463111558929,9.149477933126148,19.86855146059899,165,4,0.0,15,379885355002978,93,15.5,-639.1393432617188,1.2790000438690186,0,0.0,0.0,,,,,0,,1,,
Raw,17371660,17375499000000,,,-1291005709936673792,0.0,91.25463111558929,9.149477933126148,19.86855146059899,165,22,0.0,15,379885356089796,13,31.9,192.18275451660156,0.04920000210404396,0,0.0,0.0,,,,,0,,1,,
Raw,17371660,17375499000000,,,-1291005709936673792,0.0,91.25463111558929,9.149477933126148,19.86855146059899,165,26,0.0,15,379885367021351,748,17.6,194.16615295410156,1.806999921798706,0,0.0,0.0,,,,,0,,1,,
Raw,17371660,17375499000000,,,-1291005709936673792,0.0,91.25463111558929,9.149477933126148,19.86855146059899,165,27,0.0,15,379885358966682,150,14.2,-691.4796142578125,5.253499984741211,0,0.0,0.0,,,,,0,,1,,
Raw,17371660,17375499000000,,,-1291005709936673792,0.0,91.25463111558929,9.149477933126148,19.86855146059899,165,31,0.0,15,379885363348594,394,16.4,104.10015106201172,12.511000633239746,0,0.0,0.0,,,,,0,,1,,
Raw,17371660,17375499000000,,,-1291005709936673792,0.0,91.25463111558929,9.149477933126148,19.86855146059899,165,32,0.0,15,379885362098632,46,20.6,539.7489624023438,0.8495000004768372,0,0.0,0.0,,,,,0,,1,,
Raw,17371660,17375499000000,,,-1291005709936673792,0.0,91.25463111558929,9.149477933126148,19.86855146059899,165,2,0.0,783,379871310664741,659,17.5,-0.019203949719667435,16.773500442504883,0,0.0,0.0,,,,,0,,5,,
Raw,17371661,17375499000000,,,-1291005709936673792,0.0,91.25463111558929,9.149477933126148,19.86855146059899,165,5,0.0,783,379871302447515,21,27.1,4.282480716705322,1.2335000038146973,0,0.0,0.0,,,,,0,,5,,
Raw,17371661,17375499000000,,,-1291005709936673792,0.0,91.25463111558929,9.149477933126148,19.86855146059899,165,6,0.0,15,379871316318388,181,13.1,-45.93584442138672,5.880500316619873,0,0.0,0.0,,,,,0,,5,,
Raw,17371661,17375499000000,,,-1291005709936673792,0.0,91.25463111558929,9.149477933126148,19.86855146059899,165,7,0.0,15,379871314345695,137,16.4,53.569419860839844,5.597500324249268,0,0.0,0.0,,,,,0,,5,,
Raw,17371661,17375499000000,,,-1291005709936673792,0.0,91.25463111558929,9.149477933126148,19.86855146059899,165,9,0.0,15,379871315349128,485,19.6,-130.4620361328125,14.369000434875488,0,0.0,0.0,,,,,0,,5,,
Raw,17371661,17375499000000,,,-1291005709936673792,0.0,91.25463111558929,9.149477933126148,19.86855146059899,165,14,0.0,15,379871352895815,106,19.9,-252.3110809326172,5.304500102996826,0,0.0,0.0,,,,,0,,5,,
Raw,17371661,17375499000000,,,-1291005709936673792,0.0,91.25463111558929,9.149477933126148,19.86855146059899,165,21,0.0,15,379871357333096,102,15.5,460.2034606933594,2.692000150680542,0,0.0,0.0,,,,,0,,5,,
Raw,17371661,17375499000000,,,-1291005709936673792,0.0,91.25463111558929,9.149477933126148,19.86855146059899,165,24,0.0,15,379871350936294,16,29.8,-256.7102966308594,0.04170000180602074,0,0.0,0.0,,,,,0,,5,,
Raw,17371662,17375499000000,,,-1291005709936673792,0.0,91.25463111558929,9.149477933126148,19.86855146059899,165,26,0.0,15,379871360379088,212,15.1,-52.13872146606445,7.916500091552734,0,0.0,0.0,,,,,0,,5,,
Raw,17371662,17375499000000,,,-1291005709936673792,0.0,91.25463111558929,9.149477933126148,19.86855146059899,165,3,0.0,7183,379885345286433,53,19.4,-462.6895446777344,0.8119999766349792,0,0.0,0.0,,,,,0,,6,,
Raw,17371662,17375499000000,,,-1291005709936673792,0.0,91.25463111558929,9.149477933126148,19.86855146059899,165,25,0.0,7183,379885351528151,148,14.3,-114.98494720458984,4.945000171661377,0,0.0,0.0,,,,,0,,6,,
Fix,gps,22.925526,120.294675,34.950134,0.000000,11.792000,1606987868000
NMEA,$GPGSV,3,1,10,03,19,282,34,04,14,320,16,22,21,260,32,26,63,341,18*71,1606987867488
NMEA,$GPGSV,3,2,10,27,25,187,14,31,46,040,16,32,37,143,21,16,54,261,*70,1606987867488
NMEA,$GPGSV,3,3,10,18,00,000,,29,18,045,*72,1606987867488
NMEA,$GLGSV,3,1,09,74,37,323,17,75,00,000,28,70,18,174,13,73,29,025,10*62,1606987867488
NMEA,$GLGSV,3,2,09,65,05,330,12,71,57,220,17,72,42,307,21,84,21,126,*64,1606987867488
NMEA,$GLGSV,3,3,09,83,18,064,*5C,1606987867491
NMEA,$GAGSV,2,1,06,03,17,319,19,25,40,274,14,05,66,286,,09,49,165,*63,1606987867491
NMEA,$GAGSV,2,2,06,24,00,000,,33,02,057,*68,1606987867491
NMEA,$PQGSV,1,1,03,193,41,168,16,194,61,032,13,195,44,132,16,0,5*6D,1606987867491
NMEA,$PQGSV,4,1,16,02,40,240,18,05,16,257,27,06,80,090,13,07,73,293,16,0,4*6E,1606987867492
NMEA,$PQGSV,4,2,16,09,64,334,20,14,23,303,20,21,41,206,16,24,18,285,30,0,4*67,1606987867492
NMEA,$PQGSV,4,3,16,26,47,333,15,01,52,129,,03,58,202,,04,37,115,,0,4*6C,1606987867492
NMEA,$PQGSV,4,4,16,10,52,251,,12,00,000,,16,82,070,,22,07,164,,0,4*61,1606987867492
NMEA,$GNGSA,A,3,03,04,16,22,27,32,,,,,,,1.5,1.2,0.9,1*3B,1606987867493
NMEA,$GNGSA,A,2,25,,,,,,,,,,,,1.5,1.2,0.9,3*3B,1606987867493
NMEA,$PQGSA,A,2,14,24,,,,,,,,,,,1.5,1.2,0.9,4*30,1606987867493
NMEA,$GNVTG,,T,,M,0.0,N,0.0,K,A*3D,1606987867493
NMEA,$GNRMC,093108.00,A,2255.531580,N,12017.680497,E,0.0,,031220,2.8,W,A*17,1606987867494
NMEA,$GNGGA,093108.00,2255.531580,N,12017.680497,E,1,09,1.2,17.5,M,17.5,M,,*40,1606987867494
Raw,17372565,17376499000000,,,-1291005709936673792,0.0,85.00919648213312,6.559866130898124,19.176833886666703,165,10,0.0,207,45068365242702,3074,16.8,13.807171821594238,37.374000549316406,0,0.0,0.0,,,,,0,,3,,
Raw,17372565,17376499000000,,,-1291005709936673792,0.0,85.00919648213312,6.559866130898124,19.176833886666703,165,11,0.0,207,45068361900068,19,27.6,-156.03836059570312,0.2428000122308731,0,0.0,0.0,,,,,0,,3,,
Raw,17372566,17376499000000,,,-1291005709936673792,0.0,85.00919648213312,6.559866130898124,19.176833886666703,165,6,0.0,207,45068359676366,2236,13.1,806.8207397460938,31.67500114440918,0,0.0,0.0,,,,,0,,3,,
Raw,17372566,17376499000000,,,-1291005709936673792,0.0,85.00919648213312,6.559866130898124,19.176833886666703,165,9,0.0,207,45068362992205,699,10.3,293.1116943359375,16.321001052856445,0,0.0,0.0,,,,,0,,3,,
Raw,17372566,17376499000000,,,-1291005709936673792,0.0,85.00919648213312,6.559866130898124,19.176833886666703,165,1,0.0,207,45068355699546,1281,12.3,-687.37255859375,23.569000244140625,0,0.0,0.0,,,,,0,,3,,
Raw,17372567,17376499000000,,,-1291005709936673792,0.0,85.00919648213312,6.559866130898124,19.176833886666703,165,7,0.0,207,45068369321291,99,16.5,393.0168762207031,3.630000114440918,0,0.0,0.0,,,,,0,,3,,
Raw,17372567,17376499000000,,,-1291005709936673792,0.0,85.00919648213312,6.559866130898124,19.176833886666703,165,8,0.0,207,45068366299670,61,18.6,-326.71612548828125,1.2055001258850098,0,0.0,0.0,,,,,0,,3,,
Raw,17372567,17376499000000,,,-1291005709936673792,0.0,85.00919648213312,6.559866130898124,19.176833886666703,165,3,0.0,15,379886356552813,10,34.8,41.23955535888672,0.04610000178217888,0,0.0,0.0,,,,,0,,1,,
Raw,17372567,17376499000000,,,-1291005709936673792,0.0,85.00919648213312,6.559866130898124,19.176833886666703,165,4,0.0,15,379886355005068,81,16.5,-643.2687377929688,1.1890000104904175,0,0.0,0.0,,,,,0,,1,,
Raw,17372567,17376499000000,,,-1291005709936673792,0.0,85.00919648213312,6.559866130898124,19.176833886666703,165,22,0.0,15,379886356089177,13,31.8,190.9022674560547,0.04920000210404396,0,0.0,0.0,,,,,0,,1,,
Raw,17372568,17376499000000,,,-1291005709936673792,0.0,85.00919648213312,6.559866130898124,19.176833886666703,165,26,0.0,15,379886367020730,754,18.0,193.4906005859375,2.556999921798706,0,0.0,0.0,,,,,0,,1,,
Raw,17372568,17376499000000,,,-1291005709936673792,0.0,85.00919648213312,6.559866130898124,19.176833886666703,165,27,0.0,15,379886358968989,186,14.2,-691.4796142578125,6.753500461578369,0,0.0,0.0,,,,,0,,1,,
Raw,17372568,17376499000000,,,-1291005709936673792,0.0,85.00919648213312,6.559866130898124,19.176833886666703,165,31,0.0,15,379886363348247,478,16.4,104.10015106201172,14.011000633239746,0,0.0,0.0,,,,,0,,1,,
Raw,17372568,17376499000000,,,-1291005709936673792,0.0,85.00919648213312,6.559866130898124,19.176833886666703,165,32,0.0,15,379886362096809,53,19.6,539.330322265625,0.9194999933242798,0,0.0,0.0,,,,,0,,1,,
Raw,17372568,17376499000000,,,-1291005709936673792,0.0,85.00919648213312,6.559866130898124,19.176833886666703,165,2,0.0,783,379872310664741,773,17.5,-0.019203949719667435,18.273500442504883,0,0.0,0.0,,,,,0,,5,,
Raw,17372569,17376499000000,,,-1291005709936673792,0.0,85.00919648213312,6.559866130898124,19.176833886666703,165,5,0.0,783,379872302447478,19,27.5,4.772181510925293,0.48350000381469727,0,0.0,0.0,,,,,0,,5,,
Raw,17372569,17376499000000,,,-1291005709936673792,0.0,85.00919648213312,6.559866130898124,19.176833886666703,165,6,0.0,15,379872316318542,221,13.1,-45.93584442138672,7.380500316619873,0,0.0,0.0,,,,,0,,5,,
Raw,17372569,17376499000000,,,-1291005709936673792,0.0,85.00919648213312,6.559866130898124,19.176833886666703,165,7,0.0,15,379872314345516,176,16.4,53.569419860839844,7.097500324249268,0,0.0,0.0,,,,,0,,5,,
Raw,17372569,17376499000000,,,-1291005709936673792,0.0,85.00919648213312,6.559866130898124,19.176833886666703,165,9,0.0,15,379872315349564,583,19.6,-130.4620361328125,15.869000434875488,0,0.0,0.0,,,,,0,,5,,
Raw,17372570,17376499000000,,,-1291005709936673792,0.0,85.00919648213312,6.559866130898124,19.176833886666703,165,14,0.0,15,379872352896772,124,14.4,-253.13685607910156,3.5245001316070557,0,0.0,0.0,,,,,0,,5,,
Raw,17372570,17376499000000,,,-1291005709936673792,0.0,85.00919648213312,6.559866130898124,19.176833886666703,165,21,0.0,15,379872357331561,121,15.5,460.2034606933594,4.191999912261963,0,0.0,0.0,,,,,0,,5,,
Raw,17372570,17376499000000,,,-1291005709936673792,0.0,85.00919648213312,6.559866130898124,19.176833886666703,165,24,0.0,15,379872350937149,13,31.8,-258.0060119628906,0.04020000249147415,0,0.0,0.0,,,,,0,,5,,
Raw,17372570,17376499000000,,,-1291005709936673792,0.0,85.00919648213312,6.559866130898124,19.176833886666703,165,26,0.0,15,379872360379262,266,15.1,-52.13872146606445,9.416500091552734,0,0.0,0.0,,,,,0,,5,,
Raw,17372571,17376499000000,,,-1291005709936673792,0.0,85.00919648213312,6.559866130898124,19.176833886666703,165,3,0.0,7183,379886345288025,53,19.2,-463.7076110839844,0.8119999766349792,0,0.0,0.0,,,,,0,,6,,
Raw,17372571,17376499000000,,,-1291005709936673792,0.0,85.00919648213312,6.559866130898124,19.176833886666703,165,25,0.0,7183,379886351528575,110,14.8,-116.49778747558594,1.9450000524520874,0,0.0,0.0,,,,,0,,6,,
Fix,gps,22.925526,120.294675,34.945862,0.000000,10.720000,1606987869000
NMEA,$GPGSV,3,1,10,03,19,282,35,04,14,320,17,22,21,260,32,26,63,341,18*71,1606987868486
NMEA,$GPGSV,3,2,10,27,25,187,14,31,46,040,16,32,37,143,20,16,54,261,*71,1606987868487
NMEA,$GPGSV,3,3,10,18,00,000,,29,18,045,*72,1606987868487
NMEA,$GLGSV,3,1,09,74,37,323,17,75,00,000,28,70,18,174,13,73,29,025,10*62,1606987868489
NMEA,$GLGSV,3,2,09,65,05,330,12,71,57,220,17,72,42,307,19,84,21,126,*6F,1606987868490
NMEA,$GLGSV,3,3,09,83,18,064,*5C,1606987868491
NMEA,$GAGSV,2,1,06,03,17,319,19,25,40,274,15,05,66,286,,09,49,165,*62,1606987868492
NMEA,$GAGSV,2,2,06,24,00,000,,33,02,057,*68,1606987868492
NMEA,$PQGSV,1,1,03,193,41,168,16,194,61,032,13,195,44,132,16,0,5*6D,1606987868492
NMEA,$PQGSV,4,1,16,02,40,240,18,05,16,257,28,06,80,090,13,07,73,293,16,0,4*61,1606987868493
NMEA,$PQGSV,4,2,16,09,64,334,20,14,23,303,14,21,41,206,16,24,18,285,32,0,4*62,1606987868493
NMEA,$PQGSV,4,3,16,26,47,333,15,01,52,129,,03,58,202,,04,37,115,,0,4*6C,1606987868495
NMEA,$PQGSV,4,4,16,10,52,251,,12,00,000,,16,82,070,,22,07,164,,0,4*61,1606987868496
NMEA,$GNGSA,A,3,03,04,16,22,26,27,32,,,,,,1.6,1.2,0.9,1*3C,1606987868497
NMEA,$GNGSA,A,2,25,,,,,,,,,,,,1.6,1.2,0.9,3*38,1606987868497
NMEA,$PQGSA,A,2,14,24,,,,,,,,,,,1.6,1.2,0.9,4*33,1606987868497
NMEA,$GNVTG,,T,,M,0.0,N,0.0,K,A*3D,1606987868497
NMEA,$GNRMC,093109.00,A,2255.531579,N,12017.680483,E,0.0,,031220,2.8,W,A*15,1606987868497
NMEA,$GNGGA,093109.00,2255.531579,N,12017.680483,E,1,10,1.2,17.5,M,17.5,M,,*4A,1606987868498
NMEA,$GPGSV,3,1,10,03,19,282,36,04,14,320,17,22,21,260,33,26,63,341,18*73,1606987869486
NMEA,$GPGSV,3,2,10,27,25,187,14,31,46,040,16,32,37,143,20,16,54,261,*71,1606987869486
Raw,17373570,17377499000000,,,-1291005709936673792,0.0,81.47086919052526,2.680153893254956,19.074666012850415,165,11,0.0,207,45069361900599,19,27.3,-156.05496215820312,0.2428000122308731,0,0.0,0.0,,,,,0,,3,,
Raw,17373571,17377499000000,,,-1291005709936673792,0.0,81.47086919052526,2.680153893254956,19.074666012850415,165,6,0.0,207,45069359673674,2447,13.1,806.8207397460938,33.17500305175781,0,0.0,0.0,,,,,0,,3,,
Raw,17373571,17377499000000,,,-1291005709936673792,0.0,81.47086919052526,2.680153893254956,19.074666012850415,165,9,0.0,207,45069362991228,806,10.3,293.1116943359375,17.821001052856445,0,0.0,0.0,,,,,0,,3,,
Raw,17373572,17377499000000,,,-1291005709936673792,0.0,81.47086919052526,2.680153893254956,19.074666012850415,165,1,0.0,207,45069355701839,1437,12.3,-687.37255859375,25.069000244140625,0,0.0,0.0,,,,,0,,3,,
Raw,17373572,17377499000000,,,-1291005709936673792,0.0,81.47086919052526,2.680153893254956,19.074666012850415,165,7,0.0,207,45069369319885,73,17.9,392.58721923828125,2.0399999618530273,0,0.0,0.0,,,,,0,,3,,
Raw,17373572,17377499000000,,,-1291005709936673792,0.0,81.47086919052526,2.680153893254956,19.074666012850415,165,8,0.0,207,45069366300784,61,18.6,-326.4920349121094,1.2055001258850098,0,0.0,0.0,,,,,0,,3,,
Raw,17373573,17377499000000,,,-1291005709936673792,0.0,81.47086919052526,2.680153893254956,19.074666012850415,165,3,0.0,15,379887356552660,9,35.9,41.22468185424805,0.04560000076889992,0,0.0,0.0,,,,,0,,1,,
Raw,17373573,17377499000000,,,-1291005709936673792,0.0,81.47086919052526,2.680153893254956,19.074666012850415,165,4,0.0,15,379887355007214,90,16.5,-643.2687377929688,2.689000129699707,0,0.0,0.0,,,,,0,,1,,
Raw,17373574,17377499000000,,,-1291005709936673792,0.0,81.47086919052526,2.680153893254956,19.074666012850415,165,22,0.0,15,379887356088530,11,33.2,190.8623046875,0.04690000042319298,0,0.0,0.0,,,,,0,,1,,
Raw,17373574,17377499000000,,,-1291005709936673792,0.0,81.47086919052526,2.680153893254956,19.074666012850415,165,26,0.0,15,379887367020081,762,17.7,193.1480712890625,3.307000160217285,0,0.0,0.0,,,,,0,,1,,
Raw,17373575,17377499000000,,,-1291005709936673792,0.0,81.47086919052526,2.680153893254956,19.074666012850415,165,27,0.0,15,379887358971295,231,14.2,-691.4796142578125,8.253499984741211,0,0.0,0.0,,,,,0,,1,,
Raw,17373576,17377499000000,,,-1291005709936673792,0.0,81.47086919052526,2.680153893254956,19.074666012850415,165,31,0.0,15,379887363347899,573,16.4,104.10015106201172,15.511000633239746,0,0.0,0.0,,,,,0,,1,,
Raw,17373576,17377499000000,,,-1291005709936673792,0.0,81.47086919052526,2.680153893254956,19.074666012850415,165,32,0.0,15,379887362094992,46,20.0,539.0448608398438,0.9194999933242798,0,0.0,0.0,,,,,0,,1,,
Raw,17373577,17377499000000,,,-1291005709936673792,0.0,81.47086919052526,2.680153893254956,19.074666012850415,165,2,0.0,783,379873310664742,896,17.5,-0.019203949719667435,19.773500442504883,0,0.0,0.0,,,,,0,,5,,
Raw,17373578,17377499000000,,,-1291005709936673792,0.0,81.47086919052526,2.680153893254956,19.074666012850415,165,5,0.0,783,379873302447458,16,29.9,2.842184543609619,0.3935000002384186,0,0.0,0.0,,,,,0,,5,,
Raw,17373578,17377499000000,,,-1291005709936673792,0.0,81.47086919052526,2.680153893254956,19.074666012850415,165,6,0.0,15,379873316318695,271,13.1,-45.93584442138672,8.880500793457031,0,0.0,0.0,,,,,0,,5,,
Raw,17373578,17377499000000,,,-1291005709936673792,0.0,81.47086919052526,2.680153893254956,19.074666012850415,165,7,0.0,15,379873314345337,225,16.4,53.569419860839844,8.59749984741211,0,0.0,0.0,,,,,0,,5,,
Raw,17373578,17377499000000,,,-1291005709936673792,0.0,81.47086919052526,2.680153893254956,19.074666012850415,165,9,0.0,15,379873315349999,692,19.6,-130.4620361328125,17.369001388549805,0,0.0,0.0,,,,,0,,5,,
Raw,17373578,17377499000000,,,-1291005709936673792,0.0,81.47086919052526,2.680153893254956,19.074666012850415,165,14,0.0,15,379873352897610,70,17.7,-252.7431640625,1.0145000219345093,0,0.0,0.0,,,,,0,,5,,
Raw,17373579,17377499000000,,,-1291005709936673792,0.0,81.47086919052526,2.680153893254956,19.074666012850415,165,21,0.0,15,379873357329996,110,14.6,458.8975830078125,2.0320000648498535,0,0.0,0.0,,,,,0,,5,,
Raw,17373579,17377499000000,,,-1291005709936673792,0.0,81.47086919052526,2.680153893254956,19.074666012850415,165,24,0.0,15,379873350938009,12,32.6,-258.1344909667969,0.03890000283718109,0,0.0,0.0,,,,,0,,5,,
Raw,17373579,17377499000000,,,-1291005709936673792,0.0,81.47086919052526,2.680153893254956,19.074666012850415,165,26,0.0,15,379873360379436,330,15.1,-52.13872146606445,10.916500091552734,0,0.0,0.0,,,,,0,,5,,
Raw,17373579,17377499000000,,,-1291005709936673792,0.0,81.47086919052526,2.680153893254956,19.074666012850415,165,3,0.0,7183,379887345289583,70,17.7,-462.87982177734375,0.9419999718666077,0,0.0,0.0,,,,,0,,6,,
Raw,17373579,17377499000000,,,-1291005709936673792,0.0,81.47086919052526,2.680153893254956,19.074666012850415,165,25,0.0,7183,379887351528962,53,19.0,-116.31700897216797,0.8149999976158142,0,0.0,0.0,,,,,0,,6,,
Fix,gps,22.925526,120.294675,34.939697,0.000000,10.720000,1606987870000
NMEA,$GPGSV,3,3,10,18,00,000,,29,18,045,*72,1606987869486
NMEA,$GLGSV,2,1,08,75,00,000,27,70,18,174,13,73,29,025,10,65,05,330,12*6B,1606987869488
NMEA,$GLGSV,2,2,08,71,57,220,18,72,42,307,19,84,21,126,,83,18,064,*65,1606987869490
NMEA,$GAGSV,2,1,06,03,17,319,18,25,40,274,19,05,66,286,,09,49,165,*6F,1606987869490
NMEA,$GAGSV,2,2,06,24,00,000,,33,02,057,*68,1606987869491
NMEA,$PQGSV,1,1,03,193,41,168,16,194,61,032,13,195,44,132,16,0,5*6D,1606987869491
NMEA,$PQGSV,4,1,16,02,40,240,18,05,16,257,30,06,80,090,13,07,73,293,16,0,4*68,1606987869492
NMEA,$PQGSV,4,2,16,09,64,334,20,14,23,303,18,21,41,206,15,24,18,285,33,0,4*6C,1606987869493
NMEA,$PQGSV,4,3,16,26,47,333,15,01,52,129,,03,58,202,,04,37,115,,0,4*6C,1606987869493
NMEA,$PQGSV,4,4,16,10,52,251,,12,00,000,,16,82,070,,22,07,164,,0,4*61,1606987869493
NMEA,$GNGSA,A,3,03,04,22,26,27,32,,,,,,,1.6,1.2,0.9,1*3B,1606987869495
NMEA,$GNGSA,A,2,25,,,,,,,,,,,,1.6,1.2,0.9,3*38,1606987869496
NMEA,$PQGSA,A,2,14,24,,,,,,,,,,,1.6,1.2,0.9,4*33,1606987869497
NMEA,$GNVTG,,T,,M,0.0,N,0.0,K,A*3D,1606987869498
NMEA,$GNRMC,093110.00,A,2255.531578,N,12017.680475,E,0.0,,031220,2.8,W,A*15,1606987869499
NMEA,$GNGGA,093110.00,2255.531578,N,12017.680475,E,1,09,1.2,17.5,M,17.5,M,,*42,1606987869499
Raw,17374666,17378499000000,,,-1291005709936673792,0.0,79.14173329481855,2.164399104877726,19.02199310894749,165,11,0.0,207,45070361901168,19,27.9,-156.70297241210938,0.2428000122308731,0,0.0,0.0,,,,,0,,3,,
Raw,17374666,17378499000000,,,-1291005709936673792,0.0,79.14173329481855,2.164399104877726,19.02199310894749,165,6,0.0,207,45070359670983,2667,13.1,806.8207397460938,34.67500305175781,0,0.0,0.0,,,,,0,,3,,
Raw,17374667,17378499000000,,,-1291005709936673792,0.0,79.14173329481855,2.164399104877726,19.02199310894749,165,9,0.0,207,45070362990250,923,10.3,293.1116943359375,19.321001052856445,0,0.0,0.0,,,,,0,,3,,
Raw,17374667,17378499000000,,,-1291005709936673792,0.0,79.14173329481855,2.164399104877726,19.02199310894749,165,1,0.0,207,45070355704132,1604,12.3,-687.37255859375,26.569002151489258,0,0.0,0.0,,,,,0,,3,,
Raw,17374667,17378499000000,,,-1291005709936673792,0.0,79.14173329481855,2.164399104877726,19.02199310894749,165,7,0.0,207,45070369318570,46,20.1,392.54052734375,1.059999942779541,0,0.0,0.0,,,,,0,,3,,
Raw,17374667,17378499000000,,,-1291005709936673792,0.0,79.14173329481855,2.164399104877726,19.02199310894749,165,8,0.0,207,45070366302030,53,19.9,-327.0616149902344,1.1255000829696655,0,0.0,0.0,,,,,0,,3,,
Raw,17374667,17378499000000,,,-1291005709936673792,0.0,79.14173329481855,2.164399104877726,19.02199310894749,165,3,0.0,15,379888356552546,8,36.2,40.72053527832031,0.04520000144839287,0,0.0,0.0,,,,,0,,1,,
Raw,17374667,17378499000000,,,-1291005709936673792,0.0,79.14173329481855,2.164399104877726,19.02199310894749,165,4,0.0,15,379888355009359,109,16.5,-643.2687377929688,4.189000129699707,0,0.0,0.0,,,,,0,,1,,
Raw,17374667,17378499000000,,,-1291005709936673792,0.0,79.14173329481855,2.164399104877726,19.02199310894749,165,22,0.0,15,379888356087905,12,32.7,190.3333282470703,0.0479000024497509,0,0.0,0.0,,,,,0,,1,,
Raw,17374668,17378499000000,,,-1291005709936673792,0.0,79.14173329481855,2.164399104877726,19.02199310894749,165,27,0.0,15,379888358973602,286,14.2,-691.4796142578125,9.753499984741211,0,0.0,0.0,,,,,0,,1,,
Raw,17374668,17378499000000,,,-1291005709936673792,0.0,79.14173329481855,2.164399104877726,19.02199310894749,165,31,0.0,15,379888363347552,677,16.4,104.10015106201172,17.011001586914062,0,0.0,0.0,,,,,0,,1,,
Raw,17374668,17378499000000,,,-1291005709936673792,0.0,79.14173329481855,2.164399104877726,19.02199310894749,165,32,0.0,15,379888362093123,46,20.7,538.626220703125,0.8495000004768372,0,0.0,0.0,,,,,0,,1,,
Raw,17374668,17378499000000,,,-1291005709936673792,0.0,79.14173329481855,2.164399104877726,19.02199310894749,165,3,0.0,7183,379888345291127,78,17.7,-462.87982177734375,2.442000150680542,0,0.0,0.0,,,,,0,,6,,
Raw,17374668,17378499000000,,,-1291005709936673792,0.0,79.14173329481855,2.164399104877726,19.02199310894749,165,25,0.0,7183,379888351529415,70,17.7,-116.75467681884766,0.9449999928474426,0,0.0,0.0,,,,,0,,6,,
Fix,gps,22.925526,120.294674,34.947266,0.000000,10.720000,1606987871000
NMEA,$GPGSV,3,1,10,03,19,282,36,04,14,320,17,22,21,260,33,27,25,187,14*74,1606987870504
NMEA,$GPGSV,3,2,10,31,46,040,16,32,37,143,21,16,54,261,,18,00,000,*70,1606987870506
NMEA,$GPGSV,3,3,10,26,63,341,,29,18,045,*7C,1606987870514
NMEA,$GLGSV,3,1,09,75,00,000,28,70,18,174,13,73,29,025,10,65,05,330,12*64,1606987870514
NMEA,$GLGSV,3,2,09,71,57,220,20,72,42,307,20,74,37,323,,84,21,126,*61,1606987870515
NMEA,$GLGSV,3,3,09,83,18,064,*5C,1606987870515
NMEA,$GAGSV,2,1,06,03,17,319,18,25,40,274,18,05,66,286,,09,49,165,*6E,1606987870515
NMEA,$GAGSV,2,2,06,24,00,000,,33,02,057,*68,1606987870515
NMEA,$PQGSV,1,1,03,193,41,168,16,194,61,032,13,195,44,132,16,0,5*6D,1606987870515
NMEA,$PQGSV,4,1,16,02,40,240,17,05,16,257,29,06,80,090,13,07,73,293,16,0,4*6F,1606987870516
NMEA,$PQGSV,4,2,16,09,64,334,12,14,23,303,18,16,82,070,16,21,41,206,15,0,4*60,1606987870516
NMEA,$PQGSV,4,3,16,24,18,285,32,26,47,333,15,01,52,129,,03,58,202,,0,4*68,1606987870516
NMEA,$PQGSV,4,4,16,04,37,115,,10,52,251,,12,00,000,,22,07,164,,0,4*6E,1606987870516
NMEA,$GNGSA,A,3,03,04,22,26,27,32,,,,,,,1.6,1.2,0.9,1*3B,1606987870517
NMEA,$GNGSA,A,2,25,,,,,,,,,,,,1.6,1.2,0.9,3*38,1606987870517
NMEA,$PQGSA,A,2,14,24,,,,,,,,,,,1.6,1.2,0.9,4*33,1606987870517
NMEA,$GNVTG,,T,,M,0.0,N,0.0,K,A*3D,1606987870518
NMEA,$GNRMC,093111.00,A,2255.531578,N,12017.680468,E,0.0,,031220,2.8,W,A*18,1606987870518
NMEA,$GNGGA,093111.00,2255.531578,N,12017.680468,E,1,09,1.2,17.5,M,17.5,M,,*4F,1606987870518
NMEA,$GPGSV,3,1,10,03,19,282,35,04,14,320,16,16,54,261,17,22,21,260,32*7B,1606987871509
Fix,gps,22.925526,120.294674,34.947632,0.000000,10.720000,1606987872000
Raw,17375616,17379499000000,,,-1291005709936673792,0.0,78.97173054516315,1.275648331265141,18.97499531439128,165,11,0.0,207,45071361901631,19,27.0,-155.64227294921875,0.2428000122308731,0,0.0,0.0,,,,,0,,3,,
Raw,17375616,17379499000000,,,-1291005709936673792,0.0,78.97173054516315,1.275648331265141,18.97499531439128,165,6,0.0,207,45071359668292,2898,13.1,806.8207397460938,36.17500305175781,0,0.0,0.0,,,,,0,,3,,
Raw,17375617,17379499000000,,,-1291005709936673792,0.0,78.97173054516315,1.275648331265141,18.97499531439128,165,9,0.0,207,45071362989272,1050,10.3,293.1116943359375,20.821001052856445,0,0.0,0.0,,,,,0,,3,,
Raw,17375617,17379499000000,,,-1291005709936673792,0.0,78.97173054516315,1.275648331265141,18.97499531439128,165,1,0.0,207,45071355706425,1780,12.3,-687.37255859375,28.069002151489258,0,0.0,0.0,,,,,0,,3,,
Raw,17375617,17379499000000,,,-1291005709936673792,0.0,78.97173054516315,1.275648331265141,18.97499531439128,165,7,0.0,207,45071369317398,53,19.2,393.7547607421875,1.1299999952316284,0,0.0,0.0,,,,,0,,3,,
Raw,17375617,17379499000000,,,-1291005709936673792,0.0,78.97173054516315,1.275648331265141,18.97499531439128,165,8,0.0,207,45071366302821,61,18.1,-327.0616149902344,1.2055001258850098,0,0.0,0.0,,,,,0,,3,,
Raw,17375618,17379499000000,,,-1291005709936673792,0.0,78.97173054516315,1.275648331265141,18.97499531439128,165,3,0.0,15,379889356552393,9,35.3,41.93083190917969,0.04560000076889992,0,0.0,0.0,,,,,0,,1,,
Raw,17375618,17379499000000,,,-1291005709936673792,0.0,78.97173054516315,1.275648331265141,18.97499531439128,165,4,0.0,15,379889355011348,102,15.9,-641.8605346679688,2.7790000438690186,0,0.0,0.0,,,,,0,,1,,
Raw,17375618,17379499000000,,,-1291005709936673792,0.0,78.97173054516315,1.275648331265141,18.97499531439128,165,16,0.0,15,379889366224491,867,17.1,-189.1328887939453,2.4804999828338623,0,0.0,0.0,,,,,0,,1,,
Raw,17375618,17379499000000,,,-1291005709936673792,0.0,78.97173054516315,1.275648331265141,18.97499531439128,165,22,0.0,15,379889356087272,13,31.5,191.51292419433594,0.04920000210404396,0,0.0,0.0,,,,,0,,1,,
Raw,17375619,17379499000000,,,-1291005709936673792,0.0,78.97173054516315,1.275648331265141,18.97499531439128,165,27,0.0,15,379889358975909,351,14.2,-691.4796142578125,11.253500938415527,0,0.0,0.0,,,,,0,,1,,
Raw,17375619,17379499000000,,,-1291005709936673792,0.0,78.97173054516315,1.275648331265141,18.97499531439128,165,31,0.0,15,379889363347205,791,16.4,104.10015106201172,18.511001586914062,0,0.0,0.0,,,,,0,,1,,
Raw,17375619,17379499000000,,,-1291005709936673792,0.0,78.97173054516315,1.275648331265141,18.97499531439128,165,32,0.0,15,379889362091426,46,20.6,539.2732543945312,0.8495000004768372,0,0.0,0.0,,,,,0,,1,,
Raw,17375620,17379499000000,,,-1291005709936673792,0.0,78.97173054516315,1.275648331265141,18.97499531439128,165,2,0.0,783,379875310664227,241,17.1,14.32614517211914,9.273500442504883,0,0.0,0.0,,,,,0,,5,,
Raw,17375620,17379499000000,,,-1291005709936673792,0.0,78.97173054516315,1.275648331265141,18.97499531439128,165,5,0.0,783,379875302447456,16,29.4,3.30307936668396,0.41350001096725464,0,0.0,0.0,,,,,0,,5,,
Raw,17375620,17379499000000,,,-1291005709936673792,0.0,78.97173054516315,1.275648331265141,18.97499531439128,165,6,0.0,15,379875316319001,400,13.1,-45.93584442138672,11.880500793457031,0,0.0,0.0,,,,,0,,5,,
Raw,17375620,17379499000000,,,-1291005709936673792,0.0,78.97173054516315,1.275648331265141,18.97499531439128,165,7,0.0,15,379875314344980,352,16.4,53.569419860839844,11.597500801086426,0,0.0,0.0,,,,,0,,5,,
Raw,17375621,17379499000000,,,-1291005709936673792,0.0,78.97173054516315,1.275648331265141,18.97499531439128,165,9,0.0,15,379875315350790,404,11.8,-128.48402404785156,11.249000549316406,0,0.0,0.0,,,,,0,,5,,
Raw,17375621,17379499000000,,,-1291005709936673792,0.0,78.97173054516315,1.275648331265141,18.97499531439128,165,14,0.0,15,379875352899302,53,19.6,-253.30007934570312,0.8644999861717224,0,0.0,0.0,,,,,0,,5,,
Raw,17375621,17379499000000,,,-1291005709936673792,0.0,78.97173054516315,1.275648331265141,18.97499531439128,165,16,0.0,15,379875315745490,82,16.7,-35.02800369262695,1.593999981880188,0,0.0,0.0,,,,,0,,5,,
Raw,17375621,17379499000000,,,-1291005709936673792,0.0,78.97173054516315,1.275648331265141,18.97499531439128,165,21,0.0,15,379875357326884,110,14.5,459.53131103515625,2.0320000648498535,0,0.0,0.0,,,,,0,,5,,
Raw,17375622,17379499000000,,,-1291005709936673792,0.0,78.97173054516315,1.275648331265141,18.97499531439128,165,24,0.0,15,379875350939738,13,31.7,-257.6005859375,0.04020000249147415,0,0.0,0.0,,,,,0,,5,,
Raw,17375622,17379499000000,,,-1291005709936673792,0.0,78.97173054516315,1.275648331265141,18.97499531439128,165,26,0.0,15,379875360379716,198,12.9,-53.01250457763672,5.856500148773193,0,0.0,0.0,,,,,0,,5,,
Raw,17375622,17379499000000,,,-1291005709936673792,0.0,78.97173054516315,1.275648331265141,18.97499531439128,165,3,0.0,7183,379889345292718,64,18.0,-464.06915283203125,1.621999979019165,0,0.0,0.0,,,,,0,,6,,
Raw,17375622,17379499000000,,,-1291005709936673792,0.0,78.97173054516315,1.275648331265141,18.97499531439128,165,25,0.0,7183,379889351529763,70,17.4,-115.89835357666016,0.9449999928474426,0,0.0,0.0,,,,,0,,6,,
NMEA,$GPGSV,3,2,10,27,25,187,14,31,46,040,16,32,37,143,21,18,00,000,*7A,1606987871510
NMEA,$GPGSV,3,3,10,26,63,341,,29,18,045,*7C,1606987871510
NMEA,$GLGSV,3,1,09,75,00,000,27,70,18,174,13,73,29,025,10,65,05,330,12*6B,1606987871511
NMEA,$GLGSV,3,2,09,71,57,220,19,72,42,307,18,74,37,323,,84,21,126,*60,1606987871511
NMEA,$GLGSV,3,3,09,83,18,064,*5C,1606987871512
NMEA,$GAGSV,2,1,06,03,17,319,18,25,40,274,17,05,66,286,,09,49,165,*61,1606987871512
NMEA,$GAGSV,2,2,06,24,00,000,,33,02,057,*68,1606987871513
NMEA,$PQGSV,1,1,03,193,41,168,16,194,61,032,13,195,44,132,16,0,5*6D,1606987871514
NMEA,$PQGSV,4,1,16,02,40,240,17,05,16,257,29,06,80,090,13,07,73,293,16,0,4*6F,1606987871514
NMEA,$PQGSV,4,2,16,09,64,334,12,14,23,303,20,16,82,070,17,21,41,206,15,0,4*6A,1606987871517
NMEA,$PQGSV,4,3,16,24,18,285,32,26,47,333,13,01,52,129,,03,58,202,,0,4*6E,1606987871518
NMEA,$PQGSV,4,4,16,04,37,115,,10,52,251,,12,00,000,,22,07,164,,0,4*6E,1606987871519
NMEA,$GNGSA,A,3,03,04,22,26,27,32,,,,,,,1.6,1.2,0.9,1*3B,1606987871522
NMEA,$GNGSA,A,2,25,,,,,,,,,,,,1.6,1.2,0.9,3*38,1606987871524
NMEA,$PQGSA,A,2,14,24,,,,,,,,,,,1.6,1.2,0.9,4*33,1606987871524
NMEA,$GNVTG,,T,,M,0.0,N,0.0,K,A*3D,1606987871525
NMEA,$GNRMC,093112.00,A,2255.531578,N,12017.680465,E,0.0,,031220,2.8,W,A*16,1606987871526
NMEA,$GNGGA,093112.00,2255.531578,N,12017.680465,E,1,09,1.2,17.5,M,17.5,M,,*41,1606987871526
NMEA,$GPGSV,3,1,10,03,19,282,36,04,14,320,16,16,54,261,17,22,21,260,33*79,1606987872503
NMEA,$GPGSV,3,2,10,27,25,187,14,31,46,040,16,32,37,143,21,18,00,000,*7A,1606987872504
Raw,17376609,17380499000000,,,-1291005709936673792,0.0,76.54931687284261,3.304050291975636,17.8794685796313,165,11,0.0,207,45072361902149,17,28.3,-154.83399963378906,0.23480001091957092,0,0.0,0.0,,,,,0,,3,,
Raw,17376609,17380499000000,,,-1291005709936673792,0.0,76.54931687284261,3.304050291975636,17.8794685796313,165,6,0.0,207,45072359665601,3139,13.1,806.8207397460938,37.67500305175781,0,0.0,0.0,,,,,0,,3,,
Raw,17376610,17380499000000,,,-1291005709936673792,0.0,76.54931687284261,3.304050291975636,17.8794685796313,165,9,0.0,207,45072362988295,1187,10.3,293.1116943359375,22.321001052856445,0,0.0,0.0,,,,,0,,3,,
Raw,17376610,17380499000000,,,-1291005709936673792,0.0,76.54931687284261,3.304050291975636,17.8794685796313,165,1,0.0,207,45072355708718,1966,12.3,-687.37255859375,29.569002151489258,0,0.0,0.0,,,,,0,,3,,
Raw,17376610,17380499000000,,,-1291005709936673792,0.0,76.54931687284261,3.304050291975636,17.8794685796313,165,7,0.0,207,45072369315967,61,18.6,394.3245544433594,1.2100000381469727,0,0.0,0.0,,,,,0,,3,,
Raw,17376610,17380499000000,,,-1291005709936673792,0.0,76.54931687284261,3.304050291975636,17.8794685796313,165,8,0.0,207,45072366303853,46,20.8,-325.01678466796875,1.0555000305175781,0,0.0,0.0,,,,,0,,3,,
Raw,17376611,17380499000000,,,-1291005709936673792,0.0,76.54931687284261,3.304050291975636,17.8794685796313,165,3,0.0,15,379890356552251,9,35.9,42.71363830566406,0.04560000076889992,0,0.0,0.0,,,,,0,,1,,
Raw,17376611,17380499000000,,,-1291005709936673792,0.0,76.54931687284261,3.304050291975636,17.8794685796313,165,4,0.0,15,379890355013489,121,15.9,-641.8605346679688,4.279000282287598,0,0.0,0.0,,,,,0,,1,,
Raw,17376611,17380499000000,,,-1291005709936673792,0.0,76.54931687284261,3.304050291975636,17.8794685796313,165,16,0.0,15,379890366225105,874,17.0,-188.8188934326172,3.2304999828338623,0,0.0,0.0,,,,,0,,1,,
Raw,17376611,17380499000000,,,-1291005709936673792,0.0,76.54931687284261,3.304050291975636,17.8794685796313,165,22,0.0,15,379890356086623,12,32.9,192.26300048828125,0.0479000024497509,0,0.0,0.0,,,,,0,,1,,
Raw,17376611,17380499000000,,,-1291005709936673792,0.0,76.54931687284261,3.304050291975636,17.8794685796313,165,27,0.0,15,379890358978215,426,14.2,-691.4796142578125,12.753500938415527,0,0.0,0.0,,,,,0,,1,,
Raw,17376612,17380499000000,,,-1291005709936673792,0.0,76.54931687284261,3.304050291975636,17.8794685796313,165,31,0.0,15,379890363346858,916,16.4,104.10015106201172,20.011001586914062,0,0.0,0.0,,,,,0,,1,,
Raw,17376612,17380499000000,,,-1291005709936673792,0.0,76.54931687284261,3.304050291975636,17.8794685796313,165,32,0.0,15,379890362089630,46,20.6,540.1485595703125,0.8495000004768372,0,0.0,0.0,,,,,0,,1,,
Raw,17376612,17380499000000,,,-1291005709936673792,0.0,76.54931687284261,3.304050291975636,17.8794685796313,165,2,0.0,783,379876310664180,304,17.1,14.32614517211914,10.773500442504883,0,0.0,0.0,,,,,0,,5,,
Raw,17376612,17380499000000,,,-1291005709936673792,0.0,76.54931687284261,3.304050291975636,17.8794685796313,165,5,0.0,783,379876302447420,17,28.6,8.3441162109375,0.44350001215934753,0,0.0,0.0,,,,,0,,5,,
Raw,17376612,17380499000000,,,-1291005709936673792,0.0,76.54931687284261,3.304050291975636,17.8794685796313,165,6,0.0,15,379876316319155,480,13.1,-45.93584442138672,13.380500793457031,0,0.0,0.0,,,,,0,,5,,
Raw,17376612,17380499000000,,,-1291005709936673792,0.0,76.54931687284261,3.304050291975636,17.8794685796313,165,7,0.0,15,379876314344747,219,12.5,52.321163177490234,6.747500419616699,0,0.0,0.0,,,,,0,,5,,
Raw,17376613,17380499000000,,,-1291005709936673792,0.0,76.54931687284261,3.304050291975636,17.8794685796313,165,9,0.0,15,379876315351232,84,16.2,-127.57183074951172,1.8489999771118164,0,0.0,0.0,,,,,0,,5,,
Raw,17376613,17380499000000,,,-1291005709936673792,0.0,76.54931687284261,3.304050291975636,17.8794685796313,165,14,0.0,15,379876352900095,46,20.1,-251.42770385742188,0.8044999837875366,0,0.0,0.0,,,,,0,,5,,
Raw,17376613,17380499000000,,,-1291005709936673792,0.0,76.54931687284261,3.304050291975636,17.8794685796313,165,16,0.0,15,379876315745607,94,16.7,-35.02800369262695,3.0940001010894775,0,0.0,0.0,,,,,0,,5,,
Raw,17376613,17380499000000,,,-1291005709936673792,0.0,76.54931687284261,3.304050291975636,17.8794685796313,165,21,0.0,15,379876357325351,124,14.5,459.53131103515625,3.5320000648498535,0,0.0,0.0,,,,,0,,5,,
Raw,17376613,17380499000000,,,-1291005709936673792,0.0,76.54931687284261,3.304050291975636,17.8794685796313,165,24,0.0,15,379876350940593,12,32.1,-256.8962097167969,0.03890000283718109,0,0.0,0.0,,,,,0,,5,,
Raw,17376614,17380499000000,,,-1291005709936673792,0.0,76.54931687284261,3.304050291975636,17.8794685796313,165,26,0.0,15,379876360379893,238,12.9,-53.01250457763672,7.356500148773193,0,0.0,0.0,,,,,0,,5,,
Raw,17376614,17380499000000,,,-1291005709936673792,0.0,76.54931687284261,3.304050291975636,17.8794685796313,165,3,0.0,7183,379890345294192,53,19.9,-462.3375244140625,0.8119999766349792,0,0.0,0.0,,,,,0,,6,,
Raw,17376614,17380499000000,,,-1291005709936673792,0.0,76.54931687284261,3.304050291975636,17.8794685796313,165,25,0.0,7183,379890351530109,40,21.0,-115.05155944824219,0.6949999928474426,0,0.0,0.0,,,,,0,,6,,
Fix,gps,22.925526,120.294674,34.944458,0.000000,10.720000,1606987873000
NMEA,$GPGSV,3,3,10,26,63,341,,29,18,045,*7C,1606987872504
NMEA,$GLGSV,3,1,09,75,00,000,28,70,18,174,13,73,29,025,10,65,05,330,12*64,1606987872505
NMEA,$GLGSV,3,2,09,71,57,220,19,72,42,307,21,74,37,323,,84,21,126,*6A,1606987872513
NMEA,$GLGSV,3,3,09,83,18,064,*5C,1606987872513
NMEA,$GAGSV,2,1,06,03,17,319,20,25,40,274,21,05,66,286,,09,49,165,*6F,1606987872514
NMEA,$GAGSV,2,2,06,24,00,000,,33,02,057,*68,1606987872515
NMEA,$PQGSV,1,1,03,193,41,168,16,194,61,032,13,195,44,132,16,0,5*6D,1606987872516
NMEA,$PQGSV,4,1,16,02,40,240,17,05,16,257,29,06,80,090,13,07,73,293,13,0,4*6A,1606987872517
NMEA,$PQGSV,4,2,16,09,64,334,16,14,23,303,20,16,82,070,17,21,41,206,15,0,4*6E,1606987872517
NMEA,$PQGSV,4,3,16,24,18,285,32,26,47,333,13,01,52,129,,03,58,202,,0,4*6E,1606987872518
NMEA,$PQGSV,4,4,16,04,37,115,,10,52,251,,12,00,000,,22,07,164,,0,4*6E,1606987872519
NMEA,$GNGSA,A,3,03,04,22,26,27,32,,,,,,,1.7,1.4,0.9,1*3C,1606987872521
NMEA,$GNGSA,A,2,25,,,,,,,,,,,,1.7,1.4,0.9,3*3F,1606987872522
NMEA,$PQGSA,A,2,14,24,,,,,,,,,,,1.7,1.4,0.9,4*34,1606987872522
NMEA,$GNVTG,,T,,M,0.0,N,0.0,K,A*3D,1606987872523
NMEA,$GNRMC,093113.00,A,2255.531579,N,12017.680463,E,0.0,,031220,2.8,W,A*10,1606987872524
NMEA,$GNGGA,093113.00,2255.531579,N,12017.680463,E,1,09,1.4,17.5,M,17.5,M,,*41,1606987872524
NMEA,$GPGSV,3,1,10,03,19,282,35,04,14,320,15,22,21,260,31,27,25,187,13*70,1606987873487
Raw,17377679,17381499000000,,,-1291005709936673792,0.0,76.54256478417665,4.624414067119244,18.831937387019718,165,11,0.0,207,45073361902642,17,28.8,-156.59840393066406,0.23480001091957092,0,0.0,0.0,,,,,0,,3,,
Raw,17377680,17381499000000,,,-1291005709936673792,0.0,76.54256478417665,4.624414067119244,18.831937387019718,165,9,0.0,207,45073362987317,1334,10.3,293.1116943359375,23.821001052856445,0,0.0,0.0,,,,,0,,3,,
Raw,17377680,17381499000000,,,-1291005709936673792,0.0,76.54256478417665,4.624414067119244,18.831937387019718,165,1,0.0,207,45073355711010,2163,12.3,-687.37255859375,31.069002151489258,0,0.0,0.0,,,,,0,,3,,
Raw,17377681,17381499000000,,,-1291005709936673792,0.0,76.54256478417665,4.624414067119244,18.831937387019718,165,7,0.0,207,45073369314651,70,18.6,394.3245544433594,2.7100000381469727,0,0.0,0.0,,,,,0,,3,,
Raw,17377681,17381499000000,,,-1291005709936673792,0.0,76.54256478417665,4.624414067119244,18.831937387019718,165,8,0.0,207,45073366305120,46,20.1,-327.2576904296875,1.0555000305175781,0,0.0,0.0,,,,,0,,3,,
Raw,17377682,17381499000000,,,-1291005709936673792,0.0,76.54256478417665,4.624414067119244,18.831937387019718,165,3,0.0,15,379891356552115,9,35.0,41.08274841308594,0.04560000076889992,0,0.0,0.0,,,,,0,,1,,
Raw,17377683,17381499000000,,,-1291005709936673792,0.0,76.54256478417665,4.624414067119244,18.831937387019718,165,4,0.0,15,379891355015535,110,14.6,-640.77587890625,2.129000186920166,0,0.0,0.0,,,,,0,,1,,
Raw,17377683,17381499000000,,,-1291005709936673792,0.0,76.54256478417665,4.624414067119244,18.831937387019718,165,22,0.0,15,379891356086002,14,30.7,190.58848571777344,0.049800001084804535,0,0.0,0.0,,,,,0,,1,,
Raw,17377684,17381499000000,,,-1291005709936673792,0.0,76.54256478417665,4.624414067119244,18.831937387019718,165,27,0.0,15,379891358980469,201,12.9,-693.5252685546875,6.123500347137451,0,0.0,0.0,,,,,0,,1,,
Raw,17377685,17381499000000,,,-1291005709936673792,0.0,76.54256478417665,4.624414067119244,18.831937387019718,165,31,0.0,15,379891363346510,1050,16.4,104.10015106201172,21.511001586914062,0,0.0,0.0,,,,,0,,1,,
Raw,17377685,17381499000000,,,-1291005709936673792,0.0,76.54256478417665,4.624414067119244,18.831937387019718,165,32,0.0,15,379891362087839,53,19.7,538.35986328125,0.9194999933242798,0,0.0,0.0,,,,,0,,1,,
Raw,17377686,17381499000000,,,-1291005709936673792,0.0,76.54256478417665,4.624414067119244,18.831937387019718,165,2,0.0,783,379877310664132,378,17.1,14.32614517211914,12.273500442504883,0,0.0,0.0,,,,,0,,5,,
Raw,17377687,17381499000000,,,-1291005709936673792,0.0,76.54256478417665,4.624414067119244,18.831937387019718,165,5,0.0,783,379877302447393,24,28.6,8.3441162109375,1.94350004196167,0,0.0,0.0,,,,,0,,5,,
Raw,17377688,17381499000000,,,-1291005709936673792,0.0,76.54256478417665,4.624414067119244,18.831937387019718,165,6,0.0,15,379877316319308,570,13.1,-45.93584442138672,14.880500793457031,0,0.0,0.0,,,,,0,,5,,
Raw,17377688,17381499000000,,,-1291005709936673792,0.0,76.54256478417665,4.624414067119244,18.831937387019718,165,7,0.0,15,379877314344572,264,12.5,52.321163177490234,8.2475004196167,0,0.0,0.0,,,,,0,,5,,
Raw,17377689,17381499000000,,,-1291005709936673792,0.0,76.54256478417665,4.624414067119244,18.831937387019718,165,9,0.0,15,379877315351657,97,16.2,-127.57183074951172,3.3489999771118164,0,0.0,0.0,,,,,0,,5,,
Raw,17377690,17381499000000,,,-1291005709936673792,0.0,76.54256478417665,4.624414067119244,18.831937387019718,165,14,0.0,15,379877352901022,61,18.9,-252.50311279296875,0.8644999861717224,0,0.0,0.0,,,,,0,,5,,
Raw,17377691,17381499000000,,,-1291005709936673792,0.0,76.54256478417665,4.624414067119244,18.831937387019718,165,16,0.0,15,379877315745754,84,16.5,-32.032188415527344,1.8489999771118164,0,0.0,0.0,,,,,0,,5,,
Raw,17377691,17381499000000,,,-1291005709936673792,0.0,76.54256478417665,4.624414067119244,18.831937387019718,165,21,0.0,15,379877357323819,149,14.5,459.53131103515625,5.0320000648498535,0,0.0,0.0,,,,,0,,5,,
Raw,17377692,17381499000000,,,-1291005709936673792,0.0,76.54256478417665,4.624414067119244,18.831937387019718,165,24,0.0,15,379877350941458,13,31.1,-258.6211853027344,0.04020000249147415,0,0.0,0.0,,,,,0,,5,,
Raw,17377692,17381499000000,,,-1291005709936673792,0.0,76.54256478417665,4.624414067119244,18.831937387019718,165,26,0.0,15,379877360380070,287,12.9,-53.01250457763672,8.856500625610352,0,0.0,0.0,,,,,0,,5,,
Raw,17377693,17381499000000,,,-1291005709936673792,0.0,76.54256478417665,4.624414067119244,18.831937387019718,165,3,0.0,7183,379891345295735,61,19.9,-462.3375244140625,2.312000036239624,0,0.0,0.0,,,,,0,,6,,
Raw,17377694,17381499000000,,,-1291005709936673792,0.0,76.54256478417665,4.624414067119244,18.831937387019718,165,25,0.0,7183,379891351530510,61,18.9,-116.25040435791016,0.875,0,0.0,0.0,,,,,0,,6,,
Fix,gps,22.925526,120.294674,34.960327,0.000000,10.720000,1606987874000
NMEA,$GPGSV,3,2,10,31,46,040,16,32,37,143,20,16,54,261,,18,00,000,*71,1606987873487
NMEA,$GPGSV,3,3,10,26,63,341,,29,18,045,*7C,1606987873491
NMEA,$GLGSV,2,1,08,75,00,000,29,73,29,025,10,65,05,330,12,71,57,220,19*67,1606987873492
NMEA,$GLGSV,2,2,08,72,42,307,20,74,37,323,,84,21,126,,83,18,064,*67,1606987873492
NMEA,$GAGSV,2,1,06,03,17,319,20,25,40,274,19,05,66,286,,09,49,165,*64,1606987873492
NMEA,$GAGSV,2,2,06,24,00,000,,33,02,057,*68,1606987873492
NMEA,$PQGSV,1,1,03,193,41,168,16,194,61,032,13,195,44,132,16,0,5*6D,1606987873492
NMEA,$PQGSV,4,1,16,02,40,240,17,05,16,257,29,06,80,090,13,07,73,293,13,0,4*6A,1606987873493
NMEA,$PQGSV,4,2,16,09,64,334,16,14,23,303,19,16,82,070,17,21,41,206,15,0,4*64,1606987873493
NMEA,$PQGSV,4,3,16,24,18,285,31,26,47,333,13,01,52,129,,03,58,202,,0,4*6D,1606987873493
NMEA,$PQGSV,4,4,16,04,37,115,,10,52,251,,12,00,000,,22,07,164,,0,4*6E,1606987873493
NMEA,$GNGSA,A,3,03,04,22,26,32,,,,,,,,1.6,1.2,0.9,1*3E,1606987873494
NMEA,$GNGSA,A,2,25,,,,,,,,,,,,1.6,1.2,0.9,3*38,1606987873494
NMEA,$PQGSA,A,2,14,24,,,,,,,,,,,1.6,1.2,0.9,4*33,1606987873495
NMEA,$GNVTG,,T,,M,0.0,N,0.0,K,A*3D,1606987873495
NMEA,$GNRMC,093114.00,A,2255.531580,N,12017.680457,E,0.0,,031220,2.8,W,A*16,1606987873495
NMEA,$GNGGA,093114.00,2255.531580,N,12017.680457,E,1,08,1.2,17.5,M,17.5,M,,*40,1606987873495
Fix,gps,22.925526,120.294674,34.963989,0.000000,11.792000,1606987875000
NMEA,$GPGSV,3,1,10,03,19,282,35,04,14,320,15,22,21,260,32,27,25,187,13*73,1606987874486
NMEA,$GPGSV,3,2,10,31,46,040,16,32,37,143,19,16,54,261,,18,00,000,*7B,1606987874486
Raw,17378579,17382499000000,,,-1291005709936673792,0.0,81.64337486959994,-0.670009445638409,18.958276963958753,165,11,0.0,207,45074361903196,17,28.8,-156.33229064941406,0.23480001091957092,0,0.0,0.0,,,,,0,,3,,
Raw,17378580,17382499000000,,,-1291005709936673792,0.0,81.64337486959994,-0.670009445638409,18.958276963958753,165,9,0.0,207,45074362986096,314,10.4,293.25213623046875,8.819499969482422,0,0.0,0.0,,,,,0,,3,,
Raw,17378581,17382499000000,,,-1291005709936673792,0.0,81.64337486959994,-0.670009445638409,18.958276963958753,165,1,0.0,207,45074355713303,2369,12.3,-687.37255859375,32.569000244140625,0,0.0,0.0,,,,,0,,3,,
Raw,17378581,17382499000000,,,-1291005709936673792,0.0,81.64337486959994,-0.670009445638409,18.958276963958753,165,7,0.0,207,45074369313375,84,16.7,393.3531494140625,2.130000114440918,0,0.0,0.0,,,,,0,,3,,
Raw,17378582,17382499000000,,,-1291005709936673792,0.0,81.64337486959994,-0.670009445638409,18.958276963958753,165,8,0.0,207,45074366306164,40,21.3,-326.0438537597656,0.9954999685287476,0,0.0,0.0,,,,,0,,3,,
Raw,17378582,17382499000000,,,-1291005709936673792,0.0,81.64337486959994,-0.670009445638409,18.958276963958753,165,3,0.0,15,379892356551988,10,34.8,41.38291931152344,0.04610000178217888,0,0.0,0.0,,,,,0,,1,,
Raw,17378583,17382499000000,,,-1291005709936673792,0.0,81.64337486959994,-0.670009445638409,18.958276963958753,165,4,0.0,15,379892355017672,125,14.6,-640.77587890625,3.629000186920166,0,0.0,0.0,,,,,0,,1,,
Raw,17378584,17382499000000,,,-1291005709936673792,0.0,81.64337486959994,-0.670009445638409,18.958276963958753,165,22,0.0,15,379892356085372,12,32.0,190.93052673339844,0.0479000024497509,0,0.0,0.0,,,,,0,,1,,
Raw,17378584,17382499000000,,,-1291005709936673792,0.0,81.64337486959994,-0.670009445638409,18.958276963958753,165,27,0.0,15,379892358982782,242,12.9,-693.5252685546875,7.623500347137451,0,0.0,0.0,,,,,0,,1,,
Raw,17378585,17382499000000,,,-1291005709936673792,0.0,81.64337486959994,-0.670009445638409,18.958276963958753,165,31,0.0,15,379892363346163,1194,16.4,104.10015106201172,23.011001586914062,0,0.0,0.0,,,,,0,,1,,
Raw,17378585,17382499000000,,,-1291005709936673792,0.0,81.64337486959994,-0.670009445638409,18.958276963958753,165,32,0.0,15,379892362086087,53,19.3,540.3198852539062,0.999500036239624,0,0.0,0.0,,,,,0,,1,,
Raw,17378586,17382499000000,,,-1291005709936673792,0.0,81.64337486959994,-0.670009445638409,18.958276963958753,165,2,0.0,783,379878310664084,462,17.1,14.32614517211914,13.773500442504883,0,0.0,0.0,,,,,0,,5,,
Raw,17378587,17382499000000,,,-1291005709936673792,0.0,81.64337486959994,-0.670009445638409,18.958276963958753,165,5,0.0,783,379878302447359,24,26.5,-1.7187533378601074,1.2735000848770142,0,0.0,0.0,,,,,0,,5,,
Raw,17378587,17382499000000,,,-1291005709936673792,0.0,81.64337486959994,-0.670009445638409,18.958276963958753,165,6,0.0,15,379878316319461,670,13.1,-45.93584442138672,16.38050079345703,0,0.0,0.0,,,,,0,,5,,
Raw,17378588,17382499000000,,,-1291005709936673792,0.0,81.64337486959994,-0.670009445638409,18.958276963958753,165,7,0.0,15,379878314344398,319,12.5,52.321163177490234,9.7475004196167,0,0.0,0.0,,,,,0,,5,,
Raw,17378588,17382499000000,,,-1291005709936673792,0.0,81.64337486959994,-0.670009445638409,18.958276963958753,165,9,0.0,15,379878315352083,121,16.2,-127.57183074951172,4.848999977111816,0,0.0,0.0,,,,,0,,5,,
Raw,17378589,17382499000000,,,-1291005709936673792,0.0,81.64337486959994,-0.670009445638409,18.958276963958753,165,14,0.0,15,379878352901864,69,18.9,-252.50311279296875,2.364500045776367,0,0.0,0.0,,,,,0,,5,,
Raw,17378589,17382499000000,,,-1291005709936673792,0.0,81.64337486959994,-0.670009445638409,18.958276963958753,165,16,0.0,15,379878315745861,97,16.5,-32.032188415527344,3.3489999771118164,0,0.0,0.0,,,,,0,,5,,
Raw,17378590,17382499000000,,,-1291005709936673792,0.0,81.64337486959994,-0.670009445638409,18.958276963958753,165,21,0.0,15,379878357322238,116,14.2,459.30084228515625,2.7820000648498535,0,0.0,0.0,,,,,0,,5,,
Raw,17378591,17382499000000,,,-1291005709936673792,0.0,81.64337486959994,-0.670009445638409,18.958276963958753,165,24,0.0,15,379878350942318,13,31.0,-258.4105224609375,0.04020000249147415,0,0.0,0.0,,,,,0,,5,,
Raw,17378592,17382499000000,,,-1291005709936673792,0.0,81.64337486959994,-0.670009445638409,18.958276963958753,165,26,0.0,15,379878360380247,347,12.9,-53.01250457763672,10.356500625610352,0,0.0,0.0,,,,,0,,5,,
Raw,17378592,17382499000000,,,-1291005709936673792,0.0,81.64337486959994,-0.670009445638409,18.958276963958753,165,3,0.0,7183,379892345297192,48,20.0,-464.46881103515625,1.5019999742507935,0,0.0,0.0,,,,,0,,6,,
Raw,17378593,17382499000000,,,-1291005709936673792,0.0,81.64337486959994,-0.670009445638409,18.958276963958753,165,25,0.0,7183,379892351530923,61,18.4,-116.24089813232422,0.875,0,0.0,0.0,,,,,0,,6,,
NMEA,$GPGSV,3,3,10,26,63,341,,29,18,045,*7C,1606987874486
NMEA,$GLGSV,3,1,09,75,00,000,29,73,29,025,10,65,05,330,12,71,57,220,17*69,1606987874488
NMEA,$GLGSV,3,2,09,72,42,307,21,74,37,323,,70,18,174,,84,21,126,*6A,1606987874489
NMEA,$GLGSV,3,3,09,83,18,064,*5C,1606987874489
NMEA,$GAGSV,2,1,06,03,17,319,20,25,40,274,18,05,66,286,,09,49,165,*65,1606987874489
NMEA,$GAGSV,2,2,06,24,00,000,,33,02,057,*68,1606987874490
NMEA,$PQGSV,1,1,03,193,41,168,18,194,61,032,13,195,44,132,16,0,5*63,1606987874490
NMEA,$PQGSV,4,1,16,02,40,240,17,05,16,257,27,06,80,090,13,07,73,293,13,0,4*64,1606987874490
NMEA,$PQGSV,4,2,16,09,64,334,16,14,23,303,19,16,82,070,17,21,41,206,14,0,4*65,1606987874490
NMEA,$PQGSV,4,3,16,24,18,285,31,26,47,333,13,01,52,129,,03,58,202,,0,4*6D,1606987874490
NMEA,$PQGSV,4,4,16,04,37,115,,10,52,251,,12,00,000,,22,07,164,,0,4*6E,1606987874491
NMEA,$GNGSA,A,3,03,04,22,26,27,32,,,,,,,1.7,1.4,1.0,1*34,1606987874493
NMEA,$GNGSA,A,2,25,,,,,,,,,,,,1.7,1.4,1.0,3*37,1606987874495
NMEA,$PQGSA,A,2,14,24,,,,,,,,,,,1.7,1.4,1.0,4*3C,1606987874495
NMEA,$GNVTG,,T,,M,0.0,N,0.0,K,A*3D,1606987874496
NMEA,$GNRMC,093115.00,A,2255.531580,N,12017.680455,E,0.0,,031220,2.8,W,A*15,1606987874496
NMEA,$GNGGA,093115.00,2255.531580,N,12017.680455,E,1,09,1.4,17.5,M,17.5,M,,*44,1606987874497
NMEA,$GPGSV,3,1,10,03,19,282,35,04,14,320,16,22,21,260,32,27,25,187,13*70,1606987875487
NMEA,$GPGSV,3,2,10,31,46,040,16,32,37,143,19,16,54,261,,18,00,000,*7B,1606987875487
Raw,17379571,17383499000000,,,-1291005709936673792,0.0,86.999949417077,-0.3997259262137849,19.17057663325584,165,11,0.0,207,45075361903714,17,28.6,-156.8704376220703,0.23480001091957092,0,0.0,0.0,,,,,0,,3,,
Raw,17379572,17383499000000,,,-1291005709936673792,0.0,86.999949417077,-0.3997259262137849,19.17057663325584,165,9,0.0,207,45075362985118,371,10.4,293.25213623046875,10.319499969482422,0,0.0,0.0,,,,,0,,3,,
Raw,17379572,17383499000000,,,-1291005709936673792,0.0,86.999949417077,-0.3997259262137849,19.17057663325584,165,1,0.0,207,45075355715596,2585,12.3,-687.37255859375,34.069000244140625,0,0.0,0.0,,,,,0,,3,,
Raw,17379572,17383499000000,,,-1291005709936673792,0.0,86.999949417077,-0.3997259262137849,19.17057663325584,165,7,0.0,207,45075369312063,99,16.7,393.3531494140625,3.630000114440918,0,0.0,0.0,,,,,0,,3,,
Raw,17379573,17383499000000,,,-1291005709936673792,0.0,86.999949417077,-0.3997259262137849,19.17057663325584,165,8,0.0,207,45075366307263,61,18.6,-326.856201171875,1.2055001258850098,0,0.0,0.0,,,,,0,,3,,
Raw,17379573,17383499000000,,,-1291005709936673792,0.0,86.999949417077,-0.3997259262137849,19.17057663325584,165,3,0.0,15,379893356551829,9,35.2,40.923274993896484,0.04560000076889992,0,0.0,0.0,,,,,0,,1,,
Raw,17379574,17383499000000,,,-1291005709936673792,0.0,86.999949417077,-0.3997259262137849,19.17057663325584,165,4,0.0,15,379893355020189,96,15.5,-642.3553466796875,2.0290000438690186,0,0.0,0.0,,,,,0,,1,,
Raw,17379574,17383499000000,,,-1291005709936673792,0.0,86.999949417077,-0.3997259262137849,19.17057663325584,165,22,0.0,15,379893356084697,12,32.3,190.3482208251953,0.0479000024497509,0,0.0,0.0,,,,,0,,1,,
Raw,17379575,17383499000000,,,-1291005709936673792,0.0,86.999949417077,-0.3997259262137849,19.17057663325584,165,27,0.0,15,379893358985095,292,12.9,-693.5252685546875,9.12350082397461,0,0.0,0.0,,,,,0,,1,,
Raw,17379575,17383499000000,,,-1291005709936673792,0.0,86.999949417077,-0.3997259262137849,19.17057663325584,165,31,0.0,15,379893363345816,1349,16.4,104.10015106201172,24.511001586914062,0,0.0,0.0,,,,,0,,1,,
Raw,17379576,17383499000000,,,-1291005709936673792,0.0,86.999949417077,-0.3997259262137849,19.17057663325584,165,32,0.0,15,379893362084285,61,19.3,540.3198852539062,2.499500036239624,0,0.0,0.0,,,,,0,,1,,
Raw,17379576,17383499000000,,,-1291005709936673792,0.0,86.999949417077,-0.3997259262137849,19.17057663325584,165,2,0.0,783,379879310664286,97,17.8,24.417821884155273,3.94350004196167,0,0.0,0.0,,,,,0,,5,,
Raw,17379577,17383499000000,,,-1291005709936673792,0.0,86.999949417077,-0.3997259262137849,19.17057663325584,165,5,0.0,783,379879302447349,14,30.5,6.385313034057617,0.3935000002384186,0,0.0,0.0,,,,,0,,5,,
Raw,17379577,17383499000000,,,-1291005709936673792,0.0,86.999949417077,-0.3997259262137849,19.17057663325584,165,6,0.0,15,379879316319614,779,13.1,-45.93584442138672,17.88050079345703,0,0.0,0.0,,,,,0,,5,,
Raw,17379578,17383499000000,,,-1291005709936673792,0.0,86.999949417077,-0.3997259262137849,19.17057663325584,165,7,0.0,15,379879314344223,384,12.5,52.321163177490234,11.2475004196167,0,0.0,0.0,,,,,0,,5,,
Raw,17379578,17383499000000,,,-1291005709936673792,0.0,86.999949417077,-0.3997259262137849,19.17057663325584,165,9,0.0,15,379879315352508,155,16.2,-127.57183074951172,6.348999977111816,0,0.0,0.0,,,,,0,,5,,
Raw,17379578,17383499000000,,,-1291005709936673792,0.0,86.999949417077,-0.3997259262137849,19.17057663325584,165,14,0.0,15,379879352902706,87,18.9,-252.50311279296875,3.864500045776367,0,0.0,0.0,,,,,0,,5,,
Raw,17379579,17383499000000,,,-1291005709936673792,0.0,86.999949417077,-0.3997259262137849,19.17057663325584,165,16,0.0,15,379879315745968,121,16.5,-32.032188415527344,4.848999977111816,0,0.0,0.0,,,,,0,,5,,
Raw,17379579,17383499000000,,,-1291005709936673792,0.0,86.999949417077,-0.3997259262137849,19.17057663325584,165,21,0.0,15,379879357320706,135,14.2,459.30084228515625,4.2820000648498535,0,0.0,0.0,,,,,0,,5,,
Raw,17379580,17383499000000,,,-1291005709936673792,0.0,86.999949417077,-0.3997259262137849,19.17057663325584,165,24,0.0,15,379879350943180,11,33.5,-258.95172119140625,0.03790000081062317,0,0.0,0.0,,,,,0,,5,,
Raw,17379581,17383499000000,,,-1291005709936673792,0.0,86.999949417077,-0.3997259262137849,19.17057663325584,165,26,0.0,15,379879360380367,124,14.1,-54.23194885253906,3.506500005722046,0,0.0,0.0,,,,,0,,5,,
Raw,17379581,17383499000000,,,-1291005709936673792,0.0,86.999949417077,-0.3997259262137849,19.17057663325584,165,3,0.0,7183,379893345298989,61,18.2,-465.3060607910156,0.871999979019165,0,0.0,0.0,,,,,0,,6,,
Raw,17379581,17383499000000,,,-1291005709936673792,0.0,86.999949417077,-0.3997259262137849,19.17057663325584,165,25,0.0,7183,379893351531359,81,16.5,-117.57295227050781,1.024999976158142,0,0.0,0.0,,,,,0,,6,,
Fix,gps,22.925526,120.294674,34.963867,0.000000,11.792000,1606987876000
NMEA,$GPGSV,3,3,10,26,63,341,,29,18,045,*7C,1606987875487
NMEA,$GLGSV,3,1,09,75,00,000,29,73,29,025,10,65,05,330,12,71,57,220,17*69,1606987875487
NMEA,$GLGSV,3,2,09,72,42,307,19,74,37,323,,70,18,174,,84,21,126,*61,1606987875487
NMEA,$GLGSV,3,3,09,83,18,064,*5C,1606987875489
NMEA,$GAGSV,2,1,06,03,17,319,18,25,40,274,17,05,66,286,,09,49,165,*61,1606987875489
NMEA,$GAGSV,2,2,06,24,00,000,,33,02,057,*68,1606987875490
NMEA,$PQGSV,1,1,03,193,41,168,18,194,61,032,13,195,44,132,16,0,5*63,1606987875491
NMEA,$PQGSV,4,1,16,02,40,240,18,05,16,257,31,06,80,090,13,07,73,293,13,0,4*6C,1606987875491
NMEA,$PQGSV,4,2,16,09,64,334,16,14,23,303,19,16,82,070,17,21,41,206,14,0,4*65,1606987875492
NMEA,$PQGSV,4,3,16,24,18,285,34,26,47,333,14,01,52,129,,03,58,202,,0,4*6F,1606987875492
NMEA,$PQGSV,4,4,16,04,37,115,,10,52,251,,12,00,000,,22,07,164,,0,4*6E,1606987875492
NMEA,$GNGSA,A,3,03,04,22,27,32,,,,,,,,1.7,1.4,1.0,1*30,1606987875494
NMEA,$GNGSA,A,2,25,,,,,,,,,,,,1.7,1.4,1.0,3*37,1606987875494
NMEA,$PQGSA,A,2,14,24,,,,,,,,,,,1.7,1.4,1.0,4*3C,1606987875494
NMEA,$GNVTG,,T,,M,0.0,N,0.0,K,A*3D,1606987875495
NMEA,$GNRMC,093116.00,A,2255.531581,N,12017.680454,E,0.0,,031220,2.8,W,A*16,1606987875495
NMEA,$GNGGA,093116.00,2255.531581,N,12017.680454,E,1,08,1.4,17.5,M,17.5,M,,*46,1606987875495
Raw,17380665,17384499000000,,,-1291005709936673792,0.0,94.64081085752696,-2.099772564509971,21.28751966418259,165,11,0.0,207,45076361904198,16,29.7,-157.34735107421875,0.2282000035047531,0,0.0,0.0,,,,,0,,3,,
Raw,17380669,17384499000000,,,-1291005709936673792,0.0,94.64081085752696,-2.099772564509971,21.28751966418259,165,9,0.0,207,45076362984140,438,10.4,293.25213623046875,11.819499969482422,0,0.0,0.0,,,,,0,,3,,
Raw,17380672,17384499000000,,,-1291005709936673792,0.0,94.64081085752696,-2.099772564509971,21.28751966418259,165,1,0.0,207,45076355717889,2812,12.3,-687.37255859375,35.569000244140625,0,0.0,0.0,,,,,0,,3,,
Raw,17380674,17384499000000,,,-1291005709936673792,0.0,94.64081085752696,-2.099772564509971,21.28751966418259,165,7,0.0,207,45076369310769,73,17.7,391.8212890625,2.0399999618530273,0,0.0,0.0,,,,,0,,3,,
Raw,17380677,17384499000000,,,-1291005709936673792,0.0,94.64081085752696,-2.099772564509971,21.28751966418259,165,8,0.0,207,45076366307916,61,18.2,-328.9570617675781,1.2055001258850098,0,0.0,0.0,,,,,0,,3,,
Raw,17380679,17384499000000,,,-1291005709936673792,0.0,94.64081085752696,-2.099772564509971,21.28751966418259,165,3,0.0,15,379894356551707,10,34.5,40.50782775878906,0.04610000178217888,0,0.0,0.0,,,,,0,,1,,
Raw,17380682,17384499000000,,,-1291005709936673792,0.0,94.64081085752696,-2.099772564509971,21.28751966418259,165,4,0.0,15,379894355022209,70,17.0,-642.81201171875,1.1890000104904175,0,0.0,0.0,,,,,0,,1,,
Raw,17380684,17384499000000,,,-1291005709936673792,0.0,94.64081085752696,-2.099772564509971,21.28751966418259,165,16,0.0,15,379894366227488,757,18.2,-189.94163513183594,2.885499954223633,0,0.0,0.0,,,,,0,,1,,
Raw,17380687,17384499000000,,,-1291005709936673792,0.0,94.64081085752696,-2.099772564509971,21.28751966418259,165,22,0.0,15,379894356084082,11,33.8,189.90431213378906,0.04690000042319298,0,0.0,0.0,,,,,0,,1,,
Raw,17380689,17384499000000,,,-1291005709936673792,0.0,94.64081085752696,-2.099772564509971,21.28751966418259,165,27,0.0,15,379894358987409,353,12.9,-693.5252685546875,10.62350082397461,0,0.0,0.0,,,,,0,,1,,
Raw,17380692,17384499000000,,,-1291005709936673792,0.0,94.64081085752696,-2.099772564509971,21.28751966418259,165,31,0.0,15,379894363345469,1513,16.4,104.10015106201172,26.011001586914062,0,0.0,0.0,,,,,0,,1,,
Raw,17380695,17384499000000,,,-1291005709936673792,0.0,94.64081085752696,-2.099772564509971,21.28751966418259,165,32,0.0,15,379894362082483,80,19.3,540.3198852539062,3.999500274658203,0,0.0,0.0,,,,,0,,1,,
Raw,17380697,17384499000000,,,-1291005709936673792,0.0,94.64081085752696,-2.099772564509971,21.28751966418259,165,2,0.0,783,379880310664205,125,17.8,24.417821884155273,5.44350004196167,0,0.0,0.0,,,,,0,,5,,
