# 
# Header Description:
# 
# Version: v2.0.0.1 Platform: 8.0.0 Manufacturer: Sony Model: G8142
# 
# Raw,ElapsedRealtimeMillis,TimeNanos,LeapSecond,TimeUncertaintyNanos,FullBiasNanos,BiasNanos,BiasUncertaintyNanos,DriftNanosPerSecond,DriftUncertaintyNanosPerSecond,HardwareClockDiscontinuityCount,Svid,TimeOffsetNanos,State,ReceivedSvTimeNanos,ReceivedSvTimeUncertaintyNanos,Cn0DbHz,PseudorangeRateMetersPerSecond,PseudorangeRateUncertaintyMetersPerSecond,AccumulatedDeltaRangeState,AccumulatedDeltaRangeMeters,AccumulatedDeltaRangeUncertaintyMeters,CarrierFrequencyHz,CarrierCycles,CarrierPhase,CarrierPhaseUncertainty,MultipathIndicator,SnrInDb,ConstellationType,AgcDb,CarrierFrequencyHz
# 
# Fix,Provider,Latitude,Longitude,Altitude,Speed,Accuracy,(UTC)TimeInMs
# 
# Nav,Svid,Type,Status,MessageId,Sub-messageId,Data(Bytes)
# 
Raw,17863597,17867499000000,,,-1291005709936672256,0.0,64.69212530646473,-3.092811922205336,12.513784708594516,165,10,0.0,207,45559365207758,53,19.4,22.652393341064453,1.124000072479248,0,0.0,0.0,,,,,0,,3,,
Raw,17863598,17867499000000,,,-1291005709936672256,0.0,64.69212530646473,-3.092811922205336,12.513784708594516,165,11,0.0,207,45559362145764,16,29.1,-146.9532470703125,0.2296999990940094,0,0.0,0.0,,,,,0,,3,,
Raw,17863598,17867499000000,,,-1291005709936672256,0.0,64.69212530646473,-3.092811922205336,12.513784708594516,165,6,0.0,207,45559358346941,603,10.2,810.456298828125,14.843500137329102,0,0.0,0.0,,,,,0,,3,,
Raw,17863598,17867499000000,,,-1291005709936672256,0.0,64.69212530646473,-3.092811922205336,12.513784708594516,165,9,0.0,207,45559362516973,2219,10.7,285.3400573730469,31.319501876831055,0,0.0,0.0,,,,,0,,3,,
Raw,17863598,17867499000000,,,-1291005709936672256,0.0,64.69212530646473,-3.092811922205336,12.513784708594516,165,1,0.0,207,45559356793924,81,19.2,-649.2381591796875,4.140500068664551,0,0.0,0.0,,,,,0,,3,,
Raw,17863599,17867499000000,,,-1291005709936672256,0.0,64.69212530646473,-3.092811922205336,12.513784708594516,165,7,0.0,207,45559368621976,16,29.7,457.9435729980469,0.2387000024318695,0,0.0,0.0,,,,,0,,3,,
Raw,17863599,17867499000000,,,-1291005709936672256,0.0,64.69212530646473,-3.092811922205336,12.513784708594516,165,8,0.0,207,45559366772450,24,25.5,-252.8618927001953,0.5907999873161316,0,0.0,0.0,,,,,0,,3,,
Raw,17863599,17867499000000,,,-1291005709936672256,0.0,64.69212530646473,-3.092811922205336,12.513784708594516,165,3,0.0,15,380377356446662,27,24.9,85.5274887084961,0.640500009059906,0,0.0,0.0,,,,,0,,1,,
Raw,17863599,17867499000000,,,-1291005709936672256,0.0,64.69212530646473,-3.092811922205336,12.513784708594516,165,4,0.0,15,380377356045811,12,32.4,-630.6632080078125,0.0479000024497509,0,0.0,0.0,,,,,0,,1,,
Raw,17863600,17867499000000,,,-1291005709936672256,0.0,64.69212530646473,-3.092811922205336,12.513784708594516,165,16,0.0,15,380377366493725,24,25.6,-144.46221923828125,0.39079999923706055,0,0.0,0.0,,,,,0,,1,,
Raw,17863600,17867499000000,,,-1291005709936672256,0.0,64.69212530646473,-3.092811922205336,12.513784708594516,165,22,0.0,15,380377355752300,21,26.0,217.1439666748047,0.13369999825954437,0,0.0,0.0,,,,,0,,1,,
Raw,17863600,17867499000000,,,-1291005709936672256,0.0,64.69212530646473,-3.092811922205336,12.513784708594516,165,27,0.0,15,380377360091190,13,31.1,-678.5206298828125,0.3865000009536743,0,0.0,0.0,,,,,0,,1,,
Raw,17863601,17867499000000,,,-1291005709936672256,0.0,64.69212530646473,-3.092811922205336,12.513784708594516,165,31,0.0,15,380377363168616,408,18.9,113.55774688720703,13.00100040435791,0,0.0,0.0,,,,,0,,1,,
Raw,17863601,17867499000000,,,-1291005709936672256,0.0,64.69212530646473,-3.092811922205336,12.513784708594516,165,32,0.0,15,380377361183477,493,15.0,571.7659301757812,14.108000755310059,0,0.0,0.0,,,,,0,,1,,
Raw,17863601,17867499000000,,,-1291005709936672256,0.0,64.69212530646473,-3.092811922205336,12.513784708594516,165,2,0.0,783,380363310658654,17,28.4,0.31686514616012573,0.44350001215934753,0,0.0,0.0,,,,,0,,5,,
Raw,17863601,17867499000000,,,-1291005709936672256,0.0,64.69212530646473,-3.092811922205336,12.513784708594516,165,3,0.0,783,380363313929398,1605,19.4,-7.844813823699951,26.840002059936523,0,0.0,0.0,,,,,0,,5,,
Raw,17863601,17867499000000,,,-1291005709936672256,0.0,64.69212530646473,-3.092811922205336,12.513784708594516,165,5,0.0,783,380363302437609,14,30.0,3.399099111557007,0.3935000002384186,0,0.0,0.0,,,,,0,,5,,
Raw,17863602,17867499000000,,,-1291005709936672256,0.0,64.69212530646473,-3.092811922205336,12.513784708594516,165,7,0.0,15,380363314255472,53,19.6,55.70105743408203,0.8675000071525574,0,0.0,0.0,,,,,0,,5,,
Raw,17863602,17867499000000,,,-1291005709936672256,0.0,64.69212530646473,-3.092811922205336,12.513784708594516,165,10,0.0,15,380363311450932,17,28.5,10.192962646484375,0.049800001084804535,0,0.0,0.0,,,,,0,,5,,
Raw,17863602,17867499000000,,,-1291005709936672256,0.0,64.69212530646473,-3.092811922205336,12.513784708594516,165,12,0.0,15,380363347057375,162,24.2,-559.8719482421875,8.086999893188477,0,0.0,0.0,,,,,0,,5,,
Raw,17863602,17867499000000,,,-1291005709936672256,0.0,64.69212530646473,-3.092811922205336,12.513784708594516,165,14,0.0,15,380363353273594,27,24.8,-209.56309509277344,0.5460000038146973,0,0.0,0.0,,,,,0,,5,,
Raw,17863602,17867499000000,,,-1291005709936672256,0.0,64.69212530646473,-3.092811922205336,12.513784708594516,165,21,0.0,15,380363356559924,14,30.3,480.35528564453125,0.049800001084804535,0,0.0,0.0,,,,,0,,5,,
Raw,17863603,17867499000000,,,-1291005709936672256,0.0,64.69212530646473,-3.092811922205336,12.513784708594516,165,24,0.0,15,380363351356955,21,26.2,-257.2294921875,0.12770000100135803,0,0.0,0.0,,,,,0,,5,,
Raw,17863603,17867499000000,,,-1291005709936672256,0.0,64.69212530646473,-3.092811922205336,12.513784708594516,165,26,0.0,15,380363360464524,1694,15.2,-52.52280044555664,27.416501998901367,0,0.0,0.0,,,,,0,,5,,
Raw,17863603,17867499000000,,,-1291005709936672256,0.0,64.69212530646473,-3.092811922205336,12.513784708594516,165,3,0.0,7183,380377346031177,24,25.2,-443.5212707519531,0.40880000591278076,0,0.0,0.0,,,,,0,,6,,
Raw,17863603,17867499000000,,,-1291005709936672256,0.0,64.69212530646473,-3.092811922205336,12.513784708594516,165,5,0.0,7183,380377356606223,35,22.3,-33.07304000854492,0.640500009059906,0,0.0,0.0,,,,,0,,6,,
Raw,17863603,17867499000000,,,-1291005709936672256,0.0,64.69212530646473,-3.092811922205336,12.513784708594516,165,9,0.0,7183,380377359235557,636,12.0,432.5375061035156,15.635001182556152,0,0.0,0.0,,,,,0,,6,,
Raw,17863603,17867499000000,,,-1291005709936672256,0.0,64.69212530646473,-3.092811922205336,12.513784708594516,165,25,0.0,7183,380377351704755,13,31.7,-100.18160247802734,0.047700002789497375,0,0.0,0.0,,,,,0,,6,,
Fix,gps,22.925455,120.294650,46.722229,0.290000,10.720000,1606988360000
NMEA,$GPGSV,3,1,11,03,19,279,25,04,16,320,32,16,56,268,26,22,20,255,26*70,1606988359488
NMEA,$GPGSV,3,2,11,27,28,187,31,31,45,045,19,32,35,146,15,08,00,000,*79,1606988359493
NMEA,$GPGSV,3,3,11,18,01,102,,26,62,347,,29,16,043,*49,1606988359494
NMEA,$GLGSV,3,1,10,74,37,327,19,75,00,000,29,70,14,174,10,73,27,029,11*6D,1606988359494
NMEA,$GLGSV,3,2,10,65,08,329,19,71,53,216,30,72,44,303,26,84,24,123,*63,1606988359495
NMEA,$GLGSV,3,3,10,83,18,060,,85,00,000,*6D,1606988359497
NMEA,$GAGSV,2,1,06,03,19,317,25,05,66,279,22,09,46,167,12,25,40,279,32*6B,1606988359497
NMEA,$GAGSV,2,2,06,24,51,004,,33,02,054,*6B,1606988359498
NMEA,$PQGSV,1,1,03,193,40,170,19,194,61,032,,195,45,130,,0,5*6C,1606988359499
NMEA,$PQGSV,4,1,16,02,40,240,28,03,58,202,19,05,16,257,30,07,72,298,20,0,4*67,1606988359499
NMEA,$PQGSV,4,2,16,10,52,254,29,12,02,189,24,14,25,300,25,21,38,203,30,0,4*6F,1606988359500
NMEA,$PQGSV,4,3,16,24,19,288,26,26,47,337,15,01,52,129,,04,37,115,,0,4*6E,1606988359500
NMEA,$PQGSV,4,4,16,06,80,102,,09,66,333,,16,82,084,,22,04,164,,0,4*6D,1606988359501
NMEA,$GNGSA,A,3,03,04,16,22,27,,,,,,,,2.0,1.8,0.9,1*36,1606988359502
NMEA,$GNGSA,A,2,74,,,,,,,,,,,,2.0,1.8,0.9,2*32,1606988359502
NMEA,$GNGSA,A,2,25,,,,,,,,,,,,2.0,1.8,0.9,3*37,1606988359502
NMEA,$PQGSA,A,2,14,24,,,,,,,,,,,2.0,1.8,0.9,4*3C,1606988359502
NMEA,$GNVTG,119.5,T,119.5,M,0.6,N,1.0,K,A*3A,1606988359503
NMEA,$GNRMC,093920.00,A,2255.527326,N,12017.678980,E,0.6,119.5,031220,2.8,W,A*30,1606988359503
NMEA,$GNGGA,093920.00,2255.527326,N,12017.678980,E,1,09,1.8,29.3,M,17.5,M,,*42,1606988359503
Raw,17864646,17868499000000,,,-1291005709936672256,0.0,64.53322566812858,-3.7581033765041494,15.636211420686356,165,10,0.0,207,45560365207775,40,21.0,21.36734962463379,0.9939999580383301,0,0.0,0.0,,,,,0,,3,,
Raw,17864646,17868499000000,,,-1291005709936672256,0.0,64.53322566812858,-3.7581033765041494,15.636211420686356,165,11,0.0,207,45560362146263,17,28.5,-147.8324737548828,0.2363000065088272,0,0.0,0.0,,,,,0,,3,,
Raw,17864646,17868499000000,,,-1291005709936672256,0.0,64.53322566812858,-3.7581033765041494,15.636211420686356,165,6,0.0,207,45560358344238,700,10.2,810.456298828125,16.3435001373291,0,0.0,0.0,,,,,0,,3,,
Raw,17864646,17868499000000,,,-1291005709936672256,0.0,64.53322566812858,-3.7581033765041494,15.636211420686356,165,9,0.0,207,45560362516022,2427,10.7,285.3400573730469,32.81949996948242,0,0.0,0.0,,,,,0,,3,,
Raw,17864646,17868499000000,,,-1291005709936672256,0.0,64.53322566812858,-3.7581033765041494,15.636211420686356,165,1,0.0,207,45560356796154,90,16.5,-651.6981201171875,2.890500068664551,0,0.0,0.0,,,,,0,,3,,
Raw,17864646,17868499000000,,,-1291005709936672256,0.0,64.53322566812858,-3.7581033765041494,15.636211420686356,165,7,0.0,207,45560368620367,17,28.3,457.13580322265625,0.24530000984668732,0,0.0,0.0,,,,,0,,3,,
Raw,17864646,17868499000000,,,-1291005709936672256,0.0,64.53322566812858,-3.7581033765041494,15.636211420686356,165,8,0.0,207,45560366773279,27,24.2,-253.0180206298828,0.8255000114440918,0,0.0,0.0,,,,,0,,3,,
Raw,17864647,17868499000000,,,-1291005709936672256,0.0,64.53322566812858,-3.7581033765041494,15.636211420686356,165,3,0.0,15,380378356446442,27,24.6,84.75679779052734,0.640500009059906,0,0.0,0.0,,,,,0,,1,,
Raw,17864647,17868499000000,,,-1291005709936672256,0.0,64.53322566812858,-3.7581033765041494,15.636211420686356,165,4,0.0,15,380378356047912,10,34.9,-631.5929565429688,0.04610000178217888,0,0.0,0.0,,,,,0,,1,,
Raw,17864647,17868499000000,,,-1291005709936672256,0.0,64.53322566812858,-3.7581033765041494,15.636211420686356,165,16,0.0,15,380378366494194,24,25.6,-145.2908477783203,0.39079999923706055,0,0.0,0.0,,,,,0,,1,,
Raw,17864647,17868499000000,,,-1291005709936672256,0.0,64.53322566812858,-3.7581033765041494,15.636211420686356,165,22,0.0,15,380378355751609,24,25.8,216.55419921875,0.5989999771118164,0,0.0,0.0,,,,,0,,1,,
Raw,17864647,17868499000000,,,-1291005709936672256,0.0,64.53322566812858,-3.7581033765041494,15.636211420686356,165,27,0.0,15,380378360093452,19,27.4,-679.5572509765625,0.04130000248551369,0,0.0,0.0,,,,,0,,1,,
Raw,17864647,17868499000000,,,-1291005709936672256,0.0,64.53322566812858,-3.7581033765041494,15.636211420686356,165,31,0.0,15,380378363168238,497,18.9,113.55774688720703,14.50100040435791,0,0.0,0.0,,,,,0,,1,,
Raw,17864647,17868499000000,,,-1291005709936672256,0.0,64.53322566812858,-3.7581033765041494,15.636211420686356,165,32,0.0,15,380378361181586,241,12.6,573.2406616210938,7.598000526428223,0,0.0,0.0,,,,,0,,1,,
Raw,17864648,17868499000000,,,-1291005709936672256,0.0,64.53322566812858,-3.7581033765041494,15.636211420686356,165,2,0.0,783,380364310658630,16,29.9,-1.7955693006515503,0.3935000002384186,0,0.0,0.0,,,,,0,,5,,
Raw,17864648,17868499000000,,,-1291005709936672256,0.0,64.53322566812858,-3.7581033765041494,15.636211420686356,165,3,0.0,783,380364313929424,1786,19.4,-7.844813823699951,28.340002059936523,0,0.0,0.0,,,,,0,,5,,
Raw,17864648,17868499000000,,,-1291005709936672256,0.0,64.53322566812858,-3.7581033765041494,15.636211420686356,165,5,0.0,783,380364302437596,14,30.0,1.3730823993682861,0.3935000002384186,0,0.0,0.0,,,,,0,,5,,
Raw,17864648,17868499000000,,,-1291005709936672256,0.0,64.53322566812858,-3.7581033765041494,15.636211420686356,165,7,0.0,15,380364314255292,80,16.7,54.865684509277344,1.097499966621399,0,0.0,0.0,,,,,0,,5,,
Raw,17864648,17868499000000,,,-1291005709936672256,0.0,64.53322566812858,-3.7581033765041494,15.636211420686356,165,10,0.0,15,380364311450909,16,29.8,9.26161003112793,0.04320000112056732,0,0.0,0.0,,,,,0,,5,,
Raw,17864648,17868499000000,,,-1291005709936672256,0.0,64.53322566812858,-3.7581033765041494,15.636211420686356,165,12,0.0,15,380364347059242,219,24.2,-559.8719482421875,9.587000846862793,0,0.0,0.0,,,,,0,,5,,
Raw,17864648,17868499000000,,,-1291005709936672256,0.0,64.53322566812858,-3.7581033765041494,15.636211420686356,165,14,0.0,15,380364353274288,40,21.7,-210.6193084716797,0.7459999918937683,0,0.0,0.0,,,,,0,,5,,
Raw,17864649,17868499000000,,,-1291005709936672256,0.0,64.53322566812858,-3.7581033765041494,15.636211420686356,165,21,0.0,15,380364356558327,13,31.3,479.4289855957031,0.04920000210404396,0,0.0,0.0,,,,,0,,5,,
Raw,17864649,17868499000000,,,-1291005709936672256,0.0,64.53322566812858,-3.7581033765041494,15.636211420686356,165,24,0.0,15,380364351357822,21,26.8,-258.26947021484375,0.12770000100135803,0,0.0,0.0,,,,,0,,5,,
Raw,17864649,17868499000000,,,-1291005709936672256,0.0,64.53322566812858,-3.7581033765041494,15.636211420686356,165,26,0.0,15,380364360464818,150,13.8,-53.59822463989258,4.256500244140625,0,0.0,0.0,,,,,0,,5,,
Raw,17864649,17868499000000,,,-1291005709936672256,0.0,64.53322566812858,-3.7581033765041494,15.636211420686356,165,3,0.0,7183,380378346032636,19,27.3,-446.4955749511719,0.44350001215934753,0,0.0,0.0,,,,,0,,6,,
Raw,17864649,17868499000000,,,-1291005709936672256,0.0,64.53322566812858,-3.7581033765041494,15.636211420686356,165,5,0.0,7183,380378356606328,40,21.9,-34.17674255371094,0.6904999613761902,0,0.0,0.0,,,,,0,,6,,
Raw,17864649,17868499000000,,,-1291005709936672256,0.0,64.53322566812858,-3.7581033765041494,15.636211420686356,165,9,0.0,7183,380378359234114,741,12.0,432.5375061035156,17.135000228881836,0,0.0,0.0,,,,,0,,6,,
Raw,17864650,17868499000000,,,-1291005709936672256,0.0,64.53322566812858,-3.7581033765041494,15.636211420686356,165,25,0.0,7183,380378351705105,13,31.1,-102.49217987060547,0.32899999618530273,0,0.0,0.0,,,,,0,,6,,
Fix,gps,22.925450,120.294646,47.270752,0.000000,10.720000,1606988361000
NMEA,$GPGSV,3,1,11,03,19,279,25,04,16,320,35,16,56,268,26,22,20,255,26*77,1606988360487
NMEA,$GPGSV,3,2,11,27,28,187,27,31,45,045,19,32,35,146,13,08,00,000,*78,1606988360487
NMEA,$GPGSV,3,3,11,18,01,102,,26,62,347,,29,16,043,*49,1606988360487
NMEA,$GLGSV,3,1,10,74,37,327,21,75,00,000,29,70,14,174,10,73,27,029,11*66,1606988360487
NMEA,$GLGSV,3,2,10,65,08,329,17,71,53,216,28,72,44,303,24,84,24,123,*66,1606988360488
NMEA,$GLGSV,3,3,10,83,18,060,,85,00,000,*6D,1606988360490
NMEA,$GAGSV,2,1,06,03,19,317,27,05,66,279,22,09,46,167,12,25,40,279,31*6A,1606988360491
NMEA,$GAGSV,2,2,06,24,51,004,,33,02,054,*6B,1606988360491
NMEA,$PQGSV,1,1,03,193,40,170,18,194,61,032,,195,45,130,,0,5*6D,1606988360492
NMEA,$PQGSV,4,1,16,02,40,240,30,03,58,202,19,05,16,257,30,07,72,298,17,0,4*6A,1606988360492
NMEA,$PQGSV,4,2,16,10,52,254,30,12,02,189,24,14,25,300,22,21,38,203,31,0,4*61,1606988360492
NMEA,$PQGSV,4,3,16,24,19,288,27,26,47,337,14,01,52,129,,04,37,115,,0,4*6E,1606988360492
NMEA,$PQGSV,4,4,16,06,80,102,,09,66,333,,16,82,084,,22,04,164,,0,4*6D,1606988360493
NMEA,$GNGSA,A,3,03,04,16,22,27,,,,,,,,1.6,1.3,0.9,1*38,1606988360493
NMEA,$GNGSA,A,2,74,,,,,,,,,,,,1.6,1.3,0.9,2*3C,1606988360494
NMEA,$GNGSA,A,2,25,,,,,,,,,,,,1.6,1.3,0.9,3*39,1606988360494
NMEA,$PQGSA,A,2,14,24,,,,,,,,,,,1.6,1.3,0.9,4*32,1606988360494
NMEA,$GNVTG,,T,,M,0.0,N,0.0,K,A*3D,1606988360494
NMEA,$GNRMC,093921.00,A,2255.526974,N,12017.678743,E,0.0,,031220,2.8,W,A*18,1606988360494
NMEA,$GNGGA,093921.00,2255.526974,N,12017.678743,E,1,09,1.3,29.8,M,17.5,M,,*4E,1606988360494
Fix,gps,22.925446,120.294643,47.820068,0.000000,10.720000,1606988362000
Raw,17865576,17869499000000,,,-1291005709936672256,0.0,65.71994163095951,-5.681285481684976,18.178689038048056,165,10,0.0,207,45561365207505,46,20.5,20.954635620117188,1.0540000200271606,0,0.0,0.0,,,,,0,,3,,
Raw,17865576,17869499000000,,,-1291005709936672256,0.0,65.71994163095951,-5.681285481684976,18.178689038048056,165,11,0.0,207,45561362146785,19,27.5,-148.36019897460938,0.6995000243186951,0,0.0,0.0,,,,,0,,3,,
Raw,17865577,17869499000000,,,-1291005709936672256,0.0,65.71994163095951,-5.681285481684976,18.178689038048056,165,6,0.0,207,45561358341534,808,10.2,810.456298828125,17.8435001373291,0,0.0,0.0,,,,,0,,3,,
Raw,17865577,17869499000000,,,-1291005709936672256,0.0,65.71994163095951,-5.681285481684976,18.178689038048056,165,9,0.0,207,45561362515070,2644,10.7,285.3400573730469,34.31949996948242,0,0.0,0.0,,,,,0,,3,,
Raw,17865577,17869499000000,,,-1291005709936672256,0.0,65.71994163095951,-5.681285481684976,18.178689038048056,165,1,0.0,207,45561356798328,110,16.5,-651.6981201171875,4.390500068664551,0,0.0,0.0,,,,,0,,3,,
Raw,17865577,17869499000000,,,-1291005709936672256,0.0,65.71994163095951,-5.681285481684976,18.178689038048056,165,7,0.0,207,45561368618914,17,28.0,456.6617126464844,0.24530000984668732,0,0.0,0.0,,,,,0,,3,,
Raw,17865578,17869499000000,,,-1291005709936672256,0.0,65.71994163095951,-5.681285481684976,18.178689038048056,165,8,0.0,207,45561366774118,27,24.5,-254.01708984375,0.8255000114440918,0,0.0,0.0,,,,,0,,3,,
Raw,17865578,17869499000000,,,-1291005709936672256,0.0,65.71994163095951,-5.681285481684976,18.178689038048056,165,3,0.0,15,380379356446098,21,26.1,82.94196319580078,0.13520000874996185,0,0.0,0.0,,,,,0,,1,,
Raw,17865578,17869499000000,,,-1291005709936672256,0.0,65.71994163095951,-5.681285481684976,18.178689038048056,165,4,0.0,15,380379356050039,9,35.0,-632.2091674804688,0.04560000076889992,0,0.0,0.0,,,,,0,,1,,
Raw,17865578,17869499000000,,,-1291005709936672256,0.0,65.71994163095951,-5.681285481684976,18.178689038048056,165,16,0.0,15,380379366494704,24,25.4,-147.11117553710938,0.39079999923706055,0,0.0,0.0,,,,,0,,1,,
Raw,17865578,17869499000000,,,-1291005709936672256,0.0,65.71994163095951,-5.681285481684976,18.178689038048056,165,22,0.0,15,380379355750858,21,26.2,215.02565002441406,0.13369999825954437,0,0.0,0.0,,,,,0,,1,,
Raw,17865578,17869499000000,,,-1291005709936672256,0.0,65.71994163095951,-5.681285481684976,18.178689038048056,165,27,0.0,15,380379360095742,19,27.2,-680.107177734375,0.04130000248551369,0,0.0,0.0,,,,,0,,1,,
Raw,17865579,17869499000000,,,-1291005709936672256,0.0,65.71994163095951,-5.681285481684976,18.178689038048056,165,31,0.0,15,380379363167859,595,18.9,113.55774688720703,16.001001358032227,0,0.0,0.0,,,,,0,,1,,
Raw,17865579,17869499000000,,,-1291005709936672256,0.0,65.71994163095951,-5.681285481684976,18.178689038048056,165,32,0.0,15,380379361179661,53,19.0,571.8705444335938,0.9980000257492065,0,0.0,0.0,,,,,0,,1,,
Raw,17865579,17869499000000,,,-1291005709936672256,0.0,65.71994163095951,-5.681285481684976,18.178689038048056,165,2,0.0,783,380365310658640,14,30.1,-1.1522369384765625,0.3935000002384186,0,0.0,0.0,,,,,0,,5,,
Raw,17865579,17869499000000,,,-1291005709936672256,0.0,65.71994163095951,-5.681285481684976,18.178689038048056,165,3,0.0,783,380365313929450,1978,19.4,-7.844813823699951,29.840002059936523,0,0.0,0.0,,,,,0,,5,,
Raw,17865579,17869499000000,,,-1291005709936672256,0.0,65.71994163095951,-5.681285481684976,18.178689038048056,165,5,0.0,783,380365302437589,14,30.5,2.1124343872070312,0.3935000002384186,0,0.0,0.0,,,,,0,,5,,
Raw,17865580,17869499000000,,,-1291005709936672256,0.0,65.71994163095951,-5.681285481684976,18.178689038048056,165,7,0.0,15,380365314255047,70,17.9,54.28956604003906,0.9375,0,0.0,0.0,,,,,0,,5,,
Raw,17865580,17869499000000,,,-1291005709936672256,0.0,65.71994163095951,-5.681285481684976,18.178689038048056,165,10,0.0,15,380365311450878,16,29.3,8.645011901855469,0.04320000112056732,0,0.0,0.0,,,,,0,,5,,
Raw,17865580,17869499000000,,,-1291005709936672256,0.0,65.71994163095951,-5.681285481684976,18.178689038048056,165,12,0.0,15,380365347061110,287,24.2,-559.8719482421875,11.087000846862793,0,0.0,0.0,,,,,0,,5,,
Raw,17865580,17869499000000,,,-1291005709936672256,0.0,65.71994163095951,-5.681285481684976,18.178689038048056,165,14,0.0,15,380365353275019,31,23.2,-210.79214477539062,0.6360000371932983,0,0.0,0.0,,,,,0,,5,,
Raw,17865580,17869499000000,,,-1291005709936672256,0.0,65.71994163095951,-5.681285481684976,18.178689038048056,165,21,0.0,15,380365356556745,13,31.0,478.8222961425781,0.04920000210404396,0,0.0,0.0,,,,,0,,5,,
Raw,17865581,17869499000000,,,-1291005709936672256,0.0,65.71994163095951,-5.681285481684976,18.178689038048056,165,24,0.0,15,380365351358680,19,27.5,-258.9490661621094,0.05780000239610672,0,0.0,0.0,,,,,0,,5,,
Raw,17865581,17869499000000,,,-1291005709936672256,0.0,65.71994163095951,-5.681285481684976,18.178689038048056,165,26,0.0,15,380365360464996,179,13.8,-53.59822463989258,5.756500244140625,0,0.0,0.0,,,,,0,,5,,
Raw,17865581,17869499000000,,,-1291005709936672256,0.0,65.71994163095951,-5.681285481684976,18.178689038048056,165,3,0.0,7183,380379346034113,19,27.7,-446.86663818359375,0.44350001215934753,0,0.0,0.0,,,,,0,,6,,
Raw,17865581,17869499000000,,,-1291005709936672256,0.0,65.71994163095951,-5.681285481684976,18.178689038048056,165,5,0.0,7183,380379356606420,35,22.3,-35.014034271240234,0.640500009059906,0,0.0,0.0,,,,,0,,6,,
Raw,17865581,17869499000000,,,-1291005709936672256,0.0,65.71994163095951,-5.681285481684976,18.178689038048056,165,9,0.0,7183,380379359232671,856,12.0,432.5375061035156,18.635000228881836,0,0.0,0.0,,,,,0,,6,,
Raw,17865581,17869499000000,,,-1291005709936672256,0.0,65.71994163095951,-5.681285481684976,18.178689038048056,165,25,0.0,7183,380379351705452,14,30.9,-103.40558624267578,0.35899999737739563,0,0.0,0.0,,,,,0,,6,,
NMEA,$GPGSV,3,1,11,03,19,279,26,04,16,320,35,16,56,268,25,22,20,255,26*77,1606988361488
NMEA,$GPGSV,3,2,11,27,28,187,27,31,45,045,19,32,35,146,19,08,00,000,*72,1606988361488
NMEA,$GPGSV,3,3,11,18,01,102,,26,62,347,,29,16,043,*49,1606988361488
NMEA,$GLGSV,3,1,10,74,37,327,21,75,00,000,28,70,14,174,10,73,27,029,11*67,1606988361489
NMEA,$GLGSV,3,2,10,65,08,329,17,71,53,216,28,72,44,303,25,84,24,123,*67,1606988361490
NMEA,$GLGSV,3,3,10,83,18,060,,85,00,000,*6D,1606988361490
NMEA,$GAGSV,2,1,06,03,19,317,28,05,66,279,22,09,46,167,12,25,40,279,31*65,1606988361491
NMEA,$GAGSV,2,2,06,24,51,004,,33,02,054,*6B,1606988361491
NMEA,$PQGSV,1,1,03,193,40,170,16,194,61,032,,195,45,130,,0,5*63,1606988361491
NMEA,$PQGSV,4,1,16,02,40,240,30,03,58,202,19,05,16,257,31,07,72,298,18,0,4*64,1606988361492
NMEA,$PQGSV,4,2,16,10,52,254,29,12,02,189,24,14,25,300,23,21,38,203,31,0,4*68,1606988361493
NMEA,$PQGSV,4,3,16,24,19,288,28,26,47,337,14,01,52,129,,04,37,115,,0,4*61,1606988361494
NMEA,$PQGSV,4,4,16,06,80,102,,09,66,333,,16,82,084,,22,04,164,,0,4*6D,1606988361494
NMEA,$GNGSA,A,3,03,04,16,22,27,32,,,,,,,1.6,1.3,0.9,1*39,1606988361499
NMEA,$GNGSA,A,2,74,,,,,,,,,,,,1.6,1.3,0.9,2*3C,1606988361499
NMEA,$GNGSA,A,2,25,,,,,,,,,,,,1.6,1.3,0.9,3*39,1606988361500
NMEA,$PQGSA,A,2,14,24,,,,,,,,,,,1.6,1.3,0.9,4*32,1606988361500
NMEA,$GNVTG,,T,,M,0.0,N,0.0,K,A*3D,1606988361500
NMEA,$GNRMC,093922.00,A,2255.526746,N,12017.678574,E,0.0,,031220,2.8,W,A*12,1606988361500
NMEA,$GNGGA,093922.00,2255.526746,N,12017.678574,E,1,10,1.3,30.4,M,17.5,M,,*48,1606988361500
Raw,17866608,17870499000000,,,-1291005709936672256,0.0,60.71820098441094,-7.3156620993016945,14.46118702890343,165,10,0.0,207,45562365207462,40,21.2,21.554946899414062,0.9939999580383301,0,0.0,0.0,,,,,0,,3,,
Raw,17866608,17870499000000,,,-1291005709936672256,0.0,60.71820098441094,-7.3156620993016945,14.46118702890343,165,11,0.0,207,45562362147260,19,27.2,-147.4697265625,0.6995000243186951,0,0.0,0.0,,,,,0,,3,,
Raw,17866608,17870499000000,,,-1291005709936672256,0.0,60.71820098441094,-7.3156620993016945,14.46118702890343,165,6,0.0,207,45562358338831,925,10.2,810.456298828125,19.3435001373291,0,0.0,0.0,,,,,0,,3,,
Raw,17866608,17870499000000,,,-1291005709936672256,0.0,60.71820098441094,-7.3156620993016945,14.46118702890343,165,9,0.0,207,45562362514303,153,13.3,284.11346435546875,4.679500102996826,0,0.0,0.0,,,,,0,,3,,
Raw,17866608,17870499000000,,,-1291005709936672256,0.0,60.71820098441094,-7.3156620993016945,14.46118702890343,165,1,0.0,207,45562356800770,73,17.4,-652.6709594726562,2.05049991607666,0,0.0,0.0,,,,,0,,3,,
Raw,17866609,17870499000000,,,-1291005709936672256,0.0,60.71820098441094,-7.3156620993016945,14.46118702890343,165,7,0.0,207,45562368617410,17,28.6,457.53082275390625,0.24530000984668732,0,0.0,0.0,,,,,0,,3,,
Raw,17866609,17870499000000,,,-1291005709936672256,0.0,60.71820098441094,-7.3156620993016945,14.46118702890343,165,8,0.0,207,45562366774963,27,24.3,-252.7939453125,0.8255000114440918,0,0.0,0.0,,,,,0,,3,,
Raw,17866609,17870499000000,,,-1291005709936672256,0.0,60.71820098441094,-7.3156620993016945,14.46118702890343,165,3,0.0,15,380380356445819,24,25.2,85.15641784667969,0.640500009059906,0,0.0,0.0,,,,,0,,1,,
Raw,17866610,17870499000000,,,-1291005709936672256,0.0,60.71820098441094,-7.3156620993016945,14.46118702890343,165,4,0.0,15,380380356052147,9,35.0,-631.4281616210938,0.04560000076889992,0,0.0,0.0,,,,,0,,1,,
Raw,17866610,17870499000000,,,-1291005709936672256,0.0,60.71820098441094,-7.3156620993016945,14.46118702890343,165,16,0.0,15,380380366495205,27,24.6,-145.0608673095703,0.6255000233650208,0,0.0,0.0,,,,,0,,1,,
Raw,17866610,17870499000000,,,-1291005709936672256,0.0,60.71820098441094,-7.3156620993016945,14.46118702890343,165,22,0.0,15,380380355750182,24,25.0,216.57322692871094,0.6389999985694885,0,0.0,0.0,,,,,0,,1,,
Raw,17866610,17870499000000,,,-1291005709936672256,0.0,60.71820098441094,-7.3156620993016945,14.46118702890343,165,27,0.0,15,380380360097984,17,28.2,-679.3516845703125,0.0333000011742115,0,0.0,0.0,,,,,0,,1,,
Raw,17866611,17870499000000,,,-1291005709936672256,0.0,60.71820098441094,-7.3156620993016945,14.46118702890343,165,31,0.0,15,380380363167480,704,18.9,113.55774688720703,17.501001358032227,0,0.0,0.0,,,,,0,,1,,
Raw,17866611,17870499000000,,,-1291005709936672256,0.0,60.71820098441094,-7.3156620993016945,14.46118702890343,165,32,0.0,15,380380361177723,70,17.1,572.0513305664062,1.1679999828338623,0,0.0,0.0,,,,,0,,1,,
Raw,17866611,17870499000000,,,-1291005709936672256,0.0,60.71820098441094,-7.3156620993016945,14.46118702890343,165,2,0.0,783,380366310658630,14,30.0,0.30726319551467896,0.3935000002384186,0,0.0,0.0,,,,,0,,5,,
Raw,17866611,17870499000000,,,-1291005709936672256,0.0,60.71820098441094,-7.3156620993016945,14.46118702890343,165,3,0.0,783,380366313929476,2179,19.4,-7.844813823699951,31.340002059936523,0,0.0,0.0,,,,,0,,5,,
Raw,17866611,17870499000000,,,-1291005709936672256,0.0,60.71820098441094,-7.3156620993016945,14.46118702890343,165,5,0.0,783,380366302437577,14,30.4,1.73795747756958,0.3935000002384186,0,0.0,0.0,,,,,0,,5,,
Raw,17866612,17870499000000,,,-1291005709936672256,0.0,60.71820098441094,-7.3156620993016945,14.46118702890343,165,7,0.0,15,380366314254939,53,19.3,55.69145202636719,0.8675000071525574,0,0.0,0.0,,,,,0,,5,,
Raw,17866612,17870499000000,,,-1291005709936672256,0.0,60.71820098441094,-7.3156620993016945,14.46118702890343,165,10,0.0,15,380366311450834,16,29.2,9.415716171264648,0.04320000112056732,0,0.0,0.0,,,,,0,,5,,
Raw,17866612,17870499000000,,,-1291005709936672256,0.0,60.71820098441094,-7.3156620993016945,14.46118702890343,165,12,0.0,15,380366347062977,364,24.2,-559.8719482421875,12.587000846862793,0,0.0,0.0,,,,,0,,5,,
Raw,17866612,17870499000000,,,-1291005709936672256,0.0,60.71820098441094,-7.3156620993016945,14.46118702890343,165,14,0.0,15,380366353275676,31,23.4,-210.6385040283203,0.6360000371932983,0,0.0,0.0,,,,,0,,5,,
Raw,17866613,17870499000000,,,-1291005709936672256,0.0,60.71820098441094,-7.3156620993016945,14.46118702890343,165,21,0.0,15,380366356555128,13,31.5,479.6235046386719,0.04920000210404396,0,0.0,0.0,,,,,0,,5,,
Raw,17866613,17870499000000,,,-1291005709936672256,0.0,60.71820098441094,-7.3156620993016945,14.46118702890343,165,24,0.0,15,380366351359551,17,28.3,-258.1601257324219,0.049800001084804535,0,0.0,0.0,,,,,0,,5,,
Raw,17866613,17870499000000,,,-1291005709936672256,0.0,60.71820098441094,-7.3156620993016945,14.46118702890343,165,26,0.0,15,380366360465175,219,13.8,-53.59822463989258,7.256500244140625,0,0.0,0.0,,,,,0,,5,,
Raw,17866613,17870499000000,,,-1291005709936672256,0.0,60.71820098441094,-7.3156620993016945,14.46118702890343,165,3,0.0,7183,380380346035588,19,27.8,-446.4232482910156,0.06830000132322311,0,0.0,0.0,,,,,0,,6,,
Raw,17866613,17870499000000,,,-1291005709936672256,0.0,60.71820098441094,-7.3156620993016945,14.46118702890343,165,5,0.0,7183,380380356606555,40,21.8,-33.87227249145508,0.6904999613761902,0,0.0,0.0,,,,,0,,6,,
Raw,17866614,17870499000000,,,-1291005709936672256,0.0,60.71820098441094,-7.3156620993016945,14.46118702890343,165,9,0.0,7183,380380359231228,981,12.0,432.5375061035156,20.135000228881836,0,0.0,0.0,,,,,0,,6,,
Raw,17866614,17870499000000,,,-1291005709936672256,0.0,60.71820098441094,-7.3156620993016945,14.46118702890343,165,25,0.0,7183,380380351705791,13,31.5,-103.12850952148438,0.047700002789497375,0,0.0,0.0,,,,,0,,6,,
Fix,gps,22.925442,120.294638,49.626343,0.440000,10.720000,1606988363000
NMEA,$GPGSV,3,1,11,03,19,279,25,04,16,320,35,16,56,268,25,22,20,255,25*77,1606988362501
NMEA,$GPGSV,3,2,11,27,28,187,28,31,45,045,19,32,35,146,17,08,00,000,*73,1606988362502
NMEA,$GPGSV,3,3,11,18,01,102,,26,62,347,,29,16,043,*49,1606988362502
NMEA,$GLGSV,3,1,10,74,37,327,21,75,00,000,27,70,14,174,10,73,27,029,13*6A,1606988362503
NMEA,$GLGSV,3,2,10,65,08,329,17,71,53,216,29,72,44,303,24,84,24,123,*67,1606988362511
NMEA,$GLGSV,3,3,10,83,18,060,,85,00,000,*6D,1606988362512
NMEA,$GAGSV,2,1,06,03,19,317,28,05,66,279,22,09,46,167,12,25,40,279,32*66,1606988362513
NMEA,$GAGSV,2,2,06,24,51,004,,33,02,054,*6B,1606988362514
NMEA,$PQGSV,1,1,03,193,40,170,19,194,61,032,,195,45,130,,0,5*6C,1606988362515
NMEA,$PQGSV,4,1,16,02,40,240,30,03,58,202,19,05,16,257,30,07,72,298,19,0,4*64,1606988362516
NMEA,$PQGSV,4,2,16,10,52,254,29,12,02,189,24,14,25,300,23,21,38,203,32,0,4*6B,1606988362517
NMEA,$PQGSV,4,3,16,24,19,288,28,26,47,337,14,01,52,129,,04,37,115,,0,4*61,1606988362517
NMEA,$PQGSV,4,4,16,06,80,102,,09,66,333,,16,82,084,,22,04,164,,0,4*6D,1606988362518
NMEA,$GNGSA,A,3,03,04,16,22,27,32,,,,,,,1.6,1.3,0.9,1*39,1606988362521
NMEA,$GNGSA,A,2,74,,,,,,,,,,,,1.6,1.3,0.9,2*3C,1606988362522
NMEA,$GNGSA,A,2,25,,,,,,,,,,,,1.6,1.3,0.9,3*39,1606988362522
NMEA,$PQGSA,A,2,14,24,,,,,,,,,,,1.6,1.3,0.9,4*32,1606988362523
NMEA,$GNVTG,151.8,T,151.8,M,0.9,N,1.6,K,A*33,1606988362524
NMEA,$GNRMC,093923.00,A,2255.526522,N,12017.678298,E,0.9,151.8,031220,2.8,W,A*3C,1606988362524
NMEA,$GNGGA,093923.00,2255.526522,N,12017.678298,E,1,10,1.3,32.2,M,17.5,M,,*48,1606988362525
Raw,17867655,17871499000000,,,-1291005709936672256,0.0,56.81939364876598,-4.0440251832258856,13.401966360832908,165,10,0.0,207,45563365207452,53,19.7,21.50804901123047,1.124000072479248,0,0.0,0.0,,,,,0,,3,,
Raw,17867656,17871499000000,,,-1291005709936672256,0.0,56.81939364876598,-4.0440251832258856,13.401966360832908,165,11,0.0,207,45563362147820,19,27.1,-147.04034423828125,0.2443000078201294,0,0.0,0.0,,,,,0,,3,,
Raw,17867656,17871499000000,,,-1291005709936672256,0.0,56.81939364876598,-4.0440251832258856,13.401966360832908,165,6,0.0,207,45563358336127,1052,10.2,810.456298828125,20.8435001373291,0,0.0,0.0,,,,,0,,3,,
Raw,17867656,17871499000000,,,-1291005709936672256,0.0,56.81939364876598,-4.0440251832258856,13.401966360832908,165,9,0.0,207,45563362513356,184,13.3,284.11346435546875,6.179500102996826,0,0.0,0.0,,,,,0,,3,,
Raw,17867656,17871499000000,,,-1291005709936672256,0.0,56.81939364876598,-4.0440251832258856,13.401966360832908,165,1,0.0,207,45563356802947,88,17.4,-652.6709594726562,3.5505001544952393,0,0.0,0.0,,,,,0,,3,,
Raw,17867656,17871499000000,,,-1291005709936672256,0.0,56.81939364876598,-4.0440251832258856,13.401966360832908,165,7,0.0,207,45563368615837,19,27.7,458.6519775390625,0.7085000276565552,0,0.0,0.0,,,,,0,,3,,
Raw,17867656,17871499000000,,,-1291005709936672256,0.0,56.81939364876598,-4.0440251832258856,13.401966360832908,165,8,0.0,207,45563366775783,31,23.2,-252.13099670410156,0.875499963760376,0,0.0,0.0,,,,,0,,3,,
Raw,17867657,17871499000000,,,-1291005709936672256,0.0,56.81939364876598,-4.0440251832258856,13.401966360832908,165,3,0.0,15,380381356445520,24,25.6,85.67550659179688,0.4058000147342682,0,0.0,0.0,,,,,0,,1,,
Raw,17867657,17871499000000,,,-1291005709936672256,0.0,56.81939364876598,-4.0440251832258856,13.401966360832908,165,4,0.0,15,380381356054252,10,34.4,-630.7584838867188,0.04610000178217888,0,0.0,0.0,,,,,0,,1,,
Raw,17867657,17871499000000,,,-1291005709936672256,0.0,56.81939364876598,-4.0440251832258856,13.401966360832908,165,16,0.0,15,380381366495705,27,24.6,-143.67172241210938,0.6255000233650208,0,0.0,0.0,,,,,0,,1,,
Raw,17867657,17871499000000,,,-1291005709936672256,0.0,56.81939364876598,-4.0440251832258856,13.401966360832908,165,22,0.0,15,380381355749457,24,25.4,217.27880859375,0.4043000042438507,0,0.0,0.0,,,,,0,,1,,
Raw,17867657,17871499000000,,,-1291005709936672256,0.0,56.81939364876598,-4.0440251832258856,13.401966360832908,165,27,0.0,15,380381360100295,19,27.5,-678.6610107421875,0.04130000248551369,0,0.0,0.0,,,,,0,,1,,
Raw,17867657,17871499000000,,,-1291005709936672256,0.0,56.81939364876598,-4.0440251832258856,13.401966360832908,165,31,0.0,15,380381363167101,822,18.9,113.55774688720703,19.001001358032227,0,0.0,0.0,,,,,0,,1,,
Raw,17867658,17871499000000,,,-1291005709936672256,0.0,56.81939364876598,-4.0440251832258856,13.401966360832908,165,32,0.0,15,380381361175815,79,17.1,572.0513305664062,2.6679999828338623,0,0.0,0.0,,,,,0,,1,,
Raw,17867658,17871499000000,,,-1291005709936672256,0.0,56.81939364876598,-4.0440251832258856,13.401966360832908,165,2,0.0,783,380367310658622,16,29.9,0.5761184692382812,0.3935000002384186,0,0.0,0.0,,,,,0,,5,,
Raw,17867658,17871499000000,,,-1291005709936672256,0.0,56.81939364876598,-4.0440251832258856,13.401966360832908,165,3,0.0,783,380367313929502,2390,19.4,-7.844813823699951,32.84000015258789,0,0.0,0.0,,,,,0,,5,,
Raw,17867658,17871499000000,,,-1291005709936672256,0.0,56.81939364876598,-4.0440251832258856,13.401966360832908,165,5,0.0,783,380367302437564,14,30.6,4.330490589141846,0.3935000002384186,0,0.0,0.0,,,,,0,,5,,
Raw,17867658,17871499000000,,,-1291005709936672256,0.0,56.81939364876598,-4.0440251832258856,13.401966360832908,165,7,0.0,15,380367314254821,70,17.3,56.181156158447266,1.0175000429153442,0,0.0,0.0,,,,,0,,5,,
Raw,17867658,17871499000000,,,-1291005709936672256,0.0,56.81939364876598,-4.0440251832258856,13.401966360832908,165,10,0.0,15,380367311450806,16,29.3,10.074172019958496,0.04320000112056732,0,0.0,0.0,,,,,0,,5,,
Raw,17867659,17871499000000,,,-1291005709936672256,0.0,56.81939364876598,-4.0440251832258856,13.401966360832908,165,12,0.0,15,380367347064845,451,24.2,-559.8719482421875,14.087000846862793,0,0.0,0.0,,,,,0,,5,,
Raw,17867659,17871499000000,,,-1291005709936672256,0.0,56.81939364876598,-4.0440251832258856,13.401966360832908,165,14,0.0,15,380367353276388,31,23.3,-209.15982055664062,0.6360000371932983,0,0.0,0.0,,,,,0,,5,,
Raw,17867659,17871499000000,,,-1291005709936672256,0.0,56.81939364876598,-4.0440251832258856,13.401966360832908,165,21,0.0,15,380367356553539,13,31.5,480.31744384765625,0.04920000210404396,0,0.0,0.0,,,,,0,,5,,
Raw,17867659,17871499000000,,,-1291005709936672256,0.0,56.81939364876598,-4.0440251832258856,13.401966360832908,165,24,0.0,15,380367351360405,19,27.7,-257.5221252441406,0.05780000239610672,0,0.0,0.0,,,,,0,,5,,
Raw,17867659,17871499000000,,,-1291005709936672256,0.0,56.81939364876598,-4.0440251832258856,13.401966360832908,165,26,0.0,15,380367360465304,115,14.2,-53.42538833618164,2.756500005722046,0,0.0,0.0,,,,,0,,5,,
Raw,17867659,17871499000000,,,-1291005709936672256,0.0,56.81939364876598,-4.0440251832258856,13.401966360832908,165,3,0.0,7183,380381346037074,19,27.4,-445.6903381347656,0.06830000132322311,0,0.0,0.0,,,,,0,,6,,
Raw,17867659,17871499000000,,,-1291005709936672256,0.0,56.81939364876598,-4.0440251832258856,13.401966360832908,165,5,0.0,7183,380381356606704,35,22.1,-32.787601470947266,0.640500009059906,0,0.0,0.0,,,,,0,,6,,
Raw,17867660,17871499000000,,,-1291005709936672256,0.0,56.81939364876598,-4.0440251832258856,13.401966360832908,165,9,0.0,7183,380381359229786,1116,12.0,432.5375061035156,21.635000228881836,0,0.0,0.0,,,,,0,,6,,
Raw,17867660,17871499000000,,,-1291005709936672256,0.0,56.81939364876598,-4.0440251832258856,13.401966360832908,165,25,0.0,7183,380381351706130,13,31.3,-102.15968322753906,0.047700002789497375,0,0.0,0.0,,,,,0,,6,,
Fix,gps,22.925437,120.294638,51.060425,0.210000,10.720000,1606988364000
NMEA,$GPGSV,3,1,11,03,19,279,26,04,16,320,34,16,56,268,25,22,20,255,25*75,1606988363488
NMEA,$GPGSV,3,2,11,27,28,187,28,31,45,045,19,32,35,146,17,08,00,000,*73,1606988363489
NMEA,$GPGSV,3,3,11,18,01,102,,26,62,347,,29,16,043,*49,1606988363489
NMEA,$GLGSV,3,1,10,74,37,327,20,75,00,000,27,70,14,174,10,73,27,029,13*6B,1606988363489
NMEA,$GLGSV,3,2,10,65,08,329,17,71,53,216,28,72,44,303,23,84,24,123,*61,1606988363489
NMEA,$GLGSV,3,3,10,83,18,060,,85,00,000,*6D,1606988363490
NMEA,$GAGSV,2,1,06,03,19,317,27,05,66,279,22,09,46,167,12,25,40,279,31*6A,1606988363490
NMEA,$GAGSV,2,2,06,24,51,004,,33,02,054,*6B,1606988363490
NMEA,$PQGSV,1,1,03,193,40,170,16,195,45,130,14,194,61,032,,0,5*66,1606988363491
NMEA,$PQGSV,4,1,16,02,40,240,30,03,58,202,19,05,16,257,31,07,72,298,17,0,4*6B,1606988363492
NMEA,$PQGSV,4,2,16,10,52,254,29,12,02,189,24,14,25,300,23,21,38,203,32,0,4*6B,1606988363492
NMEA,$PQGSV,4,3,16,24,19,288,28,26,47,337,14,01,52,129,,04,37,115,,0,4*61,1606988363492
NMEA,$PQGSV,4,4,16,06,80,102,,09,66,333,,16,82,084,,22,04,164,,0,4*6D,1606988363492
NMEA,$GNGSA,A,3,03,04,16,22,27,32,,,,,,,1.6,1.3,0.9,1*39,1606988363493
NMEA,$GNGSA,A,2,74,,,,,,,,,,,,1.6,1.3,0.9,2*3C,1606988363494
NMEA,$GNGSA,A,2,25,,,,,,,,,,,,1.6,1.3,0.9,3*39,1606988363494
NMEA,$PQGSA,A,2,14,24,,,,,,,,,,,1.6,1.3,0.9,4*32,1606988363494
NMEA,$GNVTG,234.0,T,234.0,M,0.4,N,0.8,K,A*31,1606988363494
NMEA,$GNRMC,093924.00,A,2255.526248,N,12017.678297,E,0.4,234.0,031220,2.8,W,A*3A,1606988363494
NMEA,$GNGGA,093924.00,2255.526248,N,12017.678297,E,1,10,1.3,33.6,M,17.5,M,,*4E,1606988363495
NMEA,$GPGSV,3,1,11,03,19,279,25,04,16,320,35,16,56,268,25,22,20,255,24*76,1606988364485
Fix,gps,22.925434,120.294637,50.541321,0.380000,10.720000,1606988365000
Raw,17868582,17872499000000,,,-1291005709936672256,0.0,55.34848605748266,-2.3362807185732013,13.253704129150128,165,10,0.0,207,45564365207400,53,19.8,20.382463455200195,1.124000072479248,0,0.0,0.0,,,,,0,,3,,
Raw,17868583,17872499000000,,,-1291005709936672256,0.0,55.34848605748266,-2.3362807185732013,13.253704129150128,165,11,0.0,207,45564362148170,19,27.6,-148.1597442626953,0.2443000078201294,0,0.0,0.0,,,,,0,,3,,
Raw,17868583,17872499000000,,,-1291005709936672256,0.0,55.34848605748266,-2.3362807185732013,13.253704129150128,165,6,0.0,207,45564358333424,1189,10.2,810.456298828125,22.3435001373291,0,0.0,0.0,,,,,0,,3,,
Raw,17868584,17872499000000,,,-1291005709936672256,0.0,55.34848605748266,-2.3362807185732013,13.253704129150128,165,9,0.0,207,45564362512408,224,13.3,284.11346435546875,7.679500579833984,0,0.0,0.0,,,,,0,,3,,
Raw,17868584,17872499000000,,,-1291005709936672256,0.0,55.34848605748266,-2.3362807185732013,13.253704129150128,165,1,0.0,207,45564356805205,84,16.5,-651.1182250976562,2.140500068664551,0,0.0,0.0,,,,,0,,3,,
Raw,17868584,17872499000000,,,-1291005709936672256,0.0,55.34848605748266,-2.3362807185732013,13.253704129150128,165,7,0.0,207,45564368614360,16,29.7,456.4405822753906,0.2387000024318695,0,0.0,0.0,,,,,0,,3,,
Raw,17868585,17872499000000,,,-1291005709936672256,0.0,55.34848605748266,-2.3362807185732013,13.253704129150128,165,8,0.0,207,45564366776668,31,23.3,-253.16741943359375,0.875499963760376,0,0.0,0.0,,,,,0,,3,,
Raw,17868585,17872499000000,,,-1291005709936672256,0.0,55.34848605748266,-2.3362807185732013,13.253704129150128,165,3,0.0,15,380382356445298,24,25.0,83.31392669677734,0.4058000147342682,0,0.0,0.0,,,,,0,,1,,
Raw,17868586,17872499000000,,,-1291005709936672256,0.0,55.34848605748266,-2.3362807185732013,13.253704129150128,165,4,0.0,15,380382356056363,10,34.8,-631.8688354492188,0.04610000178217888,0,0.0,0.0,,,,,0,,1,,
Raw,17868586,17872499000000,,,-1291005709936672256,0.0,55.34848605748266,-2.3362807185732013,13.253704129150128,165,16,0.0,15,380382366496142,27,24.5,-145.20358276367188,0.6255000233650208,0,0.0,0.0,,,,,0,,1,,
Raw,17868586,17872499000000,,,-1291005709936672256,0.0,55.34848605748266,-2.3362807185732013,13.253704129150128,165,22,0.0,15,380382355748705,27,24.3,216.0308837890625,0.6889999508857727,0,0.0,0.0,,,,,0,,1,,
Raw,17868587,17872499000000,,,-1291005709936672256,0.0,55.34848605748266,-2.3362807185732013,13.253704129150128,165,27,0.0,15,380382360102529,19,27.8,-680.319580078125,0.04130000248551369,0,0.0,0.0,,,,,0,,1,,
Raw,17868587,17872499000000,,,-1291005709936672256,0.0,55.34848605748266,-2.3362807185732013,13.253704129150128,165,31,0.0,15,380382363166723,951,18.9,113.55774688720703,20.501001358032227,0,0.0,0.0,,,,,0,,1,,
Raw,17868588,17872499000000,,,-1291005709936672256,0.0,55.34848605748266,-2.3362807185732013,13.253704129150128,165,32,0.0,15,380382361173907,98,17.1,572.0513305664062,4.168000221252441,0,0.0,0.0,,,,,0,,1,,
Raw,17868588,17872499000000,,,-1291005709936672256,0.0,55.34848605748266,-2.3362807185732013,13.253704129150128,165,2,0.0,783,380368310658611,16,29.8,1.0754210948944092,0.3935000002384186,0,0.0,0.0,,,,,0,,5,,
Raw,17868589,17872499000000,,,-1291005709936672256,0.0,55.34848605748266,-2.3362807185732013,13.253704129150128,165,3,0.0,783,380368313929528,2612,19.4,-7.844813823699951,34.34000015258789,0,0.0,0.0,,,,,0,,5,,
Raw,17868589,17872499000000,,,-1291005709936672256,0.0,55.34848605748266,-2.3362807185732013,13.253704129150128,165,5,0.0,783,380368302437557,14,30.0,4.071237564086914,0.3935000002384186,0,0.0,0.0,,,,,0,,5,,
Raw,17868589,17872499000000,,,-1291005709936672256,0.0,55.34848605748266,-2.3362807185732013,13.253704129150128,165,7,0.0,15,380368314254550,53,19.4,53.75185012817383,0.8675000071525574,0,0.0,0.0,,,,,0,,5,,
Raw,17868590,17872499000000,,,-1291005709936672256,0.0,55.34848605748266,-2.3362807185732013,13.253704129150128,165,10,0.0,15,380368311450786,16,29.6,8.95026683807373,0.04320000112056732,0,0.0,0.0,,,,,0,,5,,
Raw,17868590,17872499000000,,,-1291005709936672256,0.0,55.34848605748266,-2.3362807185732013,13.253704129150128,165,12,0.0,15,380368347066712,548,24.2,-559.8719482421875,15.587000846862793,0,0.0,0.0,,,,,0,,5,,
Raw,17868591,17872499000000,,,-1291005709936672256,0.0,55.34848605748266,-2.3362807185732013,13.253704129150128,165,14,0.0,15,380368353277092,27,24.1,-209.985595703125,0.5960000157356262,0,0.0,0.0,,,,,0,,5,,
Raw,17868591,17872499000000,,,-1291005709936672256,0.0,55.34848605748266,-2.3362807185732013,13.253704129150128,165,21,0.0,15,380368356551944,13,31.1,479.1995849609375,0.04920000210404396,0,0.0,0.0,,,,,0,,5,,
Raw,17868591,17872499000000,,,-1291005709936672256,0.0,55.34848605748266,-2.3362807185732013,13.253704129150128,165,24,0.0,15,380368351361288,19,27.5,-258.47467041015625,0.05780000239610672,0,0.0,0.0,,,,,0,,5,,
Raw,17868592,17872499000000,,,-1291005709936672256,0.0,55.34848605748266,-2.3362807185732013,13.253704129150128,165,26,0.0,15,380368360465482,135,14.2,-53.42538833618164,4.256500244140625,0,0.0,0.0,,,,,0,,5,,
Raw,17868592,17872499000000,,,-1291005709936672256,0.0,55.34848605748266,-2.3362807185732013,13.253704129150128,165,3,0.0,7183,380382346038570,17,28.0,-446.5907287597656,0.41350001096725464,0,0.0,0.0,,,,,0,,6,,
Raw,17868593,17872499000000,,,-1291005709936672256,0.0,55.34848605748266,-2.3362807185732013,13.253704129150128,165,5,0.0,7183,380382356606785,40,21.8,-34.538299560546875,0.6904999613761902,0,0.0,0.0,,,,,0,,6,,
Raw,17868593,17872499000000,,,-1291005709936672256,0.0,55.34848605748266,-2.3362807185732013,13.253704129150128,165,9,0.0,7183,380382359228343,1260,12.0,432.5375061035156,23.135000228881836,0,0.0,0.0,,,,,0,,6,,
Raw,17868593,17872499000000,,,-1291005709936672256,0.0,55.34848605748266,-2.3362807185732013,13.253704129150128,165,25,0.0,7183,380382351706466,13,31.8,-102.88227844238281,0.32899999618530273,0,0.0,0.0,,,,,0,,6,,
NMEA,$GPGSV,3,2,11,27,28,187,28,31,45,045,19,32,35,146,17,08,00,000,*73,1606988364485
NMEA,$GPGSV,3,3,11,18,01,102,,26,62,347,,29,16,043,*49,1606988364486
NMEA,$GLGSV,3,1,10,74,37,327,20,75,00,000,28,70,14,174,10,73,27,029,13*64,1606988364486
NMEA,$GLGSV,3,2,10,65,08,329,17,71,53,216,30,72,44,303,23,84,24,123,*68,1606988364486
NMEA,$GLGSV,3,3,10,83,18,060,,85,00,000,*6D,1606988364486
NMEA,$GAGSV,2,1,06,03,19,317,28,05,66,279,22,09,46,167,12,25,40,279,32*66,1606988364487
NMEA,$GAGSV,2,2,06,24,51,004,,33,02,054,*6B,1606988364487
NMEA,$PQGSV,1,1,03,193,40,170,16,195,45,130,14,194,61,032,,0,5*66,1606988364488
NMEA,$PQGSV,4,1,16,02,40,240,30,03,58,202,19,05,16,257,30,07,72,298,19,0,4*64,1606988364488
NMEA,$PQGSV,4,2,16,10,52,254,30,12,02,189,24,14,25,300,24,21,38,203,31,0,4*67,1606988364488
NMEA,$PQGSV,4,3,16,24,19,288,28,26,47,337,14,01,52,129,,04,37,115,,0,4*61,1606988364489
NMEA,$PQGSV,4,4,16,06,80,102,,09,66,333,,16,82,084,,22,04,164,,0,4*6D,1606988364489
NMEA,$GNGSA,A,3,03,04,16,22,27,32,,,,,,,1.6,1.3,0.9,1*39,1606988364490
NMEA,$GNGSA,A,2,74,,,,,,,,,,,,1.6,1.3,0.9,2*3C,1606988364490
NMEA,$GNGSA,A,2,25,,,,,,,,,,,,1.6,1.3,0.9,3*39,1606988364490
NMEA,$PQGSA,A,2,14,24,,,,,,,,,,,1.6,1.3,0.9,4*32,1606988364490
NMEA,$GNVTG,225.6,T,225.6,M,0.7,N,1.4,K,A*3F,1606988364490
NMEA,$GNRMC,093925.00,A,2255.526039,N,12017.678222,E,0.7,225.6,031220,2.8,W,A*34,1606988364490
NMEA,$GNGGA,093925.00,2255.526039,N,12017.678222,E,1,10,1.3,33.1,M,17.5,M,,*42,1606988364491
Fix,gps,22.925432,120.294641,49.779846,0.460000,10.720000,1606988366000
NMEA,$GPGSV,3,1,11,03,19,279,26,04,16,320,35,16,56,268,25,22,20,255,19*7B,1606988365485
NMEA,$GPGSV,3,2,11,27,28,187,28,31,45,045,19,32,35,146,17,08,00,000,*73,1606988365485
Raw,17869586,17873499000000,,,-1291005709936672256,0.0,55.31853093998507,-7.566548694818283,14.694682468142855,165,10,0.0,207,45565365207353,46,20.3,20.147966384887695,1.0540000200271606,0,0.0,0.0,,,,,0,,3,,
Raw,17869587,17873499000000,,,-1291005709936672256,0.0,55.31853093998507,-7.566548694818283,14.694682468142855,165,11,0.0,207,45565362148682,16,29.0,-148.4522247314453,0.2296999990940094,0,0.0,0.0,,,,,0,,3,,
Raw,17869587,17873499000000,,,-1291005709936672256,0.0,55.31853093998507,-7.566548694818283,14.694682468142855,165,6,0.0,207,45565358330721,1336,10.2,810.456298828125,23.8435001373291,0,0.0,0.0,,,,,0,,3,,
Raw,17869587,17873499000000,,,-1291005709936672256,0.0,55.31853093998507,-7.566548694818283,14.694682468142855,165,9,0.0,207,45565362511467,116,14.1,284.1602783203125,3.059500217437744,0,0.0,0.0,,,,,0,,3,,
Raw,17869588,17873499000000,,,-1291005709936672256,0.0,55.31853093998507,-7.566548694818283,14.694682468142855,165,1,0.0,207,45565356807022,53,19.5,-653.1105346679688,1.1405000686645508,0,0.0,0.0,,,,,0,,3,,
Raw,17869588,17873499000000,,,-1291005709936672256,0.0,55.31853093998507,-7.566548694818283,14.694682468142855,165,7,0.0,207,45565368612774,17,28.6,457.27899169921875,0.6685000061988831,0,0.0,0.0,,,,,0,,3,,
Raw,17869589,17873499000000,,,-1291005709936672256,0.0,55.31853093998507,-7.566548694818283,14.694682468142855,165,8,0.0,207,45565366777486,35,22.0,-252.93399047851562,0.9354999661445618,0,0.0,0.0,,,,,0,,3,,
Raw,17869589,17873499000000,,,-1291005709936672256,0.0,55.31853093998507,-7.566548694818283,14.694682468142855,165,3,0.0,15,380383356444969,24,25.6,84.78534698486328,0.6004999876022339,0,0.0,0.0,,,,,0,,1,,
Raw,17869589,17873499000000,,,-1291005709936672256,0.0,55.31853093998507,-7.566548694818283,14.694682468142855,165,4,0.0,15,380383356058489,9,35.3,-632.1486206054688,0.04560000076889992,0,0.0,0.0,,,,,0,,1,,
Raw,17869590,17873499000000,,,-1291005709936672256,0.0,55.31853093998507,-7.566548694818283,14.694682468142855,165,16,0.0,15,380383366496670,27,24.9,-145.18455505371094,0.6255000233650208,0,0.0,0.0,,,,,0,,1,,
Raw,17869590,17873499000000,,,-1291005709936672256,0.0,55.31853093998507,-7.566548694818283,14.694682468142855,165,22,0.0,15,380383355748011,53,19.0,215.84059143066406,1.0190000534057617,0,0.0,0.0,,,,,0,,1,,
Raw,17869591,17873499000000,,,-1291005709936672256,0.0,55.31853093998507,-7.566548694818283,14.694682468142855,165,27,0.0,15,380383360104807,19,27.9,-679.9763793945312,0.4964999854564667,0,0.0,0.0,,,,,0,,1,,
Raw,17869591,17873499000000,,,-1291005709936672256,0.0,55.31853093998507,-7.566548694818283,14.694682468142855,165,31,0.0,15,380383363166344,1089,18.9,113.55774688720703,22.001001358032227,0,0.0,0.0,,,,,0,,1,,
Raw,17869591,17873499000000,,,-1291005709936672256,0.0,55.31853093998507,-7.566548694818283,14.694682468142855,165,32,0.0,15,380383361171999,127,17.1,572.0513305664062,5.668000221252441,0,0.0,0.0,,,,,0,,1,,
Raw,17869592,17873499000000,,,-1291005709936672256,0.0,55.31853093998507,-7.566548694818283,14.694682468142855,165,2,0.0,783,380369310658620,16,29.9,0.9986054301261902,0.3935000002384186,0,0.0,0.0,,,,,0,,5,,
Raw,17869592,17873499000000,,,-1291005709936672256,0.0,55.31853093998507,-7.566548694818283,14.694682468142855,165,3,0.0,783,380369313929555,2843,19.4,-7.844813823699951,35.84000015258789,0,0.0,0.0,,,,,0,,5,,
Raw,17869593,17873499000000,,,-1291005709936672256,0.0,55.31853093998507,-7.566548694818283,14.694682468142855,165,5,0.0,783,380369302437548,16,29.3,1.85318124294281,0.41350001096725464,0,0.0,0.0,,,,,0,,5,,
Raw,17869593,17873499000000,,,-1291005709936672256,0.0,55.31853093998507,-7.566548694818283,14.694682468142855,165,7,0.0,15,380369314254391,80,16.2,53.15653610229492,1.097499966621399,0,0.0,0.0,,,,,0,,5,,
Raw,17869594,17873499000000,,,-1291005709936672256,0.0,55.31853093998507,-7.566548694818283,14.694682468142855,165,10,0.0,15,380369311450751,14,30.4,8.650665283203125,0.04230000078678131,0,0.0,0.0,,,,,0,,5,,
Raw,17869594,17873499000000,,,-1291005709936672256,0.0,55.31853093998507,-7.566548694818283,14.694682468142855,165,12,0.0,15,380369347068580,655,24.2,-559.8719482421875,17.086999893188477,0,0.0,0.0,,,,,0,,5,,
Raw,17869595,17873499000000,,,-1291005709936672256,0.0,55.31853093998507,-7.566548694818283,14.694682468142855,165,14,0.0,15,380369353277779,35,22.6,-210.39845275878906,0.6859999895095825,0,0.0,0.0,,,,,0,,5,,
Raw,17869595,17873499000000,,,-1291005709936672256,0.0,55.31853093998507,-7.566548694818283,14.694682468142855,165,21,0.0,15,380369356550354,13,31.0,478.9421691894531,0.04920000210404396,0,0.0,0.0,,,,,0,,5,,
Raw,17869595,17873499000000,,,-1291005709936672256,0.0,55.31853093998507,-7.566548694818283,14.694682468142855,165,24,0.0,15,380369351362145,17,28.0,-258.7746276855469,0.049800001084804535,0,0.0,0.0,,,,,0,,5,,
Raw,17869596,17873499000000,,,-1291005709936672256,0.0,55.31853093998507,-7.566548694818283,14.694682468142855,165,26,0.0,15,380369360465660,164,14.2,-53.42538833618164,5.756500244140625,0,0.0,0.0,,,,,0,,5,,
Raw,17869596,17873499000000,,,-1291005709936672256,0.0,55.31853093998507,-7.566548694818283,14.694682468142855,165,3,0.0,7183,380383346040041,17,28.9,-446.79052734375,0.41350001096725464,0,0.0,0.0,,,,,0,,6,,
Raw,17869596,17873499000000,,,-1291005709936672256,0.0,55.31853093998507,-7.566548694818283,14.694682468142855,165,5,0.0,7183,380383356606875,31,23.3,-33.75809860229492,0.6004999876022339,0,0.0,0.0,,,,,0,,6,,
Raw,17869597,17873499000000,,,-1291005709936672256,0.0,55.31853093998507,-7.566548694818283,14.694682468142855,165,9,0.0,7183,380383359226900,1415,12.0,432.5375061035156,24.635000228881836,0,0.0,0.0,,,,,0,,6,,
Raw,17869597,17873499000000,,,-1291005709936672256,0.0,55.31853093998507,-7.566548694818283,14.694682468142855,165,25,0.0,7183,380383351706813,12,32.4,-103.158203125,0.30900001525878906,0,0.0,0.0,,,,,0,,6,,
NMEA,$GPGSV,3,3,11,18,01,102,,26,62,347,,29,16,043,*49,1606988365486
NMEA,$GLGSV,3,1,10,74,37,327,20,75,00,000,29,70,14,174,10,73,27,029,14*62,1606988365486
NMEA,$GLGSV,3,2,10,65,08,329,20,71,53,216,29,72,44,303,22,84,24,123,*65,1606988365486
NMEA,$GLGSV,3,3,10,83,18,060,,85,00,000,*6D,1606988365487
NMEA,$GAGSV,2,1,06,03,19,317,29,05,66,279,23,09,46,167,12,25,40,279,32*66,1606988365487
NMEA,$GAGSV,2,2,06,24,51,004,,33,02,054,*6B,1606988365488
NMEA,$PQGSV,1,1,03,193,40,170,16,195,45,130,15,194,61,032,,0,5*67,1606988365490
NMEA,$PQGSV,4,1,16,02,40,240,30,03,58,202,19,05,16,257,29,07,72,298,16,0,4*63,1606988365490
NMEA,$PQGSV,4,2,16,10,52,254,30,12,02,189,24,14,25,300,23,21,38,203,31,0,4*60,1606988365491
NMEA,$PQGSV,4,3,16,24,19,288,28,26,47,337,14,01,52,129,,04,37,115,,0,4*61,1606988365491
NMEA,$PQGSV,4,4,16,06,80,102,,09,66,333,,16,82,084,,22,04,164,,0,4*6D,1606988365491
NMEA,$GNGSA,A,3,03,04,16,22,27,32,,,,,,,1.6,1.3,0.9,1*39,1606988365492
NMEA,$GNGSA,A,2,74,,,,,,,,,,,,1.6,1.3,0.9,2*3C,1606988365493
NMEA,$GNGSA,A,2,25,,,,,,,,,,,,1.6,1.3,0.9,3*39,1606988365493
NMEA,$PQGSA,A,2,14,24,,,,,,,,,,,1.6,1.3,0.9,4*32,1606988365493
NMEA,$GNVTG,111.3,T,111.3,M,0.9,N,1.7,K,A*32,1606988365493
NMEA,$GNRMC,093926.00,A,2255.525895,N,12017.678462,E,0.9,111.3,031220,2.8,W,A*37,1606988365494
NMEA,$GNGGA,093926.00,2255.525895,N,12017.678462,E,1,10,1.3,32.3,M,17.5,M,,*4D,1606988365494
Raw,17870644,17874499000000,,,-1291005709936672256,0.0,58.30766895087436,-8.720504561263063,17.94462576976245,165,10,0.0,207,45566365207307,40,21.4,19.453857421875,0.9939999580383301,0,0.0,0.0,,,,,0,,3,,
Raw,17870645,17874499000000,,,-1291005709936672256,0.0,58.30766895087436,-8.720504561263063,17.94462576976245,165,11,0.0,207,45566362149231,17,28.4,-148.828857421875,0.659500002861023,0,0.0,0.0,,,,,0,,3,,
Raw,17870645,17874499000000,,,-1291005709936672256,0.0,58.30766895087436,-8.720504561263063,17.94462576976245,165,6,0.0,207,45566358328017,1494,10.2,810.456298828125,25.3435001373291,0,0.0,0.0,,,,,0,,3,,
Raw,17870646,17874499000000,,,-1291005709936672256,0.0,58.30766895087436,-8.720504561263063,17.94462576976245,165,9,0.0,207,45566362510519,137,14.1,284.1602783203125,4.559500217437744,0,0.0,0.0,,,,,0,,3,,
Raw,17870647,17874499000000,,,-1291005709936672256,0.0,58.30766895087436,-8.720504561263063,17.94462576976245,165,1,0.0,207,45566356809506,40,21.0,-653.5127563476562,1.0104999542236328,0,0.0,0.0,,,,,0,,3,,
Raw,17870647,17874499000000,,,-1291005709936672256,0.0,58.30766895087436,-8.720504561263063,17.94462576976245,165,7,0.0,207,45566368611264,14,30.7,456.782958984375,0.2378000020980835,0,0.0,0.0,,,,,0,,3,,
Raw,17870648,17874499000000,,,-1291005709936672256,0.0,58.30766895087436,-8.720504561263063,17.94462576976245,165,8,0.0,207,45566366778426,35,22.2,-253.60626220703125,0.9354999661445618,0,0.0,0.0,,,,,0,,3,,
Raw,17870648,17874499000000,,,-1291005709936672256,0.0,58.30766895087436,-8.720504561263063,17.94462576976245,165,3,0.0,15,380384356444715,19,27.4,83.95220184326172,0.06530000269412994,0,0.0,0.0,,,,,0,,1,,
Raw,17870649,17874499000000,,,-1291005709936672256,0.0,58.30766895087436,-8.720504561263063,17.94462576976245,165,4,0.0,15,380384356060595,9,35.1,-632.5751342773438,0.04560000076889992,0,0.0,0.0,,,,,0,,1,,
Raw,17870650,17874499000000,,,-1291005709936672256,0.0,58.30766895087436,-8.720504561263063,17.94462576976245,165,16,0.0,15,380384366497128,21,26.6,-145.88113403320312,0.12020000070333481,0,0.0,0.0,,,,,0,,1,,
Raw,17870651,17874499000000,,,-1291005709936672256,0.0,58.30766895087436,-8.720504561263063,17.94462576976245,165,22,0.0,15,380384355747285,70,17.9,215.7930145263672,1.0989999771118164,0,0.0,0.0,,,,,0,,1,,
Raw,17870651,17874499000000,,,-1291005709936672256,0.0,58.30766895087436,-8.720504561263063,17.94462576976245,165,27,0.0,15,380384360107070,17,28.2,-680.47216796875,0.0333000011742115,0,0.0,0.0,,,,,0,,1,,
Raw,17870652,17874499000000,,,-1291005709936672256,0.0,58.30766895087436,-8.720504561263063,17.94462576976245,165,31,0.0,15,380384363165965,1238,18.9,113.55774688720703,23.501001358032227,0,0.0,0.0,,,,,0,,1,,
Raw,17870653,17874499000000,,,-1291005709936672256,0.0,58.30766895087436,-8.720504561263063,17.94462576976245,165,32,0.0,15,380384361170019,125,14.3,573.0313110351562,3.7280001640319824,0,0.0,0.0,,,,,0,,1,,
Raw,17870653,17874499000000,,,-1291005709936672256,0.0,58.30766895087436,-8.720504561263063,17.94462576976245,165,3,0.0,7183,380384346041543,19,27.9,-447.6753845214844,0.44350001215934753,0,0.0,0.0,,,,,0,,6,,
Raw,17870654,17874499000000,,,-1291005709936672256,0.0,58.30766895087436,-8.720504561263063,17.94462576976245,165,5,0.0,7183,380384356607007,31,23.7,-34.94743347167969,0.6004999876022339,0,0.0,0.0,,,,,0,,6,,
Raw,17870655,17874499000000,,,-1291005709936672256,0.0,58.30766895087436,-8.720504561263063,17.94462576976245,165,9,0.0,7183,380384359225457,1580,12.0,432.5375061035156,26.13500213623047,0,0.0,0.0,,,,,0,,6,,
Raw,17870655,17874499000000,,,-1291005709936672256,0.0,58.30766895087436,-8.720504561263063,17.94462576976245,165,25,0.0,7183,380384351707160,12,32.9,-103.82423400878906,0.30900001525878906,0,0.0,0.0,,,,,0,,6,,
Fix,gps,22.925430,120.294649,49.601746,0.000000,10.720000,1606988367000
NMEA,$GPGSV,3,1,11,03,19,279,27,04,16,320,35,16,56,268,27,22,20,255,18*79,1606988366487
NMEA,$GPGSV,3,2,11,27,28,187,28,31,45,045,19,32,35,146,14,08,00,000,*70,1606988366487
NMEA,$GPGSV,3,3,11,18,01,102,,26,62,347,,29,16,043,*49,1606988366489
NMEA,$GLGSV,3,1,10,74,37,327,21,75,00,000,28,70,14,174,10,73,27,029,14*62,1606988366490
NMEA,$GLGSV,3,2,10,65,08,329,21,71,53,216,31,72,44,303,22,84,24,123,*6D,1606988366490
NMEA,$GLGSV,3,3,10,83,18,060,,85,00,000,*6D,1606988366490
NMEA,$GAGSV,2,1,06,03,19,317,28,05,66,279,24,09,46,167,12,25,40,279,33*61,1606988366490
NMEA,$GAGSV,2,2,06,24,51,004,,33,02,054,*6B,1606988366491
NMEA,$PQGSV,1,1,03,193,40,170,17,195,45,130,15,194,61,032,,0,5*66,1606988366491
NMEA,$PQGSV,4,1,16,02,40,240,31,03,58,202,19,05,16,257,29,07,72,298,18,0,4*6C,1606988366491
NMEA,$PQGSV,4,2,16,10,52,254,31,12,02,189,24,14,25,300,21,21,38,203,32,0,4*60,1606988366492
NMEA,$PQGSV,4,3,16,24,19,288,28,26,47,337,14,01,52,129,,04,37,115,,0,4*61,1606988366492
NMEA,$PQGSV,4,4,16,06,80,102,,09,66,333,,16,82,084,,22,04,164,,0,4*6D,1606988366492
NMEA,$GNGSA,A,3,03,04,16,22,27,32,,,,,,,1.6,1.3,0.9,1*39,1606988366493
NMEA,$GNGSA,A,2,74,,,,,,,,,,,,1.6,1.3,0.9,2*3C,1606988366493
NMEA,$GNGSA,A,2,25,,,,,,,,,,,,1.6,1.3,0.9,3*39,1606988366493
NMEA,$PQGSA,A,2,14,24,,,,,,,,,,,1.6,1.3,0.9,4*32,1606988366494
NMEA,$GNVTG,,T,,M,0.0,N,0.0,K,A*3D,1606988366494
NMEA,$GNRMC,093927.00,A,2255.525816,N,12017.678912,E,0.0,,031220,2.8,W,A*12,1606988366494
NMEA,$GNGGA,093927.00,2255.525816,N,12017.678912,E,1,10,1.3,32.1,M,17.5,M,,*4F,1606988366494
Fix,gps,22.925431,120.294651,49.482422,0.000000,10.720000,1606988368000
NMEA,$GPGSV,3,1,11,03,19,279,28,04,16,320,33,16,56,268,27,22,20,255,18*70,1606988367487
NMEA,$GPGSV,3,2,11,27,28,187,30,31,45,045,19,32,35,146,14,08,00,000,*79,1606988367487
Raw,17871586,17875499000000,,,-1291005709936672256,0.0,53.0086545040831,-9.894319334027443,14.689241170756338,165,10,0.0,207,45567365207131,46,20.1,20.917116165161133,1.0540000200271606,0,0.0,0.0,,,,,0,,3,,
Raw,17871587,17875499000000,,,-1291005709936672256,0.0,53.0086545040831,-9.894319334027443,14.689241170756338,165,11,0.0,207,45567362149753,17,28.7,-148.4787139892578,0.2363000065088272,0,0.0,0.0,,,,,0,,3,,
Raw,17871588,17875499000000,,,-1291005709936672256,0.0,53.0086545040831,-9.894319334027443,14.689241170756338,165,6,0.0,207,45567358325314,1661,10.2,810.456298828125,26.843502044677734,0,0.0,0.0,,,,,0,,3,,
Raw,17871588,17875499000000,,,-1291005709936672256,0.0,53.0086545040831,-9.894319334027443,14.689241170756338,165,9,0.0,207,45567362509571,167,14.1,284.1602783203125,6.059500217437744,0,0.0,0.0,,,,,0,,3,,
Raw,17871588,17875499000000,,,-1291005709936672256,0.0,53.0086545040831,-9.894319334027443,14.689241170756338,165,1,0.0,207,45567356811580,31,23.0,-652.3529052734375,0.8904999494552612,0,0.0,0.0,,,,,0,,3,,
Raw,17871589,17875499000000,,,-1291005709936672256,0.0,53.0086545040831,-9.894319334027443,14.689241170756338,165,7,0.0,207,45567368609754,13,31.0,457.2989501953125,0.23720000684261322,0,0.0,0.0,,,,,0,,3,,
