# 
# Header Description:
# 
# Version: v2.0.0.1 Platform: 8.0.0 Manufacturer: Sony Model: G8142
# 
# Raw,ElapsedRealtimeMillis,TimeNanos,LeapSecond,TimeUncertaintyNanos,FullBiasNanos,BiasNanos,BiasUncertaintyNanos,DriftNanosPerSecond,DriftUncertaintyNanosPerSecond,HardwareClockDiscontinuityCount,Svid,TimeOffsetNanos,State,ReceivedSvTimeNanos,ReceivedSvTimeUncertaintyNanos,Cn0DbHz,PseudorangeRateMetersPerSecond,PseudorangeRateUncertaintyMetersPerSecond,AccumulatedDeltaRangeState,AccumulatedDeltaRangeMeters,AccumulatedDeltaRangeUncertaintyMeters,CarrierFrequencyHz,CarrierCycles,CarrierPhase,CarrierPhaseUncertainty,MultipathIndicator,SnrInDb,ConstellationType,AgcDb,CarrierFrequencyHz
# 
# Fix,Provider,Latitude,Longitude,Altitude,Speed,Accuracy,(UTC)TimeInMs
# 
# Nav,Svid,Type,Status,MessageId,Sub-messageId,Data(Bytes)
# 
Raw,18288599,18292362000000,,,-1291005709936671744,0.0,34.32590528973378,-8.526581398646803,8.568584047209926,165,10,0.0,207,45984228171865,538,18.8,28.33659553527832,15.24850082397461,0,0.0,0.0,,,,,0,,3,,
Raw,18288599,18292362000000,,,-1291005709936671744,0.0,34.32590528973378,-8.526581398646803,8.568584047209926,165,11,0.0,207,45984225347122,13,36.0,-141.7565155029297,1.518700122833252,0,0.0,0.0,,,,,0,,3,,
Raw,18288599,18292362000000,,,-1291005709936671744,0.0,34.32590528973378,-8.526581398646803,8.568584047209926,165,6,0.0,207,45984220195044,1999,10.1,811.2152709960938,29.63650131225586,0,0.0,0.0,,,,,0,,3,,
Raw,18288600,18292362000000,,,-1291005709936671744,0.0,34.32590528973378,-8.526581398646803,8.568584047209926,165,9,0.0,207,45984225116868,1702,12.0,277.5028991699219,10.054000854492188,0,0.0,0.0,,,,,0,,3,,
Raw,18288600,18292362000000,,,-1291005709936671744,0.0,34.32590528973378,-8.526581398646803,8.568584047209926,165,1,0.0,207,45984220689538,19,27.4,-615.5053100585938,0.29360002279281616,0,0.0,0.0,,,,,0,,3,,
Raw,18288600,18292362000000,,,-1291005709936671744,0.0,34.32590528973378,-8.526581398646803,8.568584047209926,165,7,0.0,207,45984230933162,10,34.4,509.57122802734375,0.2320999950170517,0,0.0,0.0,,,,,0,,3,,
Raw,18288601,18292362000000,,,-1291005709936671744,0.0,34.32590528973378,-8.526581398646803,8.568584047209926,165,8,0.0,207,45984230081715,14,30.3,-186.9934844970703,0.241799995303154,0,0.0,0.0,,,,,0,,3,,
Raw,18288601,18292362000000,,,-1291005709936671744,0.0,34.32590528973378,-8.526581398646803,8.568584047209926,165,3,0.0,15,380802219297337,8,36.7,121.35989379882812,0.042500000447034836,0,0.0,0.0,,,,,0,,1,,
Raw,18288601,18292362000000,,,-1291005709936671744,0.0,34.32590528973378,-8.526581398646803,8.568584047209926,165,4,0.0,15,380802219928130,6,38.2,-617.5006103515625,0.03970000147819519,0,0.0,0.0,,,,,0,,1,,
Raw,18288601,18292362000000,,,-1291005709936671744,0.0,34.32590528973378,-8.526581398646803,8.568584047209926,165,8,0.0,15,380802214312732,35,22.0,-722.2406005859375,0.7924999594688416,0,0.0,0.0,,,,,0,,1,,
Raw,18288601,18292362000000,,,-1291005709936671744,0.0,34.32590528973378,-8.526581398646803,8.568584047209926,165,16,0.0,15,380802229668863,8,36.3,-106.67322540283203,0.027500001713633537,0,0.0,0.0,,,,,0,,1,,
Raw,18288602,18292362000000,,,-1291005709936671744,0.0,34.32590528973378,-8.526581398646803,8.568584047209926,165,22,0.0,15,380802218427694,11,33.3,236.75482177734375,0.04600000008940697,0,0.0,0.0,,,,,0,,1,,
Raw,18288602,18292362000000,,,-1291005709936671744,0.0,34.32590528973378,-8.526581398646803,8.568584047209926,165,27,0.0,15,380802224038714,16,29.0,-661.658203125,0.0357000008225441,0,0.0,0.0,,,,,0,,1,,
Raw,18288602,18292362000000,,,-1291005709936671744,0.0,34.32590528973378,-8.526581398646803,8.568584047209926,165,32,0.0,15,380802223350031,1167,16.0,599.8627319335938,9.541000366210938,0,0.0,0.0,,,,,0,,1,,
Fix,gps,22.925478,120.294705,43.833374,0.000000,3.216000,1606988785000
NMEA,$GPGSV,3,1,11,03,18,275,37,04,20,320,38,08,02,202,22,16,57,275,36*73,1606988784483
NMEA,$GPGSV,3,2,11,22,18,253,33,27,32,185,29,32,31,147,16,18,02,098,*7A,1606988784484
NMEA,$GPGSV,3,3,11,26,59,352,,29,14,040,,31,45,050,*49,1606988784484
NMEA,$GLGSV,3,1,10,74,37,333,19,75,00,000,36,70,10,174,10,73,26,032,12*6A,1606988784484
NMEA,$GLGSV,3,2,10,65,11,326,27,71,49,212,34,72,45,296,30,84,27,119,*63,1606988784484
NMEA,$GLGSV,3,3,10,83,18,056,,85,03,170,*6D,1606988784484
NMEA,$GAGSV,1,1,0,*74,1606988784484
NMEA,$PQGSV,1,1,03,193,38,170,20,195,47,129,11,194,61,032,,0,5*63,1606988784485
NMEA,$PQGSV,1,1,0,*73,1606988784485
NMEA,$GNGSA,A,3,03,04,16,22,27,,,,,,,,2.1,1.9,0.9,1*36,1606988784486
NMEA,$GNGSA,A,2,71,,,,,,,,,,,,2.1,1.9,0.9,2*37,1606988784486
NMEA,$GNVTG,,T,,M,0.0,N,0.0,K,A*3D,1606988784486
NMEA,$GNRMC,094625.00,A,2255.528651,N,12017.682320,E,0.0,,031220,2.8,W,A*16,1606988784486
NMEA,$GNGGA,094625.00,2255.528651,N,12017.682320,E,1,06,1.9,26.4,M,17.5,M,,*46,1606988784486
Raw,18289547,18293835000000,,,-1291005709936614144,0.0,4199.304152280092,-6.776131457812559,16.430998714567103,166,1,0.0,207,45985693635203,31,23.7,-611.908203125,0.8709999918937683,0,0.0,0.0,,,,,0,,3,,
Raw,18289547,18293835000000,,,-1291005709936614144,0.0,4199.304152280092,-6.776131457812559,16.430998714567103,166,7,0.0,207,45985703873229,12,32.1,513.1502685546875,0.22589999437332153,0,0.0,0.0,,,,,0,,3,,
Raw,18289547,18293835000000,,,-1291005709936614144,0.0,4199.304152280092,-6.776131457812559,16.430998714567103,166,8,0.0,207,45985703025223,14,30.0,-183.39981079101562,0.2612999975681305,0,0.0,0.0,,,,,0,,3,,
Raw,18289548,18293835000000,,,-1291005709936614144,0.0,4199.304152280092,-6.776131457812559,16.430998714567103,166,3,0.0,15,380803692239346,7,37.4,124.85244750976562,0.03060000017285347,0,0.0,0.0,,,,,0,,1,,
Raw,18289548,18293835000000,,,-1291005709936614144,0.0,4199.304152280092,-6.776131457812559,16.430998714567103,166,4,0.0,15,380803692873760,7,37.3,-614.0671997070312,0.03060000017285347,0,0.0,0.0,,,,,0,,1,,
Raw,18289548,18293835000000,,,-1291005709936614144,0.0,4199.304152280092,-6.776131457812559,16.430998714567103,166,8,0.0,15,380803687258900,21,26.5,-717.1121826171875,0.5220000147819519,0,0.0,0.0,,,,,0,,1,,
Raw,18289548,18293835000000,,,-1291005709936614144,0.0,4199.304152280092,-6.776131457812559,16.430998714567103,166,16,0.0,15,380803702611996,7,37.3,-103.09862518310547,0.04560000076889992,0,0.0,0.0,,,,,0,,1,,
Raw,18289548,18293835000000,,,-1291005709936614144,0.0,4199.304152280092,-6.776131457812559,16.430998714567103,166,22,0.0,15,380803691369139,9,35.1,240.1893768310547,0.03150000050663948,0,0.0,0.0,,,,,0,,1,,
Raw,18289549,18293835000000,,,-1291005709936614144,0.0,4199.304152280092,-6.776131457812559,16.430998714567103,166,27,0.0,15,380803696984589,14,30.1,-658.142578125,0.05079999938607216,0,0.0,0.0,,,,,0,,1,,
Fix,gps,22.925478,120.294705,43.838257,0.000000,3.216000,1606988786000
NMEA,$GPGSV,3,1,11,03,18,275,37,04,20,320,37,08,02,202,27,16,57,275,37*78,1606988785481
NMEA,$GPGSV,3,2,11,22,18,253,35,27,32,185,30,32,31,147,16,18,02,098,*74,1606988785482
NMEA,$GPGSV,3,3,11,26,59,352,,29,14,040,,31,45,050,*49,1606988785482
NMEA,$GLGSV,3,1,10,74,37,333,19,75,00,000,36,70,10,174,10,73,26,032,12*6A,1606988785485
NMEA,$GLGSV,3,2,10,65,11,326,24,71,49,212,32,72,45,296,30,84,27,119,*66,1606988785485
NMEA,$GLGSV,3,3,10,83,18,056,,85,03,170,*6D,1606988785485
NMEA,$GAGSV,1,1,0,*74,1606988785485
NMEA,$PQGSV,1,1,03,193,38,170,20,195,47,129,11,194,61,032,,0,5*63,1606988785485
NMEA,$PQGSV,1,1,0,*73,1606988785486
NMEA,$GNGSA,A,3,03,04,16,22,27,,,,,,,,2.1,1.9,0.9,1*36,1606988785487
NMEA,$GNGSA,A,2,71,,,,,,,,,,,,2.1,1.9,0.9,2*37,1606988785487
NMEA,$GNVTG,,T,,M,0.0,N,0.0,K,A*3D,1606988785487
NMEA,$GNRMC,094626.00,A,2255.528659,N,12017.682314,E,0.0,,031220,2.8,W,A*1A,1606988785487
NMEA,$GNGGA,094626.00,2255.528659,N,12017.682314,E,1,06,1.9,26.4,M,17.5,M,,*4A,1606988785488
Fix,gps,22.925478,120.294705,43.838501,0.000000,3.216000,1606988787000
NMEA,$GPGSA,A,1,,,,,,,,,,,,,2.1,1.9,0.9,1*2F,1606988786480
NMEA,$GPVTG,,T,,M,0.0,N,0.0,K,A*23,1606988786480
NMEA,$GPRMC,094627.00,A,2255.528663,N,12017.682311,E,0.0,,031220,2.8,W,A*09,1606988786480
NMEA,$GPGGA,094627.00,2255.528663,N,12017.682311,E,1,00,1.9,26.4,M,17.5,M,,*5F,1606988786480
Fix,gps,22.925478,120.294705,43.849426,0.000000,3.216000,1606988788000
Raw,18291559,18295501000000,,,-1291005709936073728,0.0,45.83610643749125,13.24207794872138,15.509653937362655,167,11,0.0,207,45987363750606,10,34.6,-136.6164093017578,0.2596000134944916,0,0.0,0.0,,,,,0,,3,,
Raw,18291559,18295501000000,,,-1291005709936073728,0.0,45.83610643749125,13.24207794872138,15.509653937362655,167,1,0.0,207,45987359097890,749,17.9,-611.421875,2.055000066757202,0,0.0,0.0,,,,,0,,3,,
Raw,18291559,18295501000000,,,-1291005709936073728,0.0,45.83610643749125,13.24207794872138,15.509653937362655,167,7,0.0,207,45987369329823,11,33.2,514.8587646484375,0.25140002369880676,0,0.0,0.0,,,,,0,,3,,
Raw,18291559,18295501000000,,,-1291005709936073728,0.0,45.83610643749125,13.24207794872138,15.509653937362655,167,8,0.0,207,45987368485764,19,27.0,-181.6824493408203,0.2713000178337097,0,0.0,0.0,,,,,0,,3,,
Raw,18291559,18295501000000,,,-1291005709936073728,0.0,45.83610643749125,13.24207794872138,15.509653937362655,167,3,0.0,15,380805357698059,8,36.8,126.24317932128906,0.037700001150369644,0,0.0,0.0,,,,,0,,1,,
Raw,18291560,18295501000000,,,-1291005709936073728,0.0,45.83610643749125,13.24207794872138,15.509653937362655,167,4,0.0,15,380805358336583,6,38.5,-612.740234375,0.035100001841783524,0,0.0,0.0,,,,,0,,1,,
Raw,18291560,18295501000000,,,-1291005709936073728,0.0,45.83610643749125,13.24207794872138,15.509653937362655,167,8,0.0,15,380805352722273,27,24.8,-716.6935424804688,0.8505000472068787,0,0.0,0.0,,,,,0,,1,,
Raw,18291560,18295501000000,,,-1291005709936073728,0.0,45.83610643749125,13.24207794872138,15.509653937362655,167,16,0.0,15,380805368071990,8,36.6,-101.65913391113281,0.05120000243186951,0,0.0,0.0,,,,,0,,1,,
Raw,18291560,18295501000000,,,-1291005709936073728,0.0,45.83610643749125,13.24207794872138,15.509653937362655,167,22,0.0,15,380805356827219,11,33.7,241.53297424316406,0.04090000316500664,0,0.0,0.0,,,,,0,,1,,
Raw,18291560,18295501000000,,,-1291005709936073728,0.0,45.83610643749125,13.24207794872138,15.509653937362655,167,27,0.0,15,380805362447663,17,28.8,-656.811767578125,0.0723000019788742,0,0.0,0.0,,,,,0,,1,,
Raw,18291560,18295501000000,,,-1291005709936073728,0.0,45.83610643749125,13.24207794872138,15.509653937362655,167,2,0.0,783,380791312056528,11,33.2,4.474520206451416,0.30150002241134644,0,0.0,0.0,,,,,0,,5,,
Raw,18291561,18295501000000,,,-1291005709936073728,0.0,45.83610643749125,13.24207794872138,15.509653937362655,167,5,0.0,783,380791303832045,13,31.8,8.190485000610352,0.5149999856948853,0,0.0,0.0,,,,,0,,5,,
Raw,18291561,18295501000000,,,-1291005709936073728,0.0,45.83610643749125,13.24207794872138,15.509653937362655,167,7,0.0,15,380791315573546,41,21.3,63.238609313964844,1.2259999513626099,0,0.0,0.0,,,,,0,,5,,
Raw,18291561,18295501000000,,,-1291005709936073728,0.0,45.83610643749125,13.24207794872138,15.509653937362655,167,9,0.0,15,380791317129189,62,18.4,-113.60095977783203,1.3769999742507935,0,0.0,0.0,,,,,0,,5,,
Raw,18291561,18295501000000,,,-1291005709936073728,0.0,45.83610643749125,13.24207794872138,15.509653937362655,167,10,0.0,15,380791312831868,79,33.7,18.93509292602539,67.94850158691406,0,0.0,0.0,,,,,0,,5,,
Raw,18291561,18295501000000,,,-1291005709936073728,0.0,45.83610643749125,13.24207794872138,15.509653937362655,167,14,0.0,15,380791354944776,242,37.4,-167.813720703125,69.02850341796875,0,0.0,0.0,,,,,0,,5,,
Raw,18291561,18295501000000,,,-1291005709936073728,0.0,45.83610643749125,13.24207794872138,15.509653937362655,167,24,0.0,15,380791353123989,242,37.2,-254.30828857421875,69.02999877929688,0,0.0,0.0,,,,,0,,5,,
NMEA,$GPGSV,3,1,11,03,18,275,37,04,20,320,39,08,02,202,25,16,57,275,37*74,1606988787482
NMEA,$GPGSV,3,2,11,22,18,253,34,27,32,185,29,18,02,098,,26,59,352,*77,1606988787487
NMEA,$GPGSV,3,3,11,29,14,040,,31,45,050,,32,31,147,*44,1606988787488
NMEA,$GLGSV,3,1,10,75,00,000,35,65,11,326,18,71,49,212,33,72,45,296,27*69,1606988787488
NMEA,$GLGSV,3,2,10,74,37,333,,70,10,174,,73,26,032,,84,27,119,*64,1606988787488
NMEA,$GLGSV,3,3,10,83,18,056,,85,03,170,*6D,1606988787488
NMEA,$GAGSV,2,1,07,05,67,270,29,02,02,251,,03,21,316,,09,43,167,*6A,1606988787489
NMEA,$GAGSV,2,2,07,24,49,008,,25,41,284,,33,02,052,*55,1606988787489
NMEA,$PQGSV,1,1,03,193,38,170,20,194,61,032,,195,47,129,,0,5*63,1606988787489
NMEA,$PQGSV,4,1,16,02,40,240,33,05,16,255,32,07,71,302,21,09,66,330,18,0,4*6B,1606988787490
NMEA,$PQGSV,4,2,16,10,52,257,34,14,26,296,37,24,20,291,37,01,52,129,,0,4*65,1606988787490
NMEA,$PQGSV,4,3,16,03,58,202,,04,37,115,,06,80,115,,12,04,188,,0,4*6D,1606988787490
NMEA,$PQGSV,4,4,16,16,83,102,,21,35,202,,22,01,163,,26,48,343,,0,4*6F,1606988787491
NMEA,$GNGSA,A,3,03,04,16,22,27,,,,,,,,2.1,1.9,0.9,1*36,1606988787492
NMEA,$GNGSA,A,2,71,,,,,,,,,,,,2.1,1.9,0.9,2*37,1606988787492
NMEA,$GNGSA,A,2,25,,,,,,,,,,,,2.1,1.9,0.9,3*37,1606988787492
NMEA,$PQGSA,A,2,14,24,,,,,,,,,,,2.1,1.9,0.9,4*3C,1606988787492
NMEA,$GNVTG,,T,,M,0.0,N,0.0,K,A*3D,1606988787493
NMEA,$GNRMC,094628.00,A,2255.528664,N,12017.682307,E,0.0,,031220,2.8,W,A*18,1606988787493
NMEA,$GNGGA,094628.00,2255.528664,N,12017.682307,E,1,09,1.9,26.4,M,17.5,M,,*47,1606988787493
Raw,18292589,18296501000000,,,-1291005709936073728,0.0,40.64134554937482,9.186775712449483,13.880970720504498,167,11,0.0,207,45988363751082,10,34.6,-138.14332580566406,0.4910000264644623,0,0.0,0.0,,,,,0,,3,,
Raw,18292589,18296501000000,,,-1291005709936073728,0.0,40.64134554937482,9.186775712449483,13.880970720504498,167,1,0.0,207,45988359100005,755,17.9,-611.8895263671875,2.805000066757202,0,0.0,0.0,,,,,0,,3,,
Raw,18292590,18296501000000,,,-1291005709936073728,0.0,40.64134554937482,9.186775712449483,13.880970720504498,167,7,0.0,207,45988369328115,13,31.4,513.27783203125,0.2387000024318695,0,0.0,0.0,,,,,0,,3,,
Raw,18292590,18296501000000,,,-1291005709936073728,0.0,40.64134554937482,9.186775712449483,13.880970720504498,167,8,0.0,207,45988368486282,21,26.2,-183.5869903564453,0.7384999990463257,0,0.0,0.0,,,,,0,,3,,
Raw,18292591,18296501000000,,,-1291005709936073728,0.0,40.64134554937482,9.186775712449483,13.880970720504498,167,3,0.0,15,380806357697639,9,35.4,124.74518585205078,0.0471000038087368,0,0.0,0.0,,,,,0,,1,,
Raw,18292591,18296501000000,,,-1291005709936073728,0.0,40.64134554937482,9.186775712449483,13.880970720504498,167,4,0.0,15,380806358338631,6,38.1,-614.2771606445312,0.0471000038087368,0,0.0,0.0,,,,,0,,1,,
Raw,18292591,18296501000000,,,-1291005709936073728,0.0,40.64134554937482,9.186775712449483,13.880970720504498,167,8,0.0,15,380806352724652,27,24.0,-718.0446166992188,0.684499979019165,0,0.0,0.0,,,,,0,,1,,
Raw,18292592,18296501000000,,,-1291005709936073728,0.0,40.64134554937482,9.186775712449483,13.880970720504498,167,16,0.0,15,380806368072321,9,35.7,-103.17632293701172,0.03360000252723694,0,0.0,0.0,,,,,0,,1,,
Raw,18292592,18296501000000,,,-1291005709936073728,0.0,40.64134554937482,9.186775712449483,13.880970720504498,167,22,0.0,15,380806356826410,11,33.8,240.0147705078125,0.04690000042319298,0,0.0,0.0,,,,,0,,1,,
Raw,18292593,18296501000000,,,-1291005709936073728,0.0,40.64134554937482,9.186775712449483,13.880970720504498,167,27,0.0,15,380806362449867,21,26.6,-658.26513671875,0.11420000344514847,0,0.0,0.0,,,,,0,,1,,
Raw,18292593,18296501000000,,,-1291005709936073728,0.0,40.64134554937482,9.186775712449483,13.880970720504498,167,2,0.0,783,380792312056511,12,32.5,4.263277053833008,0.3334999978542328,0,0.0,0.0,,,,,0,,5,,
Raw,18292594,18296501000000,,,-1291005709936073728,0.0,40.64134554937482,9.186775712449483,13.880970720504498,167,3,0.0,783,380792315332307,25,25.7,6.971033096313477,0.9300000071525574,0,0.0,0.0,,,,,0,,5,,
Raw,18292594,18296501000000,,,-1291005709936073728,0.0,40.64134554937482,9.186775712449483,13.880970720504498,167,5,0.0,783,380792303832006,13,31.5,5.2906880378723145,0.33500000834465027,0,0.0,0.0,,,,,0,,5,,
Raw,18292594,18296501000000,,,-1291005709936073728,0.0,40.64134554937482,9.186775712449483,13.880970720504498,167,7,0.0,15,380792315573289,35,22.3,61.49104690551758,0.6889999508857727,0,0.0,0.0,,,,,0,,5,,
Raw,18292595,18296501000000,,,-1291005709936073728,0.0,40.64134554937482,9.186775712449483,13.880970720504498,167,9,0.0,15,380792317129583,70,17.1,-115.36772155761719,1.2170000076293945,0,0.0,0.0,,,,,0,,5,,
Raw,18292595,18296501000000,,,-1291005709936073728,0.0,40.64134554937482,9.186775712449483,13.880970720504498,167,10,0.0,15,380792312831805,312,33.7,18.93509292602539,69.44850158691406,0,0.0,0.0,,,,,0,,5,,
Raw,18292596,18296501000000,,,-1291005709936073728,0.0,40.64134554937482,9.186775712449483,13.880970720504498,167,12,0.0,15,380792349269898,32,23.7,-574.716552734375,1.125,0,0.0,0.0,,,,,0,,5,,
Raw,18292596,18296501000000,,,-1291005709936073728,0.0,40.64134554937482,9.186775712449483,13.880970720504498,167,14,0.0,15,380792354945341,10,35.8,-168.0249481201172,0.7275000214576721,0,0.0,0.0,,,,,0,,5,,
Raw,18292596,18296501000000,,,-1291005709936073728,0.0,40.64134554937482,9.186775712449483,13.880970720504498,167,24,0.0,15,380792353124827,9,36.1,-254.63478088378906,0.7290000319480896,0,0.0,0.0,,,,,0,,5,,
Raw,18292597,18296501000000,,,-1291005709936073728,0.0,40.64134554937482,9.186775712449483,13.880970720504498,167,26,0.0,15,380792361940476,70,17.9,-51.45698547363281,1.0169999599456787,0,0.0,0.0,,,,,0,,5,,
Fix,gps,22.925478,120.294705,43.852295,0.000000,3.216000,1606988789000
NMEA,$GPGSV,3,1,11,03,18,275,35,04,20,320,38,08,02,202,24,16,57,275,36*77,1606988788484
NMEA,$GPGSV,3,2,11,22,18,253,34,27,32,185,27,18,02,098,,26,59,352,*79,1606988788487
NMEA,$GPGSV,3,3,11,29,14,040,,31,45,050,,32,31,147,*44,1606988788487
NMEA,$GLGSV,3,1,10,75,00,000,35,65,11,326,18,71,49,212,31,72,45,296,26*6A,1606988788487
NMEA,$GLGSV,3,2,10,74,37,333,,70,10,174,,73,26,032,,84,27,119,*64,1606988788487
NMEA,$GLGSV,3,3,10,83,18,056,,85,03,170,*6D,1606988788488
NMEA,$GAGSV,2,1,07,05,67,270,28,02,02,251,,03,21,316,,09,43,167,*6B,1606988788488
NMEA,$GAGSV,2,2,07,24,49,008,,25,41,284,,33,02,052,*55,1606988788488
NMEA,$PQGSV,1,1,03,193,38,170,20,194,61,032,,195,47,129,,0,5*63,1606988788488
NMEA,$PQGSV,4,1,16,02,40,240,33,03,58,202,26,05,16,255,32,07,71,302,22,0,4*62,1606988788488
NMEA,$PQGSV,4,2,16,09,66,330,17,10,52,257,34,12,04,188,24,14,26,296,36,0,4*6D,1606988788488
NMEA,$PQGSV,4,3,16,24,20,291,36,26,48,343,18,01,52,129,,04,37,115,,0,4*6C,1606988788488
NMEA,$PQGSV,4,4,16,06,80,115,,16,83,102,,21,35,202,,22,01,163,,0,4*68,1606988788489
NMEA,$GNGSA,A,3,03,04,16,22,27,,,,,,,,2.1,1.9,0.9,1*36,1606988788489
NMEA,$GNGSA,A,2,71,,,,,,,,,,,,2.1,1.9,0.9,2*37,1606988788490
NMEA,$GNGSA,A,2,25,,,,,,,,,,,,2.1,1.9,0.9,3*37,1606988788490
NMEA,$PQGSA,A,2,14,24,,,,,,,,,,,2.1,1.9,0.9,4*3C,1606988788490
NMEA,$GNVTG,,T,,M,0.0,N,0.0,K,A*3D,1606988788490
NMEA,$GNRMC,094629.00,A,2255.528665,N,12017.682304,E,0.0,,031220,2.8,W,A*1B,1606988788490
NMEA,$GNGGA,094629.00,2255.528665,N,12017.682304,E,1,09,1.9,26.4,M,17.5,M,,*44,1606988788491
Fix,gps,22.925478,120.294705,43.856934,0.000000,3.216000,1606988790000
Raw,18293570,18297501000000,,,-1291005709936073728,0.0,42.54933446645737,4.563752190270363,17.555567439675055,167,11,0.0,207,45989363751508,8,36.2,-141.333984375,0.2257000058889389,0,0.0,0.0,,,,,0,,3,,
Raw,18293571,18297501000000,,,-1291005709936073728,0.0,42.54933446645737,4.563752190270363,17.555567439675055,167,1,0.0,207,45989359101980,19,28.7,-614.994873046875,1.1800000667572021,0,0.0,0.0,,,,,0,,3,,
Raw,18293571,18297501000000,,,-1291005709936073728,0.0,42.54933446645737,4.563752190270363,17.555567439675055,167,7,0.0,207,45989369326403,12,32.1,510.01947021484375,0.23740001022815704,0,0.0,0.0,,,,,0,,3,,
Raw,18293572,18297501000000,,,-1291005709936073728,0.0,42.54933446645737,4.563752190270363,17.555567439675055,167,8,0.0,207,45989368486955,14,30.4,-186.36245727539062,0.2378000020980835,0,0.0,0.0,,,,,0,,3,,
Raw,18293572,18297501000000,,,-1291005709936073728,0.0,42.54933446645737,4.563752190270363,17.555567439675055,167,3,0.0,15,380807357697229,8,36.9,121.55999755859375,0.04670000076293945,0,0.0,0.0,,,,,0,,1,,
Raw,18293573,18297501000000,,,-1291005709936073728,0.0,42.54933446645737,4.563752190270363,17.555567439675055,167,4,0.0,15,380807358340681,7,37.1,-617.5110473632812,0.047600001096725464,0,0.0,0.0,,,,,0,,1,,
Raw,18293573,18297501000000,,,-1291005709936073728,0.0,42.54933446645737,4.563752190270363,17.555567439675055,167,8,0.0,15,380807352727079,35,22.5,-721.3081665039062,0.7444999814033508,0,0.0,0.0,,,,,0,,1,,
Raw,18293574,18297501000000,,,-1291005709936073728,0.0,42.54933446645737,4.563752190270363,17.555567439675055,167,16,0.0,15,380807368072680,10,34.5,-106.32530975341797,0.0340999998152256,0,0.0,0.0,,,,,0,,1,,
Raw,18293574,18297501000000,,,-1291005709936073728,0.0,42.54933446645737,4.563752190270363,17.555567439675055,167,22,0.0,15,380807356825628,9,35.0,236.7627410888672,0.04560000076889992,0,0.0,0.0,,,,,0,,1,,
Raw,18293575,18297501000000,,,-1291005709936073728,0.0,42.54933446645737,4.563752190270363,17.555567439675055,167,27,0.0,15,380807362452059,16,29.3,-661.6782836914062,0.02970000170171261,0,0.0,0.0,,,,,0,,1,,
Raw,18293575,18297501000000,,,-1291005709936073728,0.0,42.54933446645737,4.563752190270363,17.555567439675055,167,2,0.0,783,380793312056492,13,31.0,0.3456710875034332,0.3634999990463257,0,0.0,0.0,,,,,0,,5,,
Raw,18293576,18297501000000,,,-1291005709936073728,0.0,42.54933446645737,4.563752190270363,17.555567439675055,167,3,0.0,783,380793315332284,34,25.7,6.971033096313477,2.430000066757202,0,0.0,0.0,,,,,0,,5,,
Raw,18293576,18297501000000,,,-1291005709936073728,0.0,42.54933446645737,4.563752190270363,17.555567439675055,167,5,0.0,783,380793303832004,12,32.6,1.3634803295135498,0.3050000071525574,0,0.0,0.0,,,,,0,,5,,
Raw,18293576,18297501000000,,,-1291005709936073728,0.0,42.54933446645737,4.563752190270363,17.555567439675055,167,7,0.0,15,380793315573067,40,21.9,57.54463195800781,0.6889999508857727,0,0.0,0.0,,,,,0,,5,,
Raw,18293577,18297501000000,,,-1291005709936073728,0.0,42.54933446645737,4.563752190270363,17.555567439675055,167,9,0.0,15,380793317130009,61,18.7,-118.96846008300781,0.9419999718666077,0,0.0,0.0,,,,,0,,5,,
Raw,18293577,18297501000000,,,-1291005709936073728,0.0,42.54933446645737,4.563752190270363,17.555567439675055,167,10,0.0,15,380793312831733,13,31.3,15.113056182861328,0.04920000210404396,0,0.0,0.0,,,,,0,,5,,
Raw,18293578,18297501000000,,,-1291005709936073728,0.0,42.54933446645737,4.563752190270363,17.555567439675055,167,12,0.0,15,380793349271797,27,24.0,-576.9058227539062,0.5900000333786011,0,0.0,0.0,,,,,0,,5,,
Raw,18293578,18297501000000,,,-1291005709936073728,0.0,42.54933446645737,4.563752190270363,17.555567439675055,167,14,0.0,15,380793354945912,8,36.3,-170.99822998046875,0.0422000028192997,0,0.0,0.0,,,,,0,,5,,
Raw,18293578,18297501000000,,,-1291005709936073728,0.0,42.54933446645737,4.563752190270363,17.555567439675055,167,24,0.0,15,380793353125676,7,37.5,-257.9388427734375,0.04010000079870224,0,0.0,0.0,,,,,0,,5,,
Raw,18293579,18297501000000,,,-1291005709936073728,0.0,42.54933446645737,4.563752190270363,17.555567439675055,167,26,0.0,15,380793361940679,53,19.5,-53.271751403808594,0.8479999899864197,0,0.0,0.0,,,,,0,,5,,
NMEA,$GPGSV,3,1,11,03,18,275,37,04,20,320,37,08,02,202,23,16,57,275,35*7E,1606988789483
NMEA,$GPGSV,3,2,11,22,18,253,35,27,32,185,29,18,02,098,,26,59,352,*76,1606988789483
NMEA,$GPGSV,3,3,11,29,14,040,,31,45,050,,32,31,147,*44,1606988789485
NMEA,$GLGSV,3,1,10,75,00,000,36,65,11,326,29,71,49,212,32,72,45,296,30*6F,1606988789486
NMEA,$GLGSV,3,2,10,74,37,333,,70,10,174,,73,26,032,,84,27,119,*64,1606988789487
NMEA,$GLGSV,3,3,10,83,18,056,,85,03,170,*6D,1606988789487
NMEA,$GAGSV,2,1,07,05,67,270,28,02,02,251,,03,21,316,,09,43,167,*6B,1606988789487
NMEA,$GAGSV,2,2,07,24,49,008,,25,41,284,,33,02,052,*55,1606988789487
NMEA,$PQGSV,1,1,03,193,38,170,19,194,61,032,,195,47,129,,0,5*69,1606988789487
NMEA,$PQGSV,4,1,16,02,40,240,31,03,58,202,26,05,16,255,33,07,71,302,22,0,4*61,1606988789487
NMEA,$PQGSV,4,2,16,09,66,330,19,10,52,257,31,12,04,188,24,14,26,296,36,0,4*66,1606988789488
NMEA,$PQGSV,4,3,16,24,20,291,38,26,48,343,20,01,52,129,,04,37,115,,0,4*69,1606988789488
NMEA,$PQGSV,4,4,16,06,80,115,,16,83,102,,21,35,202,,22,01,163,,0,4*68,1606988789488
NMEA,$GNGSA,A,3,03,04,16,22,27,,,,,,,,2.1,1.9,0.9,1*36,1606988789490
NMEA,$GNGSA,A,2,71,,,,,,,,,,,,2.1,1.9,0.9,2*37,1606988789490
NMEA,$GNGSA,A,2,25,,,,,,,,,,,,2.1,1.9,0.9,3*37,1606988789490
NMEA,$PQGSA,A,2,14,24,,,,,,,,,,,2.1,1.9,0.9,4*3C,1606988789490
NMEA,$GNVTG,,T,,M,0.0,N,0.0,K,A*3D,1606988789491
NMEA,$GNRMC,094630.00,A,2255.528665,N,12017.682302,E,0.0,,031220,2.8,W,A*15,1606988789493
NMEA,$GNGGA,094630.00,2255.528665,N,12017.682302,E,1,09,1.9,26.4,M,17.5,M,,*4A,1606988789493
Fix,gps,22.925478,120.294705,43.868591,0.000000,3.216000,1606988791000
Raw,18294552,18298838000000,,,-1291005709935150080,0.0,4089.51286226511,-8.204052909858218,9.193816315454868,168,1,0.0,207,45990695181394,31,23.8,-614.031494140625,0.8739999532699585,0,0.0,0.0,,,,,0,,3,,
Raw,18294553,18298838000000,,,-1291005709935150080,0.0,4089.51286226511,-8.204052909858218,9.193816315454868,168,7,0.0,207,45990705400594,16,29.8,510.812255859375,0.23720000684261322,0,0.0,0.0,,,,,0,,3,,
Raw,18294554,18298838000000,,,-1291005709935150080,0.0,4089.51286226511,-8.204052909858218,9.193816315454868,168,8,0.0,207,45990704564087,13,31.4,-185.5057373046875,0.2298000156879425,0,0.0,0.0,,,,,0,,3,,
Raw,18294554,18298838000000,,,-1291005709935150080,0.0,4089.51286226511,-8.204052909858218,9.193816315454868,168,3,0.0,15,380808693773074,8,36.7,122.27043151855469,0.03350000083446503,0,0.0,0.0,,,,,0,,1,,
Raw,18294554,18298838000000,,,-1291005709935150080,0.0,4089.51286226511,-8.204052909858218,9.193816315454868,168,4,0.0,15,380808694419832,10,34.4,-616.8546142578125,0.038100000470876694,0,0.0,0.0,,,,,0,,1,,
Raw,18294555,18298838000000,,,-1291005709935150080,0.0,4089.51286226511,-8.204052909858218,9.193816315454868,168,8,0.0,15,380808688806573,24,25.1,-720.5556640625,0.19140000641345978,0,0.0,0.0,,,,,0,,1,,
Raw,18294555,18298838000000,,,-1291005709935150080,0.0,4089.51286226511,-8.204052909858218,9.193816315454868,168,16,0.0,15,380808704149526,9,35.5,-105.56668090820312,0.021000001579523087,0,0.0,0.0,,,,,0,,1,,
Raw,18294556,18298838000000,,,-1291005709935150080,0.0,4089.51286226511,-8.204052909858218,9.193816315454868,168,22,0.0,15,380808692900934,12,32.2,237.40283203125,0.039400000125169754,0,0.0,0.0,,,,,0,,1,,
Raw,18294556,18298838000000,,,-1291005709935150080,0.0,4089.51286226511,-8.204052909858218,9.193816315454868,168,27,0.0,15,380808698531389,16,29.4,-660.8491821289062,0.056700002402067184,0,0.0,0.0,,,,,0,,1,,
NMEA,$GPGSV,3,1,11,03,18,275,37,04,20,320,34,08,02,202,25,16,57,275,36*78,1606988790482
NMEA,$GPGSV,3,2,11,22,18,253,32,27,32,185,29,18,02,098,,26,59,352,*71,1606988790483
NMEA,$GPGSV,3,3,11,29,14,040,,31,45,050,,32,31,147,*44,1606988790483
NMEA,$GLGSV,3,1,10,75,00,000,36,65,11,326,24,71,49,212,30,72,45,296,31*61,1606988790483
NMEA,$GLGSV,3,2,10,74,37,333,,70,10,174,,73,26,032,,84,27,119,*64,1606988790483
NMEA,$GLGSV,3,3,10,83,18,056,,85,03,170,*6D,1606988790483
NMEA,$GAGSV,1,1,0,*74,1606988790484
NMEA,$PQGSV,1,1,03,193,38,170,19,194,61,032,,195,47,129,,0,5*69,1606988790484
NMEA,$PQGSV,1,1,0,*73,1606988790484
NMEA,$GNGSA,A,3,03,04,16,22,27,,,,,,,,2.1,1.9,0.9,1*36,1606988790485
NMEA,$GNGSA,A,2,71,,,,,,,,,,,,2.1,1.9,0.9,2*37,1606988790486
NMEA,$GNVTG,,T,,M,0.0,N,0.0,K,A*3D,1606988790488
NMEA,$GNRMC,094631.00,A,2255.528664,N,12017.682298,E,0.0,,031220,2.8,W,A*17,1606988790494
NMEA,$GNGGA,094631.00,2255.528664,N,12017.682298,E,1,06,1.9,26.4,M,17.5,M,,*47,1606988790495
Raw,18295549,18299831000000,,,-1291005709934260224,0.0,4132.871516048908,-5.241808465385698,8.498444435546105,169,1,0.0,207,45991687293659,31,23.4,-612.20751953125,0.8619999885559082,0,0.0,0.0,,,,,0,,3,,
Raw,18295550,18299831000000,,,-1291005709934260224,0.0,4132.871516048908,-5.241808465385698,8.498444435546105,169,7,0.0,207,45991697509220,19,27.0,512.497314453125,0.2891000211238861,0,0.0,0.0,,,,,0,,3,,
Raw,18295551,18299831000000,,,-1291005709934260224,0.0,4132.871516048908,-5.241808465385698,8.498444435546105,169,8,0.0,207,45991696675013,12,32.0,-183.68882751464844,0.24539999663829803,0,0.0,0.0,,,,,0,,3,,
Raw,18295551,18299831000000,,,-1291005709934260224,0.0,4132.871516048908,-5.241808465385698,8.498444435546105,169,3,0.0,15,380809685882980,7,37.2,124.08190155029297,0.020099999383091927,0,0.0,0.0,,,,,0,,1,,
Raw,18295552,18299831000000,,,-1291005709934260224,0.0,4132.871516048908,-5.241808465385698,8.498444435546105,169,4,0.0,15,380809686532145,8,36.7,-615.1368408203125,0.023000000044703484,0,0.0,0.0,,,,,0,,1,,
Raw,18295552,18299831000000,,,-1291005709934260224,0.0,4132.871516048908,-5.241808465385698,8.498444435546105,169,8,0.0,15,380809680919369,27,24.6,-719.8905029296875,0.6315000057220459,0,0.0,0.0,,,,,0,,1,,
Raw,18295553,18299831000000,,,-1291005709934260224,0.0,4132.871516048908,-5.241808465385698,8.498444435546105,169,16,0.0,15,380809696260203,8,36.2,-103.8463363647461,0.03800000250339508,0,0.0,0.0,,,,,0,,1,,
Raw,18295554,18299831000000,,,-1291005709934260224,0.0,4132.871516048908,-5.241808465385698,8.498444435546105,169,22,0.0,15,380809685010448,10,34.7,239.18614196777344,0.02459999918937683,0,0.0,0.0,,,,,0,,1,,
Raw,18295554,18299831000000,,,-1291005709934260224,0.0,4132.871516048908,-5.241808465385698,8.498444435546105,169,27,0.0,15,380809690643877,12,32.0,-659.1118774414062,0.036400001496076584,0,0.0,0.0,,,,,0,,1,,
Fix,gps,22.925478,120.294705,43.886169,0.000000,3.216000,1606988792000
NMEA,$GPGSV,3,1,11,03,18,275,37,04,20,320,37,08,02,202,25,16,57,275,36*7B,1606988791484
NMEA,$GPGSV,3,2,11,22,18,253,35,27,32,185,32,18,02,098,,26,59,352,*7C,1606988791484
NMEA,$GPGSV,3,3,11,29,14,040,,31,45,050,,32,31,147,*44,1606988791484
NMEA,$GLGSV,3,1,10,75,00,000,36,65,11,326,23,71,49,212,27,72,45,296,32*63,1606988791485
NMEA,$GLGSV,3,2,10,74,37,333,,70,10,174,,73,26,032,,84,27,119,*64,1606988791485
NMEA,$GLGSV,3,3,10,83,18,056,,85,03,170,*6D,1606988791485
NMEA,$GAGSV,1,1,0,*74,1606988791485
NMEA,$PQGSV,1,1,03,193,38,170,,194,61,032,,195,47,129,,0,5*61,1606988791487
NMEA,$PQGSV,1,1,0,*73,1606988791487
NMEA,$GNGSA,A,3,03,04,16,22,27,,,,,,,,2.1,1.9,0.9,1*36,1606988791488
NMEA,$GNGSA,A,2,71,,,,,,,,,,,,2.1,1.9,0.9,2*37,1606988791488
NMEA,$GNVTG,,T,,M,0.0,N,0.0,K,A*3D,1606988791489
NMEA,$GNRMC,094632.00,A,2255.528664,N,12017.682293,E,0.0,,031220,2.8,W,A*1F,1606988791489
NMEA,$GNGGA,094632.00,2255.528664,N,12017.682293,E,1,06,1.9,26.4,M,17.5,M,,*4F,1606988791490
Raw,18296547,18300845000000,,,-1291005709933286144,0.0,4161.712247878313,0.4846151011423538,10.752888781035352,170,1,0.0,207,45992700321513,35,22.8,-611.7772827148438,0.9414999485015869,0,0.0,0.0,,,,,0,,3,,
Raw,18296548,18300845000000,,,-1291005709933286144,0.0,4161.712247878313,0.4846151011423538,10.752888781035352,170,7,0.0,207,45992710533319,17,28.3,513.3360595703125,0.2558000087738037,0,0.0,0.0,,,,,0,,3,,
Raw,18296549,18300845000000,,,-1291005709933286144,0.0,4161.712247878313,0.4846151011423538,10.752888781035352,170,8,0.0,207,45992709701546,14,30.7,-182.80938720703125,0.2402999997138977,0,0.0,0.0,,,,,0,,3,,
Raw,18296549,18300845000000,,,-1291005709933286144,0.0,4161.712247878313,0.4846151011423538,10.752888781035352,170,3,0.0,15,380810698908450,7,37.2,124.81509399414062,0.03959999978542328,0,0.0,0.0,,,,,0,,1,,
Raw,18296550,18300845000000,,,-1291005709933286144,0.0,4161.712247878313,0.4846151011423538,10.752888781035352,170,4,0.0,15,380810699560122,7,37.8,-614.4202270507812,0.04110000282526016,0,0.0,0.0,,,,,0,,1,,
Raw,18296550,18300845000000,,,-1291005709933286144,0.0,4161.712247878313,0.4846151011423538,10.752888781035352,170,8,0.0,15,380810693947670,31,23.4,-718.1683349609375,0.7310000061988831,0,0.0,0.0,,,,,0,,1,,
Raw,18296551,18300845000000,,,-1291005709933286144,0.0,4161.712247878313,0.4846151011423538,10.752888781035352,170,16,0.0,15,380810709286431,8,36.1,-103.07059478759766,0.027500001713633537,0,0.0,0.0,,,,,0,,1,,
Raw,18296552,18300845000000,,,-1291005709933286144,0.0,4161.712247878313,0.4846151011423538,10.752888781035352,170,22,0.0,15,380810698035544,10,34.3,239.90972900390625,0.04410000145435333,0,0.0,0.0,,,,,0,,1,,
Raw,18296553,18300845000000,,,-1291005709933286144,0.0,4161.712247878313,0.4846151011423538,10.752888781035352,170,27,0.0,15,380810703671990,14,30.7,-658.4615478515625,0.031300000846385956,0,0.0,0.0,,,,,0,,1,,
Fix,gps,22.925478,120.294705,43.897217,0.000000,3.216000,1606988793000
NMEA,$GPGSV,3,1,11,03,18,275,37,04,20,320,38,08,02,202,23,16,57,275,36*72,1606988792482
NMEA,$GPGSV,3,2,11,22,18,253,34,27,32,185,31,18,02,098,,26,59,352,*7E,1606988792482
NMEA,$GPGSV,3,3,11,29,14,040,,31,45,050,,32,31,147,*44,1606988792482
NMEA,$GLGSV,3,1,10,75,00,000,36,65,11,326,23,71,49,212,28,72,45,296,31*6F,1606988792484
NMEA,$GLGSV,3,2,10,74,37,333,,70,10,174,,73,26,032,,84,27,119,*64,1606988792484
NMEA,$GLGSV,3,3,10,83,18,056,,85,03,170,*6D,1606988792485
NMEA,$GAGSV,1,1,0,*74,1606988792485
NMEA,$PQGSV,1,1,03,193,38,170,,194,61,032,,195,47,129,,0,5*61,1606988792486
NMEA,$PQGSV,1,1,0,*73,1606988792486
NMEA,$GNGSA,A,3,03,04,16,22,27,,,,,,,,2.1,1.9,0.9,1*36,1606988792487
NMEA,$GNGSA,A,2,71,,,,,,,,,,,,2.1,1.9,0.9,2*37,1606988792487
NMEA,$GNVTG,,T,,M,0.0,N,0.0,K,A*3D,1606988792487
NMEA,$GNRMC,094633.00,A,2255.528663,N,12017.682287,E,0.0,,031220,2.8,W,A*1C,1606988792488
NMEA,$GNGGA,094633.00,2255.528663,N,12017.682287,E,1,06,1.9,26.4,M,17.5,M,,*4C,1606988792488
Raw,18297739,18301838000000,,,-1291005709932619264,0.0,4162.013530731201,2.6260791116893505,8.947019838684092,171,1,0.0,207,45993692656297,14,30.5,-611.2457275390625,0.24480000138282776,0,0.0,0.0,,,,,0,,3,,
Raw,18297739,18301838000000,,,-1291005709932619264,0.0,4162.013530731201,2.6260791116893505,8.947019838684092,171,7,0.0,207,45993702864388,16,29.2,514.1097412109375,0.23270000517368317,0,0.0,0.0,,,,,0,,3,,
Raw,18297740,18301838000000,,,-1291005709932619264,0.0,4162.013530731201,2.6260791116893505,8.947019838684092,171,8,0.0,207,45993702034937,13,31.1,-182.0840301513672,0.25679999589920044,0,0.0,0.0,,,,,0,,3,,
Raw,18297741,18301838000000,,,-1291005709932619264,0.0,4162.013530731201,2.6260791116893505,8.947019838684092,171,3,0.0,15,380811691240816,7,37.1,125.523681640625,0.029100000858306885,0,0.0,0.0,,,,,0,,1,,
Raw,18297741,18301838000000,,,-1291005709932619264,0.0,4162.013530731201,2.6260791116893505,8.947019838684092,171,4,0.0,15,380811691894919,7,37.7,-613.7816772460938,0.029100000858306885,0,0.0,0.0,,,,,0,,1,,
Raw,18297742,18301838000000,,,-1291005709932619264,0.0,4162.013530731201,2.6260791116893505,8.947019838684092,171,8,0.0,15,380811686282794,21,26.4,-717.7592163085938,0.5705000162124634,0,0.0,0.0,,,,,0,,1,,
Raw,18297743,18301838000000,,,-1291005709932619264,0.0,4162.013530731201,2.6260791116893505,8.947019838684092,171,16,0.0,15,380811701619534,8,36.6,-102.35758972167969,0.045500002801418304,0,0.0,0.0,,,,,0,,1,,
Raw,18297744,18301838000000,,,-1291005709932619264,0.0,4162.013530731201,2.6260791116893505,8.947019838684092,171,22,0.0,15,380811690367521,11,33.7,240.537353515625,0.03400000184774399,0,0.0,0.0,,,,,0,,1,,
Raw,18297744,18301838000000,,,-1291005709932619264,0.0,4162.013530731201,2.6260791116893505,8.947019838684092,171,27,0.0,15,380811696006952,14,30.2,-657.7625732421875,0.05079999938607216,0,0.0,0.0,,,,,0,,1,,
Fix,gps,22.925478,120.294705,43.905701,0.000000,3.216000,1606988794000
NMEA,$GPGSV,3,1,11,03,18,275,37,04,20,320,38,08,02,202,26,16,57,275,37*76,1606988793490
NMEA,$GPGSV,3,2,11,22,18,253,34,27,32,185,30,18,02,098,,26,59,352,*7F,1606988793491
NMEA,$GPGSV,3,3,11,29,14,040,,31,45,050,,32,31,147,*44,1606988793497
NMEA,$GLGSV,3,1,10,75,00,000,36,65,11,326,31,71,49,212,29,72,45,296,31*6D,1606988793498
NMEA,$GLGSV,3,2,10,74,37,333,,70,10,174,,73,26,032,,84,27,119,*64,1606988793499
NMEA,$GLGSV,3,3,10,83,18,056,,85,03,170,*6D,1606988793500
NMEA,$GAGSV,1,1,0,*74,1606988793503
NMEA,$PQGSV,1,1,03,193,38,170,,194,61,032,,195,47,129,,0,5*61,1606988793506
NMEA,$PQGSV,1,1,0,*73,1606988793507
NMEA,$GNGSA,A,3,03,04,16,22,27,,,,,,,,2.1,1.9,0.9,1*36,1606988793507
NMEA,$GNGSA,A,2,71,,,,,,,,,,,,2.1,1.9,0.9,2*37,1606988793508
NMEA,$GNVTG,,T,,M,0.0,N,0.0,K,A*3D,1606988793508
NMEA,$GNRMC,094634.00,A,2255.528662,N,12017.682281,E,0.0,,031220,2.8,W,A*1C,1606988793508
NMEA,$GNGGA,094634.00,2255.528662,N,12017.682281,E,1,06,1.9,26.4,M,17.5,M,,*4C,1606988793508
Fix,gps,22.925478,120.294705,43.905884,0.000000,3.216000,1606988795000
NMEA,$GPGSA,A,1,,,,,,,,,,,,,2.1,1.9,0.9,1*2F,1606988794479
NMEA,$GPVTG,,T,,M,0.0,N,0.0,K,A*23,1606988794480
NMEA,$GPRMC,094635.00,A,2255.528661,N,12017.682279,E,0.0,,031220,2.8,W,A*07,1606988794481
NMEA,$GPGGA,094635.00,2255.528661,N,12017.682279,E,1,00,1.9,26.4,M,17.5,M,,*51,1606988794481
Fix,gps,22.925478,120.294705,43.930786,0.000000,4.288000,1606988796000
Raw,18299594,18303365000000,,,-1291005709931887616,0.0,46.99825149145909,6.596074775937502,9.598866906452152,172,11,0.0,207,45995223568184,11,35.6,-137.18724060058594,1.1160000562667847,0,0.0,0.0,,,,,0,,3,,
Raw,18299595,18303365000000,,,-1291005709931887616,0.0,46.99825149145909,6.596074775937502,9.598866906452152,172,1,0.0,207,45995218928103,19,27.4,-611.7794799804688,0.2906000018119812,0,0.0,0.0,,,,,0,,3,,
Raw,18299597,18303365000000,,,-1291005709931887616,0.0,46.99825149145909,6.596074775937502,9.598866906452152,172,7,0.0,207,45995229130406,16,29.7,513.57958984375,0.24320000410079956,0,0.0,0.0,,,,,0,,3,,
Raw,18299598,18303365000000,,,-1291005709931887616,0.0,46.99825149145909,6.596074775937502,9.598866906452152,172,8,0.0,207,45995228304467,13,31.5,-182.51869201660156,0.23580001294612885,0,0.0,0.0,,,,,0,,3,,
Raw,18299601,18303365000000,,,-1291005709931887616,0.0,46.99825149145909,6.596074775937502,9.598866906452152,172,3,0.0,15,380813217508783,7,37.4,124.93427276611328,0.038100000470876694,0,0.0,0.0,,,,,0,,1,,
Raw,18299604,18303365000000,,,-1291005709931887616,0.0,46.99825149145909,6.596074775937502,9.598866906452152,172,4,0.0,15,380813218166649,7,37.9,-614.3799438476562,0.03959999978542328,0,0.0,0.0,,,,,0,,1,,
Raw,18299606,18303365000000,,,-1291005709931887616,0.0,46.99825149145909,6.596074775937502,9.598866906452152,172,8,0.0,15,380813212555116,24,25.5,-718.1207275390625,0.5795000195503235,0,0.0,0.0,,,,,0,,1,,
Raw,18299608,18303365000000,,,-1291005709931887616,0.0,46.99825149145909,6.596074775937502,9.598866906452152,172,16,0.0,15,380813227888682,9,35.9,-102.88761138916016,0.02550000138580799,0,0.0,0.0,,,,,0,,1,,
Raw,18299611,18303365000000,,,-1291005709931887616,0.0,46.99825149145909,6.596074775937502,9.598866906452152,172,22,0.0,15,380813216634918,10,34.7,239.9309844970703,0.041099999099969864,0,0.0,0.0,,,,,0,,1,,
Raw,18299613,18303365000000,,,-1291005709931887616,0.0,46.99825149145909,6.596074775937502,9.598866906452152,172,27,0.0,15,380813222278895,13,31.6,-658.3612670898438,0.0568000003695488,0,0.0,0.0,,,,,0,,1,,
NMEA,$GPGSV,3,1,11,03,18,275,37,04,20,320,38,08,02,202,26,16,57,275,36*77,1606988795491
NMEA,$GPGSV,3,2,11,22,18,253,35,27,32,185,32,18,02,098,,26,59,352,*7C,1606988795498
NMEA,$GPGSV,3,3,11,29,14,040,,31,45,050,,32,31,147,*44,1606988795499
NMEA,$GLGSV,3,1,10,75,00,000,36,65,11,326,27,71,49,212,30,72,45,296,32*61,1606988795500
NMEA,$GLGSV,3,2,10,74,37,333,,70,10,174,,73,26,032,,84,27,119,*64,1606988795501
NMEA,$GLGSV,3,3,10,83,18,056,,85,03,170,*6D,1606988795502
NMEA,$GAGSV,1,1,0,*74,1606988795502
NMEA,$PQGSV,1,1,03,193,38,170,,194,61,032,,195,47,129,,0,5*61,1606988795503
NMEA,$PQGSV,1,1,0,*73,1606988795504
NMEA,$GNGSA,A,3,03,04,16,22,27,,,,,,,,2.1,1.9,0.9,1*36,1606988795506
NMEA,$GNGSA,A,2,71,,,,,,,,,,,,2.1,1.9,0.9,2*37,1606988795506
NMEA,$GNVTG,,T,,M,0.0,N,0.0,K,A*3D,1606988795507
NMEA,$GNRMC,094636.00,A,2255.528660,N,12017.682272,E,0.0,,031220,2.8,W,A*10,1606988795507
NMEA,$GNGGA,094636.00,2255.528660,N,12017.682272,E,1,06,1.9,26.5,M,17.5,M,,*41,1606988795507
Raw,18300576,18304843000000,,,-1291005709931387392,0.0,4239.5805940032005,2.7033249368575887,15.971322810271415,173,1,0.0,207,45996696430853,17,28.8,-609.5553588867188,0.2648000121116638,0,0.0,0.0,,,,,0,,3,,
Raw,18300577,18304843000000,,,-1291005709931387392,0.0,4239.5805940032005,2.7033249368575887,15.971322810271415,173,7,0.0,207,45996706627632,16,29.1,515.8334350585938,0.2387000024318695,0,0.0,0.0,,,,,0,,3,,
Raw,18300577,18304843000000,,,-1291005709931387392,0.0,4239.5805940032005,2.7033249368575887,15.971322810271415,173,8,0.0,207,45996705805063,13,31.5,-180.1702117919922,0.2313000112771988,0,0.0,0.0,,,,,0,,3,,
Raw,18300578,18304843000000,,,-1291005709931387392,0.0,4239.5805940032005,2.7033249368575887,15.971322810271415,173,3,0.0,15,380814695007899,7,37.8,127.16617584228516,0.035100001841783524,0,0.0,0.0,,,,,0,,1,,
Raw,18300579,18304843000000,,,-1291005709931387392,0.0,4239.5805940032005,2.7033249368575887,15.971322810271415,173,4,0.0,15,380814695669433,6,38.0,-612.2568359375,0.03370000049471855,0,0.0,0.0,,,,,0,,1,,
Raw,18300579,18304843000000,,,-1291005709931387392,0.0,4239.5805940032005,2.7033249368575887,15.971322810271415,173,8,0.0,15,380814690058418,24,25.3,-716.2655639648438,0.19439999759197235,0,0.0,0.0,,,,,0,,1,,
Raw,18300580,18304843000000,,,-1291005709931387392,0.0,4239.5805940032005,2.7033249368575887,15.971322810271415,173,16,0.0,15,380814705388924,8,36.7,-100.67603302001953,0.0215000007301569,0,0.0,0.0,,,,,0,,1,,
Raw,18300582,18304843000000,,,-1291005709931387392,0.0,4239.5805940032005,2.7033249368575887,15.971322810271415,173,22,0.0,15,380814694133474,10,34.9,242.10003662109375,0.038100000470876694,0,0.0,0.0,,,,,0,,1,,
Raw,18300583,18304843000000,,,-1291005709931387392,0.0,4239.5805940032005,2.7033249368575887,15.971322810271415,173,27,0.0,15,380814699781896,14,30.3,-656.2144165039062,0.05530000105500221,0,0.0,0.0,,,,,0,,1,,
Fix,gps,22.925478,120.294704,43.942505,0.000000,4.288000,1606988797000
NMEA,$GPGSV,3,1,11,03,18,275,38,04,20,320,38,08,02,202,25,16,57,275,37*7A,1606988796488
NMEA,$GPGSV,3,2,11,22,18,253,35,27,32,185,30,18,02,098,,26,59,352,*7E,1606988796489
NMEA,$GPGSV,3,3,11,29,14,040,,31,45,050,,32,31,147,*44,1606988796497
NMEA,$GLGSV,3,1,10,75,00,000,36,65,11,326,29,71,49,212,29,72,45,296,32*67,1606988796499
NMEA,$GLGSV,3,2,10,74,37,333,,70,10,174,,73,26,032,,84,27,119,*64,1606988796500
NMEA,$GLGSV,3,3,10,83,18,056,,85,03,170,*6D,1606988796501
NMEA,$GAGSV,1,1,0,*74,1606988796501
NMEA,$PQGSV,1,1,03,193,38,170,,194,61,032,,195,47,129,,0,5*61,1606988796502
NMEA,$PQGSV,1,1,0,*73,1606988796504
NMEA,$GNGSA,A,3,03,04,16,22,27,,,,,,,,2.1,1.9,0.9,1*36,1606988796506
NMEA,$GNGSA,A,2,71,,,,,,,,,,,,2.1,1.9,0.9,2*37,1606988796506
NMEA,$GNVTG,,T,,M,0.0,N,0.0,K,A*3D,1606988796506
NMEA,$GNRMC,094637.00,A,2255.528658,N,12017.682266,E,0.0,,031220,2.8,W,A*1F,1606988796506
NMEA,$GNGGA,094637.00,2255.528658,N,12017.682266,E,1,06,1.9,26.5,M,17.5,M,,*4E,1606988796507
NMEA,$GPGSV,3,1,11,03,18,275,38,04,20,320,37,08,02,202,22,16,57,275,37*72,1606988797490
Raw,18301574,18305835000000,,,-1291005709931341056,0.0,4173.650406301022,9.504895970981789,11.094523047142511,174,1,0.0,207,45997688386544,14,30.1,-610.8292846679688,0.23880000412464142,0,0.0,0.0,,,,,0,,3,,
Raw,18301574,18305835000000,,,-1291005709931341056,0.0,4173.650406301022,9.504895970981789,11.094523047142511,174,7,0.0,207,45997698579621,16,29.8,514.5391235351562,0.2567000091075897,0,0.0,0.0,,,,,0,,3,,
Raw,18301575,18305835000000,,,-1291005709931341056,0.0,4173.650406301022,9.504895970981789,11.094523047142511,174,8,0.0,207,45997697759417,13,31.5,-181.43954467773438,0.2493000030517578,0,0.0,0.0,,,,,0,,3,,
Raw,18301575,18305835000000,,,-1291005709931341056,0.0,4173.650406301022,9.504895970981789,11.094523047142511,174,3,0.0,15,380815686961179,7,37.5,125.92945861816406,0.02160000056028366,0,0.0,0.0,,,,,0,,1,,
Raw,18301576,18305835000000,,,-1291005709931341056,0.0,4173.650406301022,9.504895970981789,11.094523047142511,174,4,0.0,15,380815687625151,7,37.3,-613.5693969726562,0.023099999874830246,0,0.0,0.0,,,,,0,,1,,
Raw,18301576,18305835000000,,,-1291005709931341056,0.0,4173.650406301022,9.504895970981789,11.094523047142511,174,8,0.0,15,380815682014479,35,22.1,-716.8552856445312,0.8044999837875366,0,0.0,0.0,,,,,0,,1,,
Raw,18301577,18305835000000,,,-1291005709931341056,0.0,4173.650406301022,9.504895970981789,11.094523047142511,174,16,0.0,15,380815697342953,7,37.1,-101.99518585205078,0.038100000470876694,0,0.0,0.0,,,,,0,,1,,
Raw,18301577,18305835000000,,,-1291005709931341056,0.0,4173.650406301022,9.504895970981789,11.094523047142511,174,22,0.0,15,380815686086391,10,34.5,240.8015899658203,0.026100000366568565,0,0.0,0.0,,,,,0,,1,,
Raw,18301578,18305835000000,,,-1291005709931341056,0.0,4173.650406301022,9.504895970981789,11.094523047142511,174,27,0.0,15,380815691737822,14,30.6,-657.131591796875,0.3880000114440918,0,0.0,0.0,,,,,0,,1,,
Fix,gps,22.925478,120.294704,43.947754,0.000000,4.288000,1606988798000
NMEA,$GPGSV,3,2,11,22,18,253,35,27,32,185,31,18,02,098,,26,59,352,*7F,1606988797492
NMEA,$GPGSV,3,3,11,29,14,040,,31,45,050,,32,31,147,*44,1606988797497
NMEA,$GLGSV,3,1,10,75,00,000,36,65,11,326,30,71,49,212,30,72,45,296,32*67,1606988797498
NMEA,$GLGSV,3,2,10,74,37,333,,70,10,174,,73,26,032,,84,27,119,*64,1606988797499
NMEA,$GLGSV,3,3,10,83,18,056,,85,03,170,*6D,1606988797500
NMEA,$GAGSV,1,1,0,*74,1606988797501
NMEA,$PQGSV,1,1,03,193,38,170,,194,61,032,,195,47,129,,0,5*61,1606988797501
NMEA,$PQGSV,1,1,0,*73,1606988797502
NMEA,$GNGSA,A,3,03,04,16,22,27,,,,,,,,2.1,1.9,0.9,1*36,1606988797506
NMEA,$GNGSA,A,2,71,,,,,,,,,,,,2.1,1.9,0.9,2*37,1606988797506
NMEA,$GNVTG,,T,,M,0.0,N,0.0,K,A*3D,1606988797506
NMEA,$GNRMC,094638.00,A,2255.528655,N,12017.682262,E,0.0,,031220,2.8,W,A*19,1606988797506
NMEA,$GNGGA,094638.00,2255.528655,N,12017.682262,E,1,06,1.9,26.5,M,17.5,M,,*48,1606988797507
NMEA,$GPGSV,3,1,11,03,18,275,37,04,20,320,38,08,02,202,24,16,57,275,37*74,1606988798482
Raw,18302553,18306848000000,,,-1291005709930463232,0.0,4192.017018795013,4.875155126619795,12.060308797637804,175,1,0.0,207,45998700511016,14,30.5,-610.8541870117188,0.25679999589920044,0,0.0,0.0,,,,,0,,3,,
Raw,18302554,18306848000000,,,-1291005709930463232,0.0,4192.017018795013,4.875155126619795,12.060308797637804,175,7,0.0,207,45998710700178,16,29.3,514.5956420898438,0.24469999969005585,0,0.0,0.0,,,,,0,,3,,
Raw,18302555,18306848000000,,,-1291005709930463232,0.0,4192.017018795013,4.875155126619795,12.060308797637804,175,8,0.0,207,45998709882472,13,31.9,-181.28248596191406,0.23730000853538513,0,0.0,0.0,,,,,0,,3,,
Raw,18302555,18306848000000,,,-1291005709930463232,0.0,4192.017018795013,4.875155126619795,12.060308797637804,175,3,0.0,15,380816699083156,7,37.2,125.87547302246094,0.04110000282526016,0,0.0,0.0,,,,,0,,1,,
Raw,18302556,18306848000000,,,-1291005709930463232,0.0,4192.017018795013,4.875155126619795,12.060308797637804,175,4,0.0,15,380816699749615,7,37.5,-613.6530151367188,0.04110000282526016,0,0.0,0.0,,,,,0,,1,,
Raw,18302556,18306848000000,,,-1291005709930463232,0.0,4192.017018795013,4.875155126619795,12.060308797637804,175,8,0.0,15,380816694139317,31,23.5,-717.4642333984375,0.67249995470047,0,0.0,0.0,,,,,0,,1,,
Raw,18302557,18306848000000,,,-1291005709930463232,0.0,4192.017018795013,4.875155126619795,12.060308797637804,175,16,0.0,15,380816709465694,7,37.3,-101.94017028808594,0.026100000366568565,0,0.0,0.0,,,,,0,,1,,
Raw,18302557,18306848000000,,,-1291005709930463232,0.0,4192.017018795013,4.875155126619795,12.060308797637804,175,22,0.0,15,380816698207976,10,34.9,240.7130126953125,0.04410000145435333,0,0.0,0.0,,,,,0,,1,,
Raw,18302558,18306848000000,,,-1291005709930463232,0.0,4192.017018795013,4.875155126619795,12.060308797637804,175,27,0.0,15,380816703862408,16,29.9,-657.531494140625,0.03420000150799751,0,0.0,0.0,,,,,0,,1,,
Fix,gps,22.925478,120.294704,43.953125,0.000000,4.288000,1606988799000
NMEA,$GPGSV,3,2,11,22,18,253,35,27,32,185,30,18,02,098,,26,59,352,*7E,1606988798484
NMEA,$GPGSV,3,3,11,29,14,040,,31,45,050,,32,31,147,*44,1606988798484
NMEA,$GLGSV,3,1,10,75,00,000,36,65,11,326,31,71,49,212,29,72,45,296,32*6E,1606988798484
NMEA,$GLGSV,3,2,10,74,37,333,,70,10,174,,73,26,032,,84,27,119,*64,1606988798487
NMEA,$GLGSV,3,3,10,83,18,056,,85,03,170,*6D,1606988798487
NMEA,$GAGSV,1,1,0,*74,1606988798488
NMEA,$PQGSV,1,1,03,193,38,170,,194,61,032,,195,47,129,,0,5*61,1606988798489
NMEA,$PQGSV,1,1,0,*73,1606988798489
NMEA,$GNGSA,A,3,03,04,16,22,27,,,,,,,,2.1,1.9,0.9,1*36,1606988798491
NMEA,$GNGSA,A,2,71,,,,,,,,,,,,2.1,1.9,0.9,2*37,1606988798492
NMEA,$GNVTG,,T,,M,0.0,N,0.0,K,A*3D,1606988798492
NMEA,$GNRMC,094639.00,A,2255.528652,N,12017.682257,E,0.0,,031220,2.8,W,A*19,1606988798493
NMEA,$GNGGA,094639.00,2255.528652,N,12017.682257,E,1,06,1.9,26.5,M,17.5,M,,*48,1606988798494
NMEA,$GPGSV,3,1,11,03,18,275,38,04,20,320,37,08,02,202,23,16,57,275,37*73,1606988799491
Raw,18303572,18307842000000,,,-1291005709929645568,0.0,4196.530673652887,4.637756459146955,11.013092862693485,176,1,0.0,207,45999693694868,14,30.9,-609.5942993164062,0.24629999697208405,0,0.0,0.0,,,,,0,,3,,
Raw,18303572,18307842000000,,,-1291005709929645568,0.0,4196.530673652887,4.637756459146955,11.013092862693485,176,7,0.0,207,45999703880372,14,30.4,515.8687744140625,0.2312999963760376,0,0.0,0.0,,,,,0,,3,,
Raw,18303573,18307842000000,,,-1291005709929645568,0.0,4196.530673652887,4.637756459146955,11.013092862693485,176,8,0.0,207,45999703064939,13,31.8,-180.0027313232422,0.2583000063896179,0,0.0,0.0,,,,,0,,3,,
Raw,18303574,18307842000000,,,-1291005709929645568,0.0,4196.530673652887,4.637756459146955,11.013092862693485,176,3,0.0,15,380817692264627,7,37.5,127.09699249267578,0.03060000017285347,0,0.0,0.0,,,,,0,,1,,
Raw,18303574,18307842000000,,,-1291005709929645568,0.0,4196.530673652887,4.637756459146955,11.013092862693485,176,4,0.0,15,380817692933533,7,37.2,-612.475341796875,0.03060000017285347,0,0.0,0.0,,,,,0,,1,,
Raw,18303575,18307842000000,,,-1291005709929645568,0.0,4196.530673652887,4.637756459146955,11.013092862693485,176,8,0.0,15,380817687323543,35,22.9,-717.1787719726562,0.722000002861023,0,0.0,0.0,,,,,0,,1,,
Raw,18303575,18307842000000,,,-1291005709929645568,0.0,4196.530673652887,4.637756459146955,11.013092862693485,176,16,0.0,15,380817702647905,7,37.2,-100.7083969116211,0.04560000076889992,0,0.0,0.0,,,,,0,,1,,
Raw,18303576,18307842000000,,,-1291005709929645568,0.0,4196.530673652887,4.637756459146955,11.013092862693485,176,22,0.0,15,380817691389059,10,34.5,241.91976928710938,0.03359999880194664,0,0.0,0.0,,,,,0,,1,,
Raw,18303576,18307842000000,,,-1291005709929645568,0.0,4196.530673652887,4.637756459146955,11.013092862693485,176,27,0.0,15,380817697046481,14,30.5,-656.3673095703125,0.05230000242590904,0,0.0,0.0,,,,,0,,1,,
Fix,gps,22.925478,120.294704,43.955139,0.000000,4.288000,1606988800000
NMEA,$GPGSV,3,2,11,22,18,253,35,27,32,185,31,18,02,098,,26,59,352,*7F,1606988799491
NMEA,$GPGSV,3,3,11,29,14,040,,31,45,050,,32,31,147,*44,1606988799492
NMEA,$GLGSV,3,1,10,75,00,000,36,65,11,326,31,71,49,212,30,72,45,296,32*66,1606988799492
NMEA,$GLGSV,3,2,10,74,37,333,,70,10,174,,73,26,032,,84,27,119,*64,1606988799493
NMEA,$GLGSV,3,3,10,83,18,056,,85,03,170,*6D,1606988799496
NMEA,$GAGSV,1,1,0,*74,1606988799498
NMEA,$PQGSV,1,1,03,193,38,170,,194,61,032,,195,47,129,,0,5*61,1606988799499
NMEA,$PQGSV,1,1,0,*73,1606988799501
NMEA,$GNGSA,A,3,03,04,16,22,27,,,,,,,,2.1,1.9,0.9,1*36,1606988799506
NMEA,$GNGSA,A,2,71,,,,,,,,,,,,2.1,1.9,0.9,2*37,1606988799506
NMEA,$GNVTG,,T,,M,0.0,N,0.0,K,A*3D,1606988799506
NMEA,$GNRMC,094640.00,A,2255.528650,N,12017.682251,E,0.0,,031220,2.8,W,A*13,1606988799506
NMEA,$GNGGA,094640.00,2255.528650,N,12017.682251,E,1,06,1.9,26.5,M,17.5,M,,*42,1606988799507
Fix,gps,22.925477,120.294704,43.961060,0.000000,4.288000,1606988801000
Raw,18304593,18308853000000,,,-1291005709929066752,0.0,4202.577285468578,8.276302396115202,11.002586434781577,177,1,0.0,207,46000704118176,14,30.1,-609.86767578125,0.23280000686645508,0,0.0,0.0,,,,,0,,3,,
Raw,18304595,18308853000000,,,-1291005709929066752,0.0,4202.577285468578,8.276302396115202,11.002586434781577,177,7,0.0,207,46000714299922,14,30.6,515.6806640625,0.24780000746250153,0,0.0,0.0,,,,,0,,3,,
Raw,18304598,18308853000000,,,-1291005709929066752,0.0,4202.577285468578,8.276302396115202,11.002586434781577,177,8,0.0,207,46000713486756,11,33.0,-180.23545837402344,0.23849999904632568,0,0.0,0.0,,,,,0,,3,,
Raw,18304601,18308853000000,,,-1291005709929066752,0.0,4202.577285468578,8.276302396115202,11.002586434781577,177,3,0.0,15,380818702685501,7,37.0,126.78923034667969,0.015599999576807022,0,0.0,0.0,,,,,0,,1,,
Raw,18304603,18308853000000,,,-1291005709929066752,0.0,4202.577285468578,8.276302396115202,11.002586434781577,177,4,0.0,15,380818703356885,8,36.2,-612.7968139648438,0.01850000023841858,0,0.0,0.0,,,,,0,,1,,
Raw,18304607,18308853000000,,,-1291005709929066752,0.0,4202.577285468578,8.276302396115202,11.002586434781577,177,8,0.0,15,380818697747291,40,21.3,-716.94091796875,0.8569999933242798,0,0.0,0.0,,,,,0,,1,,
Raw,18304610,18308853000000,,,-1291005709929066752,0.0,4202.577285468578,8.276302396115202,11.002586434781577,177,16,0.0,15,380818713069554,8,36.7,-101.00491333007812,0.03350000083446503,0,0.0,0.0,,,,,0,,1,,
Raw,18304613,18308853000000,,,-1291005709929066752,0.0,4202.577285468578,8.276302396115202,11.002586434781577,177,22,0.0,15,380818701809547,11,33.4,241.63063049316406,0.05050000175833702,0,0.0,0.0,,,,,0,,1,,
Raw,18304616,18308853000000,,,-1291005709929066752,0.0,4202.577285468578,8.276302396115202,11.002586434781577,177,27,0.0,15,380818707469984,14,30.1,-656.6771240234375,0.037300001829862595,0,0.0,0.0,,,,,0,,1,,
NMEA,$GPGSV,3,1,11,03,18,275,37,04,20,320,36,08,02,202,21,16,57,275,37*7F,1606988800486
NMEA,$GPGSV,3,2,11,22,18,253,33,27,32,185,30,18,02,098,,26,59,352,*78,1606988800487
NMEA,$GPGSV,3,3,11,29,14,040,,31,45,050,,32,31,147,*44,1606988800488
NMEA,$GLGSV,3,1,10,75,00,000,36,65,11,326,30,71,49,212,31,72,45,296,33*67,1606988800488
NMEA,$GLGSV,3,2,10,74,37,333,,70,10,174,,73,26,032,,84,27,119,*64,1606988800489
NMEA,$GLGSV,3,3,10,83,18,056,,85,03,170,*6D,1606988800490
NMEA,$GAGSV,1,1,0,*74,1606988800491
NMEA,$PQGSV,1,1,03,193,38,170,,194,61,032,,195,47,129,,0,5*61,1606988800492
NMEA,$PQGSV,1,1,0,*73,1606988800497
NMEA,$GNGSA,A,3,03,04,16,22,27,,,,,,,,2.1,1.9,0.9,1*36,1606988800499
NMEA,$GNGSA,A,2,71,,,,,,,,,,,,2.1,1.9,0.9,2*37,1606988800500
NMEA,$GNVTG,,T,,M,0.0,N,0.0,K,A*3D,1606988800501
NMEA,$GNRMC,094641.00,A,2255.528647,N,12017.682245,E,0.0,,031220,2.8,W,A*11,1606988800502
NMEA,$GNGGA,094641.00,2255.528647,N,12017.682245,E,1,06,1.9,26.5,M,17.5,M,,*40,1606988800503
Raw,18305577,18309846000000,,,-1291005709928373248,0.0,4214.0125297009945,7.094055282487151,9.963502225323538,178,1,0.0,207,46001696426664,14,30.3,-610.583740234375,0.2508000135421753,0,0.0,0.0,,,,,0,,3,,
Raw,18305578,18309846000000,,,-1291005709928373248,0.0,4214.0125297009945,7.094055282487151,9.963502225323538,178,7,0.0,207,46001706604621,13,31.2,514.99853515625,0.23280000686645508,0,0.0,0.0,,,,,0,,3,,
Raw,18305578,18309846000000,,,-1291005709928373248,0.0,4214.0125297009945,7.094055282487151,9.963502225323538,178,8,0.0,207,46001705793754,12,32.8,-180.88262939453125,0.2289000004529953,0,0.0,0.0,,,,,0,,3,,
Raw,18305579,18309846000000,,,-1291005709928373248,0.0,4214.0125297009945,7.094055282487151,9.963502225323538,178,3,0.0,15,380819694991436,7,37.2,126.09321594238281,0.03360000252723694,0,0.0,0.0,,,,,0,,1,,
Raw,18305579,18309846000000,,,-1291005709928373248,0.0,4214.0125297009945,7.094055282487151,9.963502225323538,178,4,0.0,15,380819695665308,8,36.6,-613.5703735351562,0.0364999994635582,0,0.0,0.0,,,,,0,,1,,
Raw,18305579,18309846000000,,,-1291005709928373248,0.0,4214.0125297009945,7.094055282487151,9.963502225323538,178,8,0.0,15,380819690056047,40,21.8,-717.3975830078125,0.7864999771118164,0,0.0,0.0,,,,,0,,1,,
Raw,18305581,18309846000000,,,-1291005709928373248,0.0,4214.0125297009945,7.094055282487151,9.963502225323538,178,16,0.0,15,380819705376245,7,37.3,-101.71118927001953,0.020099999383091927,0,0.0,0.0,,,,,0,,1,,
Raw,18305582,18309846000000,,,-1291005709928373248,0.0,4214.0125297009945,7.094055282487151,9.963502225323538,178,22,0.0,15,380819694115107,10,34.9,240.82553100585938,0.038100000470876694,0,0.0,0.0,,,,,0,,1,,
Raw,18305583,18309846000000,,,-1291005709928373248,0.0,4214.0125297009945,7.094055282487151,9.963502225323538,178,27,0.0,15,380819699778540,16,29.7,-657.4627075195312,0.05820000171661377,0,0.0,0.0,,,,,0,,1,,
Fix,gps,22.925477,120.294704,43.962158,0.000000,4.288000,1606988802000
NMEA,$GPGSV,3,1,11,03,18,275,37,04,20,320,37,08,02,202,22,16,57,275,37*7D,1606988801490
NMEA,$GPGSV,3,2,11,22,18,253,35,27,32,185,30,18,02,098,,26,59,352,*7E,1606988801491
NMEA,$GPGSV,3,3,11,29,14,040,,31,45,050,,32,31,147,*44,1606988801491
NMEA,$GLGSV,3,1,10,75,00,000,36,65,11,326,30,71,49,212,31,72,45,296,33*67,1606988801498
NMEA,$GLGSV,3,2,10,74,37,333,,70,10,174,,73,26,032,,84,27,119,*64,1606988801500
NMEA,$GLGSV,3,3,10,83,18,056,,85,03,170,*6D,1606988801501
NMEA,$GAGSV,1,1,0,*74,1606988801502
NMEA,$PQGSV,1,1,03,193,38,170,,194,61,032,,195,47,129,,0,5*61,1606988801502
NMEA,$PQGSV,1,1,0,*73,1606988801503
NMEA,$GNGSA,A,3,03,04,16,22,27,,,,,,,,2.1,1.9,0.9,1*36,1606988801506
NMEA,$GNGSA,A,2,71,,,,,,,,,,,,2.1,1.9,0.9,2*37,1606988801506
NMEA,$GNVTG,,T,,M,0.0,N,0.0,K,A*3D,1606988801507
NMEA,$GNRMC,094642.00,A,2255.528645,N,12017.682240,E,0.0,,031220,2.8,W,A*15,1606988801507
NMEA,$GNGGA,094642.00,2255.528645,N,12017.682240,E,1,06,1.9,26.5,M,17.5,M,,*44,1606988801507
NMEA,$GPGSV,3,1,10,03,18,275,37,04,20,320,36,16,57,275,37,22,18,253,34*7D,1606988802489
Raw,18306574,18310838000000,,,-1291005709928344064,0.0,4205.57102188468,4.307418730415824,12.00936562507304,179,1,0.0,207,46002688399497,14,30.2,-609.145263671875,0.23880000412464142,0,0.0,0.0,,,,,0,,3,,
Raw,18306576,18310838000000,,,-1291005709928344064,0.0,4205.57102188468,4.307418730415824,12.00936562507304,179,7,0.0,207,46002698573786,13,31.1,516.4217529296875,0.2508000135421753,0,0.0,0.0,,,,,0,,3,,
Raw,18306576,18310838000000,,,-1291005709928344064,0.0,4205.57102188468,4.307418730415824,12.00936562507304,179,8,0.0,207,46002697765203,12,32.7,-179.41456604003906,0.24689999222755432,0,0.0,0.0,,,,,0,,3,,
Raw,18306577,18310838000000,,,-1291005709928344064,0.0,4205.57102188468,4.307418730415824,12.00936562507304,179,3,0.0,15,380820686961892,8,36.5,127.50714111328125,0.023000000044703484,0,0.0,0.0,,,,,0,,1,,
Raw,18306577,18310838000000,,,-1291005709928344064,0.0,4205.57102188468,4.307418730415824,12.00936562507304,179,4,0.0,15,380820687638203,8,36.2,-612.1971435546875,0.024500001221895218,0,0.0,0.0,,,,,0,,1,,
Raw,18306578,18310838000000,,,-1291005709928344064,0.0,4205.57102188468,4.307418730415824,12.00936562507304,179,16,0.0,15,380820697347458,8,36.8,-100.29371643066406,0.039500001817941666,0,0.0,0.0,,,,,0,,1,,
Raw,18306578,18310838000000,,,-1291005709928344064,0.0,4205.57102188468,4.307418730415824,12.00936562507304,179,22,0.0,15,380820686085163,10,34.2,242.2073211669922,0.026100000366568565,0,0.0,0.0,,,,,0,,1,,
Raw,18306578,18310838000000,,,-1291005709928344064,0.0,4205.57102188468,4.307418730415824,12.00936562507304,179,27,0.0,15,380820691751568,16,29.5,-656.1107177734375,0.04619999974966049,0,0.0,0.0,,,,,0,,1,,
Fix,gps,22.925477,120.294704,43.967224,0.000000,4.288000,1606988803000
NMEA,$GPGSV,3,2,10,27,32,185,30,18,02,098,,26,59,352,,29,14,040,*7E,1606988802490
NMEA,$GPGSV,3,3,10,31,45,050,,32,31,147,*7F,1606988802491
NMEA,$GLGSV,3,1,10,75,00,000,36,65,11,326,30,71,49,212,31,72,45,296,33*67,1606988802491
NMEA,$GLGSV,3,2,10,74,37,333,,70,10,174,,73,26,032,,84,27,119,*64,1606988802497
NMEA,$GLGSV,3,3,10,83,18,056,,85,03,170,*6D,1606988802499
NMEA,$GAGSV,1,1,0,*74,1606988802500
NMEA,$PQGSV,1,1,03,193,38,170,,194,61,032,,195,47,129,,0,5*61,1606988802500
NMEA,$PQGSV,1,1,0,*73,1606988802501
NMEA,$GNGSA,A,3,03,04,16,22,27,,,,,,,,2.1,1.9,0.9,1*36,1606988802503
NMEA,$GNGSA,A,2,71,,,,,,,,,,,,2.1,1.9,0.9,2*37,1606988802504
NMEA,$GNVTG,,T,,M,0.0,N,0.0,K,A*3D,1606988802505
NMEA,$GNRMC,094643.00,A,2255.528642,N,12017.682236,E,0.0,,031220,2.8,W,A*12,1606988802506
NMEA,$GNGGA,094643.00,2255.528642,N,12017.682236,E,1,06,1.9,26.5,M,17.5,M,,*43,1606988802506
NMEA,$GPGSV,3,1,11,03,18,275,37,04,20,320,36,16,57,275,36,22,18,253,35*7C,1606988803489
