# 
# Header Description:
# 
# Version: v2.0.0.1 Platform: 8.0.0 Manufacturer: Sony Model: G8142
# 
# Raw,ElapsedRealtimeMillis,TimeNanos,LeapSecond,TimeUncertaintyNanos,FullBiasNanos,BiasNanos,BiasUncertaintyNanos,DriftNanosPerSecond,DriftUncertaintyNanosPerSecond,HardwareClockDiscontinuityCount,Svid,TimeOffsetNanos,State,ReceivedSvTimeNanos,ReceivedSvTimeUncertaintyNanos,Cn0DbHz,PseudorangeRateMetersPerSecond,PseudorangeRateUncertaintyMetersPerSecond,AccumulatedDeltaRangeState,AccumulatedDeltaRangeMeters,AccumulatedDeltaRangeUncertaintyMeters,CarrierFrequencyHz,CarrierCycles,CarrierPhase,CarrierPhaseUncertainty,MultipathIndicator,SnrInDb,ConstellationType,AgcDb,CarrierFrequencyHz
# 
# Fix,Provider,Latitude,Longitude,Altitude,Speed,Accuracy,(UTC)TimeInMs
# 
# Nav,Svid,Type,Status,MessageId,Sub-messageId,Data(Bytes)
# 
Raw,18719588,18723642000000,,,-1291005709790014976,0.0,66.19990017497912,0.18212346229953805,18.548864268874205,430,10,0.0,207,46415361476349,21,26.7,27.311378479003906,0.3127000033855438,0,0.0,0.0,,,,,0,,3,,
Raw,18719588,18723642000000,,,-1291005709790014976,0.0,66.19990017497912,0.18212346229953805,18.548864268874205,430,11,0.0,207,46415358886783,13,31.1,-134.84866333007812,0.25220000743865967,0,0.0,0.0,,,,,0,,3,,
Raw,18719588,18723642000000,,,-1291005709790014976,0.0,66.19990017497912,0.18212346229953805,18.548864268874205,430,6,0.0,207,46415352376318,319,14.6,804.5626220703125,10.589500427246094,0,0.0,0.0,,,,,0,,3,,
Raw,18719588,18723642000000,,,-1291005709790014976,0.0,66.19990017497912,0.18212346229953805,18.548864268874205,430,9,0.0,207,46415358064525,358,12.7,272.4747619628906,10.8385009765625,0,0.0,0.0,,,,,0,,3,,
Raw,18719588,18723642000000,,,-1291005709790014976,0.0,66.19990017497912,0.18212346229953805,18.548864268874205,430,1,0.0,207,46415354885686,19,27.3,-572.2408447265625,0.2623000144958496,0,0.0,0.0,,,,,0,,3,,
Raw,18719589,18723642000000,,,-1291005709790014976,0.0,66.19990017497912,0.18212346229953805,18.548864268874205,430,21,0.0,207,46415351978845,404,10.6,-716.3904418945312,11.098000526428223,0,0.0,0.0,,,,,0,,3,,
Raw,18719589,18723642000000,,,-1291005709790014976,0.0,66.19990017497912,0.18212346229953805,18.548864268874205,430,7,0.0,207,46415363505279,27,24.9,558.7906494140625,0.8210000395774841,0,0.0,0.0,,,,,0,,3,,
Raw,18719589,18723642000000,,,-1291005709790014976,0.0,66.19990017497912,0.18212346229953805,18.548864268874205,430,8,0.0,207,46415363641352,19,27.5,-116.25899505615234,0.24580000340938568,0,0.0,0.0,,,,,0,,3,,
Raw,18719590,18723642000000,,,-1291005709790014976,0.0,66.19990017497912,0.18212346229953805,18.548864268874205,430,3,0.0,15,381233352437791,13,31.9,157.7645721435547,0.04320000112056732,0,0.0,0.0,,,,,0,,1,,
Raw,18719590,18723642000000,,,-1291005709790014976,0.0,66.19990017497912,0.18212346229953805,18.548864268874205,430,4,0.0,15,381233354144143,6,39.5,-598.2012329101562,0.0406000018119812,0,0.0,0.0,,,,,0,,1,,
Raw,18719590,18723642000000,,,-1291005709790014976,0.0,66.19990017497912,0.18212346229953805,18.548864268874205,430,8,0.0,15,381233348693286,35,22.3,-723.8676147460938,0.7985000014305115,0,0.0,0.0,,,,,0,,1,,
Raw,18719590,18723642000000,,,-1291005709790014976,0.0,66.19990017497912,0.18212346229953805,18.548864268874205,430,16,0.0,15,381233363134976,13,31.2,-67.07006072998047,0.02970000170171261,0,0.0,0.0,,,,,0,,1,,
Raw,18719590,18723642000000,,,-1291005709790014976,0.0,66.19990017497912,0.18212346229953805,18.548864268874205,430,22,0.0,15,381233351414523,12,32.0,255.845703125,0.040400002151727676,0,0.0,0.0,,,,,0,,1,,
Raw,18719591,18723642000000,,,-1291005709790014976,0.0,66.19990017497912,0.18212346229953805,18.548864268874205,430,27,0.0,15,381233358314893,35,22.0,-637.8834228515625,0.8134999871253967,0,0.0,0.0,,,,,0,,1,,
Raw,18719591,18723642000000,,,-1291005709790014976,0.0,66.19990017497912,0.18212346229953805,18.548864268874205,430,31,0.0,15,381233359158307,296,15.4,134.3473358154297,10.25,0,0.0,0.0,,,,,0,,1,,
Raw,18719591,18723642000000,,,-1291005709790014976,0.0,66.19990017497912,0.18212346229953805,18.548864268874205,430,32,0.0,15,381233355810755,1256,15.0,625.4857788085938,7.874000549316406,0,0.0,0.0,,,,,0,,1,,
Raw,18719591,18723642000000,,,-1291005709790014976,0.0,66.19990017497912,0.18212346229953805,18.548864268874205,430,2,0.0,783,381219306994332,17,28.9,-0.9794013500213623,0.41350001096725464,0,0.0,0.0,,,,,0,,5,,
Raw,18719591,18723642000000,,,-1291005709790014976,0.0,66.19990017497912,0.18212346229953805,18.548864268874205,430,3,0.0,783,381219310275627,183,26.7,3.0150198936462402,8.773500442504883,0,0.0,0.0,,,,,0,,5,,
Raw,18719591,18723642000000,,,-1291005709790014976,0.0,66.19990017497912,0.18212346229953805,18.548864268874205,430,5,0.0,783,381219298766382,16,29.6,6.730983734130859,0.41350001096725464,0,0.0,0.0,,,,,0,,5,,
Raw,18719591,18723642000000,,,-1291005709790014976,0.0,66.19990017497912,0.18212346229953805,18.548864268874205,430,7,0.0,15,381219310426200,19,27.6,63.03965377807617,0.056300003081560135,0,0.0,0.0,,,,,0,,5,,
Raw,18719592,18723642000000,,,-1291005709790014976,0.0,66.19990017497912,0.18212346229953805,18.548864268874205,430,9,0.0,15,381219312231800,69,18.8,-108.52152252197266,2.364500045776367,0,0.0,0.0,,,,,0,,5,,
Raw,18719592,18723642000000,,,-1291005709790014976,0.0,66.19990017497912,0.18212346229953805,18.548864268874205,430,10,0.0,15,381219307743615,12,32.0,23.070507049560547,0.03440000116825104,0,0.0,0.0,,,,,0,,5,,
Raw,18719592,18723642000000,,,-1291005709790014976,0.0,66.19990017497912,0.18212346229953805,18.548864268874205,430,12,0.0,15,381219345039474,123,14.9,-588.8890991210938,3.4240000247955322,0,0.0,0.0,,,,,0,,5,,
Raw,18719592,18723642000000,,,-1291005709790014976,0.0,66.19990017497912,0.18212346229953805,18.548864268874205,430,14,0.0,15,381219350098676,13,31.6,-129.44129943847656,0.04020000249147415,0,0.0,0.0,,,,,0,,5,,
Raw,18719592,18723642000000,,,-1291005709790014976,0.0,66.19990017497912,0.18212346229953805,18.548864268874205,430,21,0.0,15,381219351483203,12,32.4,510.2727966308594,0.040400002151727676,0,0.0,0.0,,,,,0,,5,,
Raw,18719593,18723642000000,,,-1291005709790014976,0.0,66.19990017497912,0.18212346229953805,18.548864268874205,430,24,0.0,15,381219348430401,16,29.4,-256.5124206542969,0.038700003176927567,0,0.0,0.0,,,,,0,,5,,
Raw,18719593,18723642000000,,,-1291005709790014976,0.0,66.19990017497912,0.18212346229953805,18.548864268874205,430,26,0.0,15,381219356954701,35,22.0,-51.67782974243164,0.6904999613761902,0,0.0,0.0,,,,,0,,5,,
Raw,18719593,18723642000000,,,-1291005709790014976,0.0,66.19990017497912,0.18212346229953805,18.548864268874205,430,3,0.0,7183,381233343586814,11,33.9,-402.3331298828125,0.04540000110864639,0,0.0,0.0,,,,,0,,6,,
Fix,gps,22.925472,120.294704,42.511597,0.000000,5.360000,1606989216000
NMEA,$GPGSV,3,1,11,03,18,272,32,04,23,319,40,08,04,202,22,16,58,282,31*71,1606989215484
NMEA,$GPGSV,3,2,11,22,18,250,32,27,35,185,22,31,45,054,15,32,28,149,15*7D,1606989215484
NMEA,$GPGSV,3,3,11,18,03,097,,26,57,358,,29,11,039,*44,1606989215484
NMEA,$GLGSV,3,1,10,74,37,338,27,75,00,000,31,70,06,172,15,73,24,036,13*68,1606989215484
NMEA,$GLGSV,3,2,10,65,14,324,27,85,06,168,11,71,46,209,25,72,46,292,28*6B,1606989215484
NMEA,$GLGSV,3,3,10,84,30,115,,83,18,052,*6B,1606989215485
NMEA,$GAGSV,2,1,07,03,23,314,34,02,02,253,,05,66,262,,09,40,168,*6A,1606989215485
NMEA,$GAGSV,2,2,07,24,48,009,,25,42,286,,33,02,050,*56,1606989215486
NMEA,$PQGSV,1,1,03,193,37,170,32,195,47,129,18,194,60,032,,0,5*67,1606989215486
NMEA,$PQGSV,4,1,16,02,40,240,29,03,58,202,27,05,16,255,30,07,71,305,28,0,4*67,1606989215486
NMEA,$PQGSV,4,2,16,09,68,329,19,10,52,260,32,12,07,188,15,14,26,293,32,0,4*67,1606989215487
NMEA,$PQGSV,4,3,16,21,33,199,32,24,21,293,29,26,48,345,22,01,52,129,,0,4*68,1606989215487
NMEA,$PQGSV,4,4,16,04,37,115,,06,80,125,,16,83,118,,22,00,000,,0,4*65,1606989215487
NMEA,$GNGSA,A,3,03,04,16,22,27,,,,,,,,1.9,1.7,0.9,1*33,1606989215488
NMEA,$GNGSA,A,2,65,71,72,,,,,,,,,,1.9,1.7,0.9,2*34,1606989215489
NMEA,$GNGSA,A,2,03,,,,,,,,,,,,1.9,1.7,0.9,3*36,1606989215489
NMEA,$PQGSA,A,2,14,24,,,,,,,,,,,1.9,1.7,0.9,4*39,1606989215505
NMEA,$GNVTG,,T,,M,0.0,N,0.0,K,A*3D,1606989215507
NMEA,$GNRMC,095336.00,A,2255.528318,N,12017.682265,E,0.0,,031220,2.8,W,A*18,1606989215508
NMEA,$GNGGA,095336.00,2255.528318,N,12017.682265,E,1,11,1.7,25.0,M,17.5,M,,*47,1606989215508
NMEA,$GPGSV,3,1,11,03,18,272,34,04,23,319,39,08,04,202,21,16,58,282,30*7B,1606989216482
NMEA,$GPGSV,3,2,11,22,18,250,29,27,35,185,24,31,45,054,15,32,28,149,14*70,1606989216483
Raw,18720568,18724642000000,,,-1291005709790014976,0.0,68.43940354883671,-1.52797696602261,18.364663389296553,430,10,0.0,207,46416361476236,24,25.4,25.569534301757812,0.777999997138977,0,0.0,0.0,,,,,0,,3,,
Raw,18720568,18724642000000,,,-1291005709790014976,0.0,68.43940354883671,-1.52797696602261,18.364663389296553,430,11,0.0,207,46416358887280,12,32.3,-136.49990844726562,0.250900000333786,0,0.0,0.0,,,,,0,,3,,
Raw,18720569,18724642000000,,,-1291005709790014976,0.0,68.43940354883671,-1.52797696602261,18.364663389296553,430,6,0.0,207,46416352373634,390,14.6,804.5626220703125,12.089500427246094,0,0.0,0.0,,,,,0,,3,,
Raw,18720569,18724642000000,,,-1291005709790014976,0.0,68.43940354883671,-1.52797696602261,18.364663389296553,430,9,0.0,207,46416358063616,429,12.7,272.4747619628906,12.3385009765625,0,0.0,0.0,,,,,0,,3,,
Raw,18720569,18724642000000,,,-1291005709790014976,0.0,68.43940354883671,-1.52797696602261,18.364663389296553,430,1,0.0,207,46416354887595,24,25.2,-573.8068237304688,0.6028000116348267,0,0.0,0.0,,,,,0,,3,,
Raw,18720569,18724642000000,,,-1291005709790014976,0.0,68.43940354883671,-1.52797696602261,18.364663389296553,430,21,0.0,207,46416351981234,476,10.6,-716.3904418945312,12.598000526428223,0,0.0,0.0,,,,,0,,3,,
Raw,18720569,18724642000000,,,-1291005709790014976,0.0,68.43940354883671,-1.52797696602261,18.364663389296553,430,7,0.0,207,46416363503480,19,27.5,557.7626953125,0.24580000340938568,0,0.0,0.0,,,,,0,,3,,
Raw,18720570,18724642000000,,,-1291005709790014976,0.0,68.43940354883671,-1.52797696602261,18.364663389296553,430,8,0.0,207,46416363641698,21,26.2,-117.47431945800781,0.3156999945640564,0,0.0,0.0,,,,,0,,3,,
Raw,18720570,18724642000000,,,-1291005709790014976,0.0,68.43940354883671,-1.52797696602261,18.364663389296553,430,3,0.0,15,381234352437244,11,33.5,156.1670379638672,0.04090000316500664,0,0.0,0.0,,,,,0,,1,,
Raw,18720570,18724642000000,,,-1291005709790014976,0.0,68.43940354883671,-1.52797696602261,18.364663389296553,430,4,0.0,15,381234354146152,6,39.3,-599.8109741210938,0.0406000018119812,0,0.0,0.0,,,,,0,,1,,
Raw,18720570,18724642000000,,,-1291005709790014976,0.0,68.43940354883671,-1.52797696602261,18.364663389296553,430,8,0.0,15,381234348695733,46,20.7,-725.466064453125,0.8585000038146973,0,0.0,0.0,,,,,0,,1,,
Raw,18720570,18724642000000,,,-1291005709790014976,0.0,68.43940354883671,-1.52797696602261,18.364663389296553,430,16,0.0,15,381234363135224,16,29.6,-68.6336669921875,0.031200001016259193,0,0.0,0.0,,,,,0,,1,,
Raw,18720570,18724642000000,,,-1291005709790014976,0.0,68.43940354883671,-1.52797696602261,18.364663389296553,430,22,0.0,15,381234351413665,17,28.6,254.29296875,0.049800001084804535,0,0.0,0.0,,,,,0,,1,,
Raw,18720571,18724642000000,,,-1291005709790014976,0.0,68.43940354883671,-1.52797696602261,18.364663389296553,430,27,0.0,15,381234358317030,27,24.2,-638.5018920898438,0.6934999823570251,0,0.0,0.0,,,,,0,,1,,
Raw,18720571,18724642000000,,,-1291005709790014976,0.0,68.43940354883671,-1.52797696602261,18.364663389296553,430,31,0.0,15,381234359157859,364,15.4,134.3473358154297,11.750000953674316,0,0.0,0.0,,,,,0,,1,,
Raw,18720571,18724642000000,,,-1291005709790014976,0.0,68.43940354883671,-1.52797696602261,18.364663389296553,430,32,0.0,15,381234355808663,1458,14.3,625.4287109375,8.744000434875488,0,0.0,0.0,,,,,0,,1,,
Raw,18720571,18724642000000,,,-1291005709790014976,0.0,68.43940354883671,-1.52797696602261,18.364663389296553,430,3,0.0,7183,381234343588173,11,33.5,-405.71563720703125,0.289000004529953,0,0.0,0.0,,,,,0,,6,,
NMEA,$GPGSV,3,3,11,18,03,097,,26,57,358,,29,11,039,*44,1606989216484
Fix,gps,22.925472,120.294704,42.566345,0.000000,5.360000,1606989217000
NMEA,$GLGSV,3,1,10,74,37,338,25,75,00,000,32,70,06,172,15,73,24,036,13*69,1606989216484
NMEA,$GLGSV,3,2,10,65,14,324,25,85,06,168,11,71,45,209,28,72,46,292,26*69,1606989216485
NMEA,$GLGSV,3,3,10,84,30,115,,83,18,052,*6B,1606989216485
NMEA,$GAGSV,2,1,07,03,23,314,34,02,02,253,,05,66,262,,09,40,168,*6A,1606989216485
NMEA,$GAGSV,2,2,07,24,48,009,,25,42,286,,33,02,050,*56,1606989216486
NMEA,$PQGSV,1,1,03,193,37,170,30,195,47,129,17,194,60,032,,0,5*6A,1606989216486
NMEA,$PQGSV,4,1,16,02,40,240,30,03,58,202,27,05,16,255,31,06,80,125,17,0,4*6D,1606989216487
NMEA,$PQGSV,4,2,16,07,71,305,27,09,68,329,19,10,52,260,32,12,07,188,15,0,4*6D,1606989216488
NMEA,$PQGSV,4,3,16,14,26,293,32,21,33,199,31,24,21,293,32,26,48,345,23,0,4*64,1606989216488
NMEA,$PQGSV,4,4,16,01,52,129,,04,37,115,,16,83,118,,22,00,000,,0,4*61,1606989216489
NMEA,$GNGSA,A,3,03,04,16,22,27,,,,,,,,1.9,1.7,0.9,1*33,1606989216490
NMEA,$GNGSA,A,2,65,71,72,,,,,,,,,,1.9,1.7,0.9,2*34,1606989216490
NMEA,$GNGSA,A,2,03,,,,,,,,,,,,1.9,1.7,0.9,3*36,1606989216490
NMEA,$PQGSA,A,2,14,24,,,,,,,,,,,1.9,1.7,0.9,4*39,1606989216490
NMEA,$GNVTG,,T,,M,0.0,N,0.0,K,A*3D,1606989216490
NMEA,$GNRMC,095337.00,A,2255.528315,N,12017.682243,E,0.0,,031220,2.8,W,A*10,1606989216491
NMEA,$GNGGA,095337.00,2255.528315,N,12017.682243,E,1,11,1.7,25.1,M,17.5,M,,*4E,1606989216491
Raw,18721709,18725642000000,,,-1291005709790014976,0.0,70.67802653182298,-6.34551623291608,19.273813361747298,430,10,0.0,207,46417361476211,27,24.6,25.128679275512695,0.8180000185966492,0,0.0,0.0,,,,,0,,3,,
Raw,18721710,18725642000000,,,-1291005709790014976,0.0,70.67802653182298,-6.34551623291608,19.273813361747298,430,11,0.0,207,46417358887679,13,31.0,-137.05825805664062,0.25220000743865967,0,0.0,0.0,,,,,0,,3,,
Raw,18721710,18725642000000,,,-1291005709790014976,0.0,70.67802653182298,-6.34551623291608,19.273813361747298,430,6,0.0,207,46417352370950,470,14.6,804.5626220703125,13.589500427246094,0,0.0,0.0,,,,,0,,3,,
Raw,18721711,18725642000000,,,-1291005709790014976,0.0,70.67802653182298,-6.34551623291608,19.273813361747298,430,9,0.0,207,46417358062707,510,12.7,272.4747619628906,13.8385009765625,0,0.0,0.0,,,,,0,,3,,
Raw,18721712,18725642000000,,,-1291005709790014976,0.0,70.67802653182298,-6.34551623291608,19.273813361747298,430,1,0.0,207,46417354889509,21,26.4,-574.1815185546875,0.33219999074935913,0,0.0,0.0,,,,,0,,3,,
Raw,18721712,18725642000000,,,-1291005709790014976,0.0,70.67802653182298,-6.34551623291608,19.273813361747298,430,21,0.0,207,46417351983624,559,10.6,-716.3904418945312,14.098000526428223,0,0.0,0.0,,,,,0,,3,,
Raw,18721713,18725642000000,,,-1291005709790014976,0.0,70.67802653182298,-6.34551623291608,19.273813361747298,430,7,0.0,207,46417363501548,14,30.1,557.3252563476562,0.23029999434947968,0,0.0,0.0,,,,,0,,3,,
Raw,18721714,18725642000000,,,-1291005709790014976,0.0,70.67802653182298,-6.34551623291608,19.273813361747298,430,8,0.0,207,46417363642107,21,26.7,-118.1359634399414,0.3156999945640564,0,0.0,0.0,,,,,0,,3,,
Raw,18721714,18725642000000,,,-1291005709790014976,0.0,70.67802653182298,-6.34551623291608,19.273813361747298,430,3,0.0,15,381235352436736,11,33.0,155.6990966796875,0.04090000316500664,0,0.0,0.0,,,,,0,,1,,
Raw,18721715,18725642000000,,,-1291005709790014976,0.0,70.67802653182298,-6.34551623291608,19.273813361747298,430,4,0.0,15,381235354148138,6,39.4,-600.336181640625,0.0406000018119812,0,0.0,0.0,,,,,0,,1,,
Raw,18721716,18725642000000,,,-1291005709790014976,0.0,70.67802653182298,-6.34551623291608,19.273813361747298,430,8,0.0,15,381235348698288,31,23.1,-725.513671875,0.7384999990463257,0,0.0,0.0,,,,,0,,1,,
Raw,18721717,18725642000000,,,-1291005709790014976,0.0,70.67802653182298,-6.34551623291608,19.273813361747298,430,16,0.0,15,381235363135433,14,30.8,-69.12715911865234,0.030300000682473183,0,0.0,0.0,,,,,0,,1,,
Raw,18721717,18725642000000,,,-1291005709790014976,0.0,70.67802653182298,-6.34551623291608,19.273813361747298,430,22,0.0,15,381235351412800,16,29.8,253.6725616455078,0.04320000112056732,0,0.0,0.0,,,,,0,,1,,
Raw,18721718,18725642000000,,,-1291005709790014976,0.0,70.67802653182298,-6.34551623291608,19.273813361747298,430,27,0.0,15,381235358319176,21,26.6,-640.2029418945312,0.13819999992847443,0,0.0,0.0,,,,,0,,1,,
Raw,18721718,18725642000000,,,-1291005709790014976,0.0,70.67802653182298,-6.34551623291608,19.273813361747298,430,31,0.0,15,381235359157411,443,15.4,134.3473358154297,13.250000953674316,0,0.0,0.0,,,,,0,,1,,
Raw,18721719,18725642000000,,,-1291005709790014976,0.0,70.67802653182298,-6.34551623291608,19.273813361747298,430,32,0.0,15,381235355806547,1486,14.3,625.5048217773438,9.494000434875488,0,0.0,0.0,,,,,0,,1,,
Raw,18721720,18725642000000,,,-1291005709790014976,0.0,70.67802653182298,-6.34551623291608,19.273813361747298,430,2,0.0,783,381221306994317,13,31.1,1.670743465423584,0.3634999990463257,0,0.0,0.0,,,,,0,,5,,
Raw,18721721,18725642000000,,,-1291005709790014976,0.0,70.67802653182298,-6.34551623291608,19.273813361747298,430,3,0.0,783,381221310275803,115,18.8,-3.9656152725219727,5.373500347137451,0,0.0,0.0,,,,,0,,5,,
Raw,18721722,18725642000000,,,-1291005709790014976,0.0,70.67802653182298,-6.34551623291608,19.273813361747298,430,5,0.0,783,381221298766353,14,30.1,4.157654762268066,0.3935000002384186,0,0.0,0.0,,,,,0,,5,,
Raw,18721722,18725642000000,,,-1291005709790014976,0.0,70.67802653182298,-6.34551623291608,19.273813361747298,430,6,0.0,15,381221312789833,664,16.8,-13.039482116699219,3.3395001888275146,0,0.0,0.0,,,,,0,,5,,
Raw,18721723,18725642000000,,,-1291005709790014976,0.0,70.67802653182298,-6.34551623291608,19.273813361747298,430,7,0.0,15,381221310425779,19,27.6,60.488765716552734,0.056300003081560135,0,0.0,0.0,,,,,0,,5,,
Raw,18721723,18725642000000,,,-1291005709790014976,0.0,70.67802653182298,-6.34551623291608,19.273813361747298,430,9,0.0,15,381221312232621,89,16.5,-111.23887634277344,2.5945000648498535,0,0.0,0.0,,,,,0,,5,,
Raw,18721724,18725642000000,,,-1291005709790014976,0.0,70.67802653182298,-6.34551623291608,19.273813361747298,430,10,0.0,15,381221307743458,13,31.3,20.87129020690918,0.0357000008225441,0,0.0,0.0,,,,,0,,5,,
Raw,18721724,18725642000000,,,-1291005709790014976,0.0,70.67802653182298,-6.34551623291608,19.273813361747298,430,12,0.0,15,381221345043403,181,14.9,-588.8890991210938,6.424000263214111,0,0.0,0.0,,,,,0,,5,,
Raw,18721725,18725642000000,,,-1291005709790014976,0.0,70.67802653182298,-6.34551623291608,19.273813361747298,430,14,0.0,15,381221350099554,12,32.2,-131.48208618164062,0.03890000283718109,0,0.0,0.0,,,,,0,,5,,
Raw,18721726,18725642000000,,,-1291005709790014976,0.0,70.67802653182298,-6.34551623291608,19.273813361747298,430,21,0.0,15,381221351479810,14,30.9,508.1243896484375,0.04230000078678131,0,0.0,0.0,,,,,0,,5,,
Raw,18721726,18725642000000,,,-1291005709790014976,0.0,70.67802653182298,-6.34551623291608,19.273813361747298,430,24,0.0,15,381221348432111,12,32.3,-258.7397155761719,0.03590000048279762,0,0.0,0.0,,,,,0,,5,,
Raw,18721727,18725642000000,,,-1291005709790014976,0.0,70.67802653182298,-6.34551623291608,19.273813361747298,430,26,0.0,15,381221356955076,40,21.4,-54.0111083984375,0.750499963760376,0,0.0,0.0,,,,,0,,5,,
Raw,18721727,18725642000000,,,-1291005709790014976,0.0,70.67802653182298,-6.34551623291608,19.273813361747298,430,3,0.0,7183,381235343589525,11,33.5,-406.3340759277344,0.289000004529953,0,0.0,0.0,,,,,0,,6,,
Fix,gps,22.925472,120.294704,42.577759,0.000000,5.360000,1606989218000
NMEA,$GPGSV,3,1,11,03,18,272,33,04,23,319,39,08,04,202,23,16,58,282,31*7F,1606989217483
NMEA,$GPGSV,3,2,11,22,18,250,30,27,35,185,27,31,45,054,15,32,28,149,14*7B,1606989217483
NMEA,$GPGSV,3,3,11,18,03,097,,26,57,358,,29,11,039,*44,1606989217483
NMEA,$GLGSV,3,1,10,74,37,338,25,75,00,000,31,70,06,172,15,73,24,036,13*6A,1606989217484
NMEA,$GLGSV,3,2,10,65,14,324,26,85,06,168,11,71,45,209,30,72,46,292,27*62,1606989217485
NMEA,$GLGSV,3,3,10,84,30,115,,83,18,052,*6B,1606989217485
NMEA,$GAGSV,2,1,07,03,23,314,34,02,02,253,,05,66,262,,09,40,168,*6A,1606989217485
NMEA,$GAGSV,2,2,07,24,48,009,,25,42,286,,33,02,050,*56,1606989217486
NMEA,$PQGSV,1,1,03,193,37,170,30,195,47,129,17,194,60,032,,0,5*6A,1606989217486
NMEA,$PQGSV,4,1,16,02,40,240,31,03,58,202,19,05,16,255,30,06,80,125,17,0,4*60,1606989217486
NMEA,$PQGSV,4,2,16,07,71,305,28,09,68,329,17,10,52,260,31,12,07,188,15,0,4*6F,1606989217486
NMEA,$PQGSV,4,3,16,14,26,293,32,21,33,199,31,24,21,293,32,26,48,345,21,0,4*66,1606989217486
NMEA,$PQGSV,4,4,16,01,52,129,,04,37,115,,16,83,118,,22,00,000,,0,4*61,1606989217487
NMEA,$GNGSA,A,3,03,04,16,22,27,,,,,,,,1.9,1.7,0.9,1*33,1606989217487
NMEA,$GNGSA,A,2,65,71,72,,,,,,,,,,1.9,1.7,0.9,2*34,1606989217488
NMEA,$GNGSA,A,2,03,,,,,,,,,,,,1.9,1.7,0.9,3*36,1606989217488
NMEA,$PQGSA,A,2,14,24,,,,,,,,,,,1.9,1.7,0.9,4*39,1606989217488
NMEA,$GNVTG,,T,,M,0.0,N,0.0,K,A*3D,1606989217488
NMEA,$GNRMC,095338.00,A,2255.528320,N,12017.682216,E,0.0,,031220,2.8,W,A*19,1606989217488
NMEA,$GNGGA,095338.00,2255.528320,N,12017.682216,E,1,11,1.7,25.1,M,17.5,M,,*47,1606989217488
NMEA,$GPGSV,3,1,11,03,18,272,32,04,23,319,39,08,04,202,28,16,58,282,33*77,1606989218483
Raw,18722547,18727094000000,,,-1291005709789472768,0.0,4212.850239127874,-6.969425554916873,10.057538373653546,431,1,0.0,207,46418806349982,21,26.2,-572.3164672851562,0.4597000181674957,0,0.0,0.0,,,,,0,,3,,
Raw,18722547,18727094000000,,,-1291005709789472768,0.0,4212.850239127874,-6.969425554916873,10.057538373653546,431,7,0.0,207,46418814956573,24,25.5,559.1673583984375,1.3815001249313354,0,0.0,0.0,,,,,0,,3,,
Raw,18722548,18727094000000,,,-1291005709789472768,0.0,4212.850239127874,-6.969425554916873,10.057538373653546,431,8,0.0,207,46418815100456,16,29.4,-116.1883544921875,0.2968999743461609,0,0.0,0.0,,,,,0,,3,,
Raw,18722548,18727094000000,,,-1291005709789472768,0.0,4212.850239127874,-6.969425554916873,10.057538373653546,431,3,0.0,15,381236803893693,12,32.3,157.61549377441406,0.05299999937415123,0,0.0,0.0,,,,,0,,1,,
Raw,18722549,18727094000000,,,-1291005709789472768,0.0,4212.850239127874,-6.969425554916873,10.057538373653546,431,4,0.0,15,381236805608737,6,38.7,-598.5042114257812,0.03240000084042549,0,0.0,0.0,,,,,0,,1,,
Raw,18722549,18727094000000,,,-1291005709789472768,0.0,4212.850239127874,-6.969425554916873,10.057538373653546,431,8,0.0,15,381236800159373,19,27.9,-724.3583984375,0.19370000064373016,0,0.0,0.0,,,,,0,,1,,
Raw,18722550,18727094000000,,,-1291005709789472768,0.0,4212.850239127874,-6.969425554916873,10.057538373653546,431,16,0.0,15,381236814593460,12,32.6,-67.1603775024414,0.06949999928474426,0,0.0,0.0,,,,,0,,1,,
Raw,18722550,18727094000000,,,-1291005709789472768,0.0,4212.850239127874,-6.969425554916873,10.057538373653546,431,22,0.0,15,381236802869219,16,29.8,255.51025390625,0.10740000009536743,0,0.0,0.0,,,,,0,,1,,
Raw,18722551,18727094000000,,,-1291005709789472768,0.0,4212.850239127874,-6.969425554916873,10.057538373653546,431,27,0.0,15,381236809780029,17,28.5,-637.8638916015625,0.11089999973773956,0,0.0,0.0,,,,,0,,1,,
NMEA,$GPGSV,3,2,11,22,18,250,30,27,35,185,29,31,45,054,15,32,28,149,14*75,1606989218483
Fix,gps,22.925472,120.294703,42.586487,0.000000,7.504000,1606989219000
NMEA,$GPGSV,3,3,11,18,03,097,,26,57,358,,29,11,039,*44,1606989218485
NMEA,$GLGSV,3,1,09,75,00,000,31,70,06,172,15,73,24,036,13,65,14,324,26*6D,1606989218486
NMEA,$GLGSV,3,2,09,85,06,168,11,71,45,209,26,72,46,292,29,84,30,115,*6E,1606989218486
NMEA,$GLGSV,3,3,09,83,18,052,*59,1606989218487
NMEA,$GAGSV,1,1,0,*74,1606989218487
NMEA,$PQGSV,1,1,03,193,37,170,29,195,47,129,17,194,60,032,,0,5*62,1606989218487
NMEA,$PQGSV,1,1,0,*73,1606989218488
NMEA,$GNGSA,A,3,03,04,16,22,27,,,,,,,,1.9,1.7,0.9,1*33,1606989218489
NMEA,$GNGSA,A,2,65,71,72,,,,,,,,,,1.9,1.7,0.9,2*34,1606989218489
NMEA,$GNVTG,,T,,M,0.0,N,0.0,K,A*3D,1606989218489
NMEA,$GNRMC,095339.00,A,2255.528334,N,12017.682187,E,0.0,,031220,2.8,W,A*16,1606989218489
NMEA,$GNGGA,095339.00,2255.528334,N,12017.682187,E,1,08,1.7,25.1,M,17.5,M,,*40,1606989218490
Fix,gps,22.925472,120.294703,42.586243,0.000000,7.504000,1606989220000
NMEA,$GPGSA,A,1,,,,,,,,,,,,,1.9,1.7,0.9,1*2A,1606989219480
NMEA,$GPVTG,,T,,M,0.0,N,0.0,K,A*23,1606989219480
NMEA,$GPRMC,095340.00,A,2255.528341,N,12017.682173,E,0.0,,031220,2.8,W,A*0F,1606989219481
NMEA,$GPGGA,095340.00,2255.528341,N,12017.682173,E,1,00,1.7,25.1,M,17.5,M,,*51,1606989219481
NMEA,$GPGSV,3,1,11,03,18,272,33,04,23,319,39,08,04,202,26,16,58,282,31*7A,1606989220493
Raw,18724713,18728652000000,,,-1291005709788979456,0.0,93.4652634896338,-9.4136918103737,15.413080054457906,432,10,0.0,207,46420370440282,27,24.8,26.263643264770508,0.9635000228881836,0,0.0,0.0,,,,,0,,3,,
Raw,18724717,18728652000000,,,-1291005709788979456,0.0,93.4652634896338,-9.4136918103737,15.413080054457906,432,11,0.0,207,46420367853566,21,26.6,-136.05784606933594,0.3427000045776367,0,0.0,0.0,,,,,0,,3,,
Raw,18724721,18728652000000,,,-1291005709788979456,0.0,93.4652634896338,-9.4136918103737,15.413080054457906,432,1,0.0,207,46420363859676,17,28.5,-572.8582763671875,0.27079999446868896,0,0.0,0.0,,,,,0,,3,,
Raw,18724725,18728652000000,,,-1291005709788979456,0.0,93.4652634896338,-9.4136918103737,15.413080054457906,432,7,0.0,207,46420372460559,24,25.4,558.7398071289062,0.6057999730110168,0,0.0,0.0,,,,,0,,3,,
Raw,18724728,18728652000000,,,-1291005709788979456,0.0,93.4652634896338,-9.4136918103737,15.413080054457906,432,8,0.0,207,46420372607764,16,29.3,-116.58158111572266,0.2506999969482422,0,0.0,0.0,,,,,0,,3,,
Raw,18724731,18728652000000,,,-1291005709788979456,0.0,93.4652634896338,-9.4136918103737,15.413080054457906,432,3,0.0,15,381238361399673,11,33.4,157.060302734375,0.06340000033378601,0,0.0,0.0,,,,,0,,1,,
Raw,18724734,18728652000000,,,-1291005709788979456,0.0,93.4652634896338,-9.4136918103737,15.413080054457906,432,4,0.0,15,381238363118651,6,39.4,-599.0822143554688,0.057100001722574234,0,0.0,0.0,,,,,0,,1,,
Raw,18724736,18728652000000,,,-1291005709788979456,0.0,93.4652634896338,-9.4136918103737,15.413080054457906,432,8,0.0,15,381238357669998,24,25.8,-724.5717163085938,0.8030000329017639,0,0.0,0.0,,,,,0,,1,,
Raw,18724739,18728652000000,,,-1291005709788979456,0.0,93.4652634896338,-9.4136918103737,15.413080054457906,432,16,0.0,15,381238372100611,13,31.2,-67.74884033203125,0.04920000210404396,0,0.0,0.0,,,,,0,,1,,
Raw,18724740,18728652000000,,,-1291005709788979456,0.0,93.4652634896338,-9.4136918103737,15.413080054457906,432,22,0.0,15,381238360374728,16,29.0,254.9009246826172,0.06870000064373016,0,0.0,0.0,,,,,0,,1,,
Raw,18724741,18728652000000,,,-1291005709788979456,0.0,93.4652634896338,-9.4136918103737,15.413080054457906,432,27,0.0,15,381238367290203,41,21.7,-638.2640380859375,1.027999997138977,0,0.0,0.0,,,,,0,,1,,
Raw,18724742,18728652000000,,,-1291005709788979456,0.0,93.4652634896338,-9.4136918103737,15.413080054457906,432,5,0.0,783,381224307730840,13,31.0,6.164468288421631,0.5900000333786011,0,0.0,0.0,,,,,0,,5,,
Raw,18724742,18728652000000,,,-1291005709788979456,0.0,93.4652634896338,-9.4136918103737,15.413080054457906,432,7,0.0,15,381224319389692,20,27.9,62.53765869140625,0.8800000548362732,0,0.0,0.0,,,,,0,,5,,
Raw,18724743,18728652000000,,,-1291005709788979456,0.0,93.4652634896338,-9.4136918103737,15.413080054457906,432,10,0.0,15,381224316707755,82,30.7,22.526233673095703,67.94850158691406,0,0.0,0.0,,,,,0,,5,,
Raw,18724744,18728652000000,,,-1291005709788979456,0.0,93.4652634896338,-9.4136918103737,15.413080054457906,432,14,0.0,15,381224359065365,12,32.2,-129.93392944335938,0.39500001072883606,0,0.0,0.0,,,,,0,,5,,
Raw,18724745,18728652000000,,,-1291005709788979456,0.0,93.4652634896338,-9.4136918103737,15.413080054457906,432,21,0.0,15,381224360439206,263,30.5,509.9224548339844,69.12000274658203,0,0.0,0.0,,,,,0,,5,,
Raw,18724745,18728652000000,,,-1291005709788979456,0.0,93.4652634896338,-9.4136918103737,15.413080054457906,432,24,0.0,15,381224357399212,11,33.1,-257.6689758300781,0.37800002098083496,0,0.0,0.0,,,,,0,,5,,
Fix,gps,22.925472,120.294703,42.590210,0.000000,7.504000,1606989221000
NMEA,$GPGSV,3,2,11,22,18,250,29,27,35,185,22,18,03,097,,26,57,358,*7E,1606989220494
NMEA,$GPGSV,3,3,11,29,11,039,,31,45,054,,32,28,149,*4D,1606989220494
NMEA,$GLGSV,3,1,10,74,37,338,25,75,00,000,27,65,14,324,29,71,45,209,25*6A,1606989220495
NMEA,$GLGSV,3,2,10,72,46,292,29,70,06,172,,73,24,036,,84,30,115,*68,1606989220496
NMEA,$GLGSV,3,3,10,83,18,052,,85,06,168,*65,1606989220497
NMEA,$GAGSV,2,1,07,02,02,253,,03,23,314,,05,66,262,,09,40,168,*6D,1606989220497
NMEA,$GAGSV,2,2,07,24,48,009,,25,42,286,,33,02,050,*56,1606989220498
NMEA,$PQGSV,1,1,03,193,37,170,30,194,60,032,,195,47,129,,0,5*6C,1606989220500
NMEA,$PQGSV,4,1,16,05,16,255,31,07,71,305,28,10,52,260,31,14,26,293,32,0,4*6E,1606989220502
NMEA,$PQGSV,4,2,16,21,33,199,31,24,21,293,33,01,52,129,,02,40,240,,0,4*6B,1606989220503
NMEA,$PQGSV,4,3,16,03,58,202,,04,37,115,,06,80,125,,09,68,329,,0,4*67,1606989220504
NMEA,$PQGSV,4,4,16,12,07,188,,16,83,118,,22,00,000,,26,48,345,,0,4*67,1606989220505
NMEA,$GNGSA,A,3,03,04,16,22,27,,,,,,,,1.9,1.7,0.9,1*33,1606989220506
NMEA,$GNGSA,A,2,65,71,72,,,,,,,,,,1.9,1.7,0.9,2*34,1606989220506
NMEA,$GNGSA,A,2,03,,,,,,,,,,,,1.9,1.7,0.9,3*36,1606989220506
NMEA,$PQGSA,A,2,14,24,,,,,,,,,,,1.9,1.7,0.9,4*39,1606989220506
NMEA,$GNVTG,,T,,M,0.0,N,0.0,K,A*3D,1606989220506
NMEA,$GNRMC,095341.00,A,2255.528343,N,12017.682163,E,0.0,,031220,2.8,W,A*13,1606989220507
NMEA,$GNGGA,095341.00,2255.528343,N,12017.682163,E,1,11,1.7,25.1,M,17.5,M,,*4D,1606989220507
Raw,18725786,18729652000000,,,-1291005709788979456,0.0,92.615548055619,-6.130202059417938,18.079209206495204,432,10,0.0,207,46421370440322,27,24.0,27.436126708984375,0.8314999938011169,0,0.0,0.0,,,,,0,,3,,
Raw,18725787,18729652000000,,,-1291005709788979456,0.0,92.615548055619,-6.130202059417938,18.079209206495204,432,11,0.0,207,46421367854045,19,27.7,-135.21937561035156,0.251800000667572,0,0.0,0.0,,,,,0,,3,,
Raw,18725788,18729652000000,,,-1291005709788979456,0.0,92.615548055619,-6.130202059417938,18.079209206495204,432,1,0.0,207,46421363861584,21,26.8,-571.8915405273438,0.3156999945640564,0,0.0,0.0,,,,,0,,3,,
Raw,18725788,18729652000000,,,-1291005709788979456,0.0,92.615548055619,-6.130202059417938,18.079209206495204,432,7,0.0,207,46421372458731,27,24.9,559.7620239257812,0.8345000147819519,0,0.0,0.0,,,,,0,,3,,
Raw,18725789,18729652000000,,,-1291005709788979456,0.0,92.615548055619,-6.130202059417938,18.079209206495204,432,8,0.0,207,46421372608128,21,26.5,-115.522705078125,0.32919999957084656,0,0.0,0.0,,,,,0,,3,,
Raw,18725789,18729652000000,,,-1291005709788979456,0.0,92.615548055619,-6.130202059417938,18.079209206495204,432,3,0.0,15,381239361399136,12,32.9,157.91673278808594,0.02540000155568123,0,0.0,0.0,,,,,0,,1,,
Raw,18725790,18729652000000,,,-1291005709788979456,0.0,92.615548055619,-6.130202059417938,18.079209206495204,432,4,0.0,15,381239363120656,6,39.0,-598.2630615234375,0.02410000190138817,0,0.0,0.0,,,,,0,,1,,
Raw,18725791,18729652000000,,,-1291005709788979456,0.0,92.615548055619,-6.130202059417938,18.079209206495204,432,8,0.0,15,381239357672398,40,21.6,-723.4869995117188,0.8119999766349792,0,0.0,0.0,,,,,0,,1,,
Raw,18725791,18729652000000,,,-1291005709788979456,0.0,92.615548055619,-6.130202059417938,18.079209206495204,432,16,0.0,15,381239372100842,13,31.8,-66.86016082763672,0.04320000112056732,0,0.0,0.0,,,,,0,,1,,
Raw,18725793,18729652000000,,,-1291005709788979456,0.0,92.615548055619,-6.130202059417938,18.079209206495204,432,22,0.0,15,381239360373899,14,30.2,255.6528778076172,0.025800000876188278,0,0.0,0.0,,,,,0,,1,,
Raw,18725793,18729652000000,,,-1291005709788979456,0.0,92.615548055619,-6.130202059417938,18.079209206495204,432,26,0.0,15,381239371289395,999,15.5,261.03533935546875,2.623000144958496,0,0.0,0.0,,,,,0,,1,,
Raw,18725794,18729652000000,,,-1291005709788979456,0.0,92.615548055619,-6.130202059417938,18.079209206495204,432,27,0.0,15,381239367292256,21,26.7,-637.6829833984375,0.12170000374317169,0,0.0,0.0,,,,,0,,1,,
Raw,18725795,18729652000000,,,-1291005709788979456,0.0,92.615548055619,-6.130202059417938,18.079209206495204,432,31,0.0,15,381239368120330,999,16.1,131.99720764160156,2.618499994277954,0,0.0,0.0,,,,,0,,1,,
Raw,18725795,18729652000000,,,-1291005709788979456,0.0,92.615548055619,-6.130202059417938,18.079209206495204,432,32,0.0,15,381239364762786,867,16.8,623.364013671875,2.5225000381469727,0,0.0,0.0,,,,,0,,1,,
Raw,18725796,18729652000000,,,-1291005709788979456,0.0,92.615548055619,-6.130202059417938,18.079209206495204,432,5,0.0,783,381225307730819,13,31.6,5.444319725036621,0.33500000834465027,0,0.0,0.0,,,,,0,,5,,
Raw,18725796,18729652000000,,,-1291005709788979456,0.0,92.615548055619,-6.130202059417938,18.079209206495204,432,7,0.0,15,381225319389483,19,27.0,62.723140716552734,0.06980000436306,0,0.0,0.0,,,,,0,,5,,
Raw,18725797,18729652000000,,,-1291005709788979456,0.0,92.615548055619,-6.130202059417938,18.079209206495204,432,10,0.0,15,381225316707680,315,30.7,22.526233673095703,69.44850158691406,0,0.0,0.0,,,,,0,,5,,
Raw,18725798,18729652000000,,,-1291005709788979456,0.0,92.615548055619,-6.130202059417938,18.079209206495204,432,14,0.0,15,381225359065807,12,32.4,-129.2174072265625,0.052400000393390656,0,0.0,0.0,,,,,0,,5,,
Raw,18725798,18729652000000,,,-1291005709788979456,0.0,92.615548055619,-6.130202059417938,18.079209206495204,432,21,0.0,15,381225360437513,18,28.5,510.3257751464844,0.8815000057220459,0,0.0,0.0,,,,,0,,5,,
Raw,18725799,18729652000000,,,-1291005709788979456,0.0,92.615548055619,-6.130202059417938,18.079209206495204,432,24,0.0,15,381225357400061,12,32.5,-256.85638427734375,0.049400001764297485,0,0.0,0.0,,,,,0,,5,,
Raw,18725800,18729652000000,,,-1291005709788979456,0.0,92.615548055619,-6.130202059417938,18.079209206495204,432,26,0.0,15,381225365920263,56,20.4,-53.1373291015625,2.5789999961853027,0,0.0,0.0,,,,,0,,5,,
Fix,gps,22.925472,120.294703,42.594910,0.000000,7.504000,1606989222000
NMEA,$GPGSV,3,1,11,03,18,272,33,04,23,319,39,08,04,202,22,16,58,282,32*7D,1606989221484
NMEA,$GPGSV,3,2,11,22,18,250,30,26,57,358,16,27,35,185,27,31,45,054,16*75,1606989221484
NMEA,$GPGSV,3,3,11,32,28,149,17,18,03,097,,29,11,039,*4D,1606989221486
NMEA,$GLGSV,3,1,10,74,37,338,24,75,00,000,28,65,14,324,27,71,45,209,25*6A,1606989221486
NMEA,$GLGSV,3,2,10,72,46,292,27,70,06,172,,73,24,036,,84,30,115,*66,1606989221487
NMEA,$GLGSV,3,3,10,83,18,052,,85,06,168,*65,1606989221487
NMEA,$GAGSV,2,1,07,02,02,253,,03,23,314,,05,66,262,,09,40,168,*6D,1606989221487
NMEA,$GAGSV,2,2,07,24,48,009,,25,42,286,,33,02,050,*56,1606989221487
NMEA,$PQGSV,1,1,03,193,37,170,30,195,47,129,17,194,60,032,,0,5*6A,1606989221488
NMEA,$PQGSV,4,1,16,05,16,255,32,07,71,305,27,10,52,260,31,14,26,293,32,0,4*62,1606989221488
NMEA,$PQGSV,4,2,16,21,33,199,29,24,21,293,33,26,48,345,20,01,52,129,,0,4*6A,1606989221488
NMEA,$PQGSV,4,3,16,02,40,240,,03,58,202,,04,37,115,,06,80,125,,0,4*68,1606989221489
NMEA,$PQGSV,4,4,16,09,68,329,,12,07,188,,16,83,118,,22,00,000,,0,4*62,1606989221489
NMEA,$GNGSA,A,3,03,04,16,22,27,,,,,,,,1.9,1.7,0.9,1*33,1606989221490
NMEA,$GNGSA,A,2,65,71,72,,,,,,,,,,1.9,1.7,0.9,2*34,1606989221490
NMEA,$GNGSA,A,2,03,,,,,,,,,,,,1.9,1.7,0.9,3*36,1606989221491
NMEA,$PQGSA,A,2,14,24,,,,,,,,,,,1.9,1.7,0.9,4*39,1606989221491
NMEA,$GNVTG,,T,,M,0.0,N,0.0,K,A*3D,1606989221491
NMEA,$GNRMC,095342.00,A,2255.528345,N,12017.682158,E,0.0,,031220,2.8,W,A*1E,1606989221491
NMEA,$GNGGA,095342.00,2255.528345,N,12017.682158,E,1,11,1.7,25.1,M,17.5,M,,*40,1606989221491
Raw,18726551,18730416000000,,,-1291005709788979456,0.0,83.74556637136266,-3.8147968122599707,11.32070271692,432,10,0.0,207,46422134440151,31,23.5,24.97860336303711,0.872499942779541,0,0.0,0.0,,,,,0,,3,,
Raw,18726552,18730416000000,,,-1291005709788979456,0.0,83.74556637136266,-3.8147968122599707,11.32070271692,432,11,0.0,207,46422131854390,24,27.7,-135.21937561035156,1.397800087928772,0,0.0,0.0,,,,,0,,3,,
Raw,18726552,18730416000000,,,-1291005709788979456,0.0,83.74556637136266,-3.8147968122599707,11.32070271692,432,1,0.0,207,46422127863069,21,26.7,-573.0020141601562,0.4611999988555908,0,0.0,0.0,,,,,0,,3,,
Raw,18726553,18730416000000,,,-1291005709788979456,0.0,83.74556637136266,-3.8147968122599707,11.32070271692,432,7,0.0,207,46422136457087,19,27.0,558.5987548828125,0.38770002126693726,0,0.0,0.0,,,,,0,,3,,
Raw,18726553,18730416000000,,,-1291005709788979456,0.0,83.74556637136266,-3.8147968122599707,11.32070271692,432,8,0.0,207,46422136608267,17,28.2,-116.54385375976562,0.321399986743927,0,0.0,0.0,,,,,0,,3,,
Raw,18726554,18730416000000,,,-1291005709788979456,0.0,83.74556637136266,-3.8147968122599707,11.32070271692,432,3,0.0,15,381240125398739,8,36.8,156.67930603027344,0.03799999877810478,0,0.0,0.0,,,,,0,,1,,
Raw,18726554,18730416000000,,,-1291005709788979456,0.0,83.74556637136266,-3.8147968122599707,11.32070271692,432,4,0.0,15,381240127122202,6,38.1,-599.4813232421875,0.03539999946951866,0,0.0,0.0,,,,,0,,1,,
Raw,18726555,18730416000000,,,-1291005709788979456,0.0,83.74556637136266,-3.8147968122599707,11.32070271692,432,8,0.0,15,381240121674242,45,21.6,-723.4869995117188,1.9580000638961792,0,0.0,0.0,,,,,0,,1,,
Raw,18726555,18730416000000,,,-1291005709788979456,0.0,83.74556637136266,-3.8147968122599707,11.32070271692,432,16,0.0,15,381240136101062,21,26.8,-67.1522445678711,0.27470001578330994,0,0.0,0.0,,,,,0,,1,,
Raw,18726556,18730416000000,,,-1291005709788979456,0.0,83.74556637136266,-3.8147968122599707,11.32070271692,432,22,0.0,15,381240124373232,27,24.3,253.4997100830078,0.6574999690055847,0,0.0,0.0,,,,,0,,1,,
Raw,18726556,18730416000000,,,-1291005709788979456,0.0,83.74556637136266,-3.8147968122599707,11.32070271692,432,26,0.0,15,381240135288730,1012,15.5,261.03533935546875,3.7690000534057617,0,0.0,0.0,,,,,0,,1,,
Raw,18726556,18730416000000,,,-1291005709788979456,0.0,83.74556637136266,-3.8147968122599707,11.32070271692,432,27,0.0,15,381240131293867,13,31.7,-638.7650756835938,0.07159999758005142,0,0.0,0.0,,,,,0,,1,,
Raw,18726557,18730416000000,,,-1291005709788979456,0.0,83.74556637136266,-3.8147968122599707,11.32070271692,432,31,0.0,15,381240132119993,1012,16.1,131.99720764160156,3.764500141143799,0,0.0,0.0,,,,,0,,1,,
Raw,18726557,18730416000000,,,-1291005709788979456,0.0,83.74556637136266,-3.8147968122599707,11.32070271692,432,32,0.0,15,381240128761198,880,16.8,623.364013671875,3.6685001850128174,0,0.0,0.0,,,,,0,,1,,
Fix,gps,22.925472,120.294703,42.588562,0.000000,7.504000,1606989223000
NMEA,$GPGSV,3,1,11,03,18,271,37,04,23,319,38,08,06,202,22,16,58,284,27*7B,1606989222483
NMEA,$GPGSV,3,2,11,22,17,248,24,26,56,358,16,27,36,185,32,31,44,056,16*73,1606989222483
NMEA,$GPGSV,3,3,11,32,28,149,17,18,03,095,,29,11,039,*4F,1606989222483
NMEA,$GLGSV,3,1,10,74,37,338,24,75,00,000,28,65,14,324,27,71,45,209,27*68,1606989222483
NMEA,$GLGSV,3,2,10,72,46,292,28,70,06,172,,73,24,036,,84,30,115,*69,1606989222484
NMEA,$GLGSV,3,3,10,83,18,052,,85,06,168,*65,1606989222484
NMEA,$GAGSV,1,1,0,*74,1606989222485
NMEA,$PQGSV,1,1,03,193,37,170,31,195,48,129,17,194,60,032,,0,5*64,1606989222486
NMEA,$PQGSV,1,1,0,*73,1606989222487
NMEA,$GNGSA,A,3,03,04,16,22,27,,,,,,,,1.9,1.7,0.9,1*33,1606989222488
NMEA,$GNGSA,A,2,65,71,72,,,,,,,,,,1.9,1.7,0.9,2*34,1606989222489
NMEA,$GNVTG,,T,,M,0.0,N,0.0,K,A*3D,1606989222489
NMEA,$GNRMC,095343.00,A,2255.528348,N,12017.682152,E,0.0,,031220,2.8,W,A*18,1606989222489
NMEA,$GNGGA,095343.00,2255.528348,N,12017.682152,E,1,08,1.7,25.1,M,17.5,M,,*4E,1606989222489
Raw,18727751,18732078000000,,,-1291005709788593152,0.0,4434.059839695692,-7.198371204277861,17.71446732026781,433,10,0.0,207,46423796053835,19,27.1,27.950603485107422,0.38770002126693726,0,0.0,0.0,,,,,0,,3,,
Raw,18727752,18732078000000,,,-1291005709788593152,0.0,4434.059839695692,-7.198371204277861,17.71446732026781,433,1,0.0,207,46423789479778,27,24.1,-571.3045043945312,0.8149999976158142,0,0.0,0.0,,,,,0,,3,,
Raw,18727753,18732078000000,,,-1291005709788593152,0.0,4434.059839695692,-7.198371204277861,17.71446732026781,433,7,0.0,207,46423798067563,16,29.0,560.7500610351562,0.30139997601509094,0,0.0,0.0,,,,,0,,3,,
Raw,18727753,18732078000000,,,-1291005709788593152,0.0,4434.059839695692,-7.198371204277861,17.71446732026781,433,8,0.0,207,46423798222680,12,32.2,-114.23612213134766,0.27549999952316284,0,0.0,0.0,,,,,0,,3,,
Raw,18727754,18732078000000,,,-1291005709788593152,0.0,4434.059839695692,-7.198371204277861,17.71446732026781,433,3,0.0,15,381241787011438,8,36.3,159.06129455566406,0.04100000113248825,0,0.0,0.0,,,,,0,,1,,
Raw,18727754,18732078000000,,,-1291005709788593152,0.0,4434.059839695692,-7.198371204277861,17.71446732026781,433,4,0.0,15,381241788739121,10,34.6,-597.2467041015625,0.050599999725818634,0,0.0,0.0,,,,,0,,1,,
Raw,18727755,18732078000000,,,-1291005709788593152,0.0,4434.059839695692,-7.198371204277861,17.71446732026781,433,8,0.0,15,381241783291756,17,28.9,-723.1846313476562,0.10189999639987946,0,0.0,0.0,,,,,0,,1,,
Raw,18727755,18732078000000,,,-1291005709788593152,0.0,4434.059839695692,-7.198371204277861,17.71446732026781,433,16,0.0,15,381241797714974,7,37.5,-65.68965911865234,0.05300000309944153,0,0.0,0.0,,,,,0,,1,,
Raw,18727756,18732078000000,,,-1291005709788593152,0.0,4434.059839695692,-7.198371204277861,17.71446732026781,433,22,0.0,15,381241785985464,7,37.5,256.76666259765625,0.03500000014901161,0,0.0,0.0,,,,,0,,1,,
Raw,18727757,18732078000000,,,-1291005709788593152,0.0,4434.059839695692,-7.198371204277861,17.71446732026781,433,27,0.0,15,381241792911031,16,29.0,-636.5838623046875,0.09239999949932098,0,0.0,0.0,,,,,0,,1,,
Fix,gps,22.925472,120.294702,42.588501,0.000000,7.504000,1606989224000
NMEA,$GPGSV,3,1,11,03,18,271,36,04,23,319,35,08,06,202,29,16,58,284,38*72,1606989223480
NMEA,$GPGSV,3,2,11,22,17,248,38,26,56,358,16,27,36,185,29,31,44,056,16*74,1606989223482
NMEA,$GPGSV,3,3,11,32,28,149,17,18,03,095,,29,11,039,*4F,1606989223483
NMEA,$GLGSV,3,1,10,74,37,338,27,75,00,000,28,65,14,324,24,71,45,209,29*66,1606989223484
NMEA,$GLGSV,3,2,10,72,46,292,32,70,06,172,,73,24,036,,84,30,115,*62,1606989223484
NMEA,$GLGSV,3,3,10,83,18,052,,85,06,168,*65,1606989223484
NMEA,$GAGSV,1,1,0,*74,1606989223486
NMEA,$PQGSV,1,1,03,193,37,170,34,195,48,129,17,194,60,032,,0,5*61,1606989223486
NMEA,$PQGSV,1,1,0,*73,1606989223486
NMEA,$GNGSA,A,3,03,04,16,22,27,,,,,,,,1.9,1.7,0.9,1*33,1606989223487
NMEA,$GNGSA,A,2,65,71,72,,,,,,,,,,1.9,1.7,0.9,2*34,1606989223487
NMEA,$GNVTG,,T,,M,0.0,N,0.0,K,A*3D,1606989223488
NMEA,$GNRMC,095344.00,A,2255.528349,N,12017.682149,E,0.0,,031220,2.8,W,A*14,1606989223488
NMEA,$GNGGA,095344.00,2255.528349,N,12017.682149,E,1,08,1.7,25.1,M,17.5,M,,*42,1606989223488
Fix,gps,22.925473,120.294702,42.588318,0.000000,7.504000,1606989225000
NMEA,$GPGSA,A,1,,,,,,,,,,,,,1.9,1.7,0.9,1*2A,1606989224479
NMEA,$GPVTG,,T,,M,0.0,N,0.0,K,A*23,1606989224480
NMEA,$GPRMC,095345.00,A,2255.528351,N,12017.682148,E,0.0,,031220,2.8,W,A*03,1606989224481
NMEA,$GPGGA,095345.00,2255.528351,N,12017.682148,E,1,00,1.7,25.1,M,17.5,M,,*5D,1606989224482
Fix,gps,22.925473,120.294702,42.586182,0.000000,6.432000,1606989226000
Raw,18729603,18733659000000,,,-1291005709788244736,0.0,80.51032637013122,5.260202070560217,15.32689092181231,434,10,0.0,207,46425376704947,24,25.8,28.110923767089844,0.5848000049591064,0,0.0,0.0,,,,,0,,3,,
Raw,18729603,18733659000000,,,-1291005709788244736,0.0,80.51032637013122,5.260202070560217,15.32689092181231,434,11,0.0,207,46425374121001,19,27.8,-133.84620666503906,0.24730001389980316,0,0.0,0.0,,,,,0,,3,,
Raw,18729604,18733659000000,,,-1291005709788244736,0.0,80.51032637013122,5.260202070560217,15.32689092181231,434,6,0.0,207,46425367579074,564,19.9,804.2908325195312,1.9070000648498535,0,0.0,0.0,,,,,0,,3,,
Raw,18729604,18733659000000,,,-1291005709788244736,0.0,80.51032637013122,5.260202070560217,15.32689092181231,434,1,0.0,207,46425370134388,490,20.7,-570.4907836914062,1.8415000438690186,0,0.0,0.0,,,,,0,,3,,
Raw,18729605,18733659000000,,,-1291005709788244736,0.0,80.51032637013122,5.260202070560217,15.32689092181231,434,7,0.0,207,46425378716135,19,27.3,561.1134643554688,0.24130000174045563,0,0.0,0.0,,,,,0,,3,,
Raw,18729605,18733659000000,,,-1291005709788244736,0.0,80.51032637013122,5.260202070560217,15.32689092181231,434,8,0.0,207,46425378874756,19,27.9,-113.52943420410156,0.24130000174045563,0,0.0,0.0,,,,,0,,3,,
Raw,18729606,18733659000000,,,-1291005709788244736,0.0,80.51032637013122,5.260202070560217,15.32689092181231,434,3,0.0,15,381243367662105,7,37.4,159.46287536621094,0.03710000216960907,0,0.0,0.0,,,,,0,,1,,
Raw,18729606,18733659000000,,,-1291005709788244736,0.0,80.51032637013122,5.260202070560217,15.32689092181231,434,4,0.0,15,381243369393778,10,34.6,-596.80712890625,0.035600002855062485,0,0.0,0.0,,,,,0,,1,,
Raw,18729607,18733659000000,,,-1291005709788244736,0.0,80.51032637013122,5.260202070560217,15.32689092181231,434,8,0.0,15,381243363947104,21,26.0,-722.9306030273438,0.13369999825954437,0,0.0,0.0,,,,,0,,1,,
Raw,18729607,18733659000000,,,-1291005709788244736,0.0,80.51032637013122,5.260202070560217,15.32689092181231,434,16,0.0,15,381243378366828,9,35.3,-65.24345397949219,0.02160000056028366,0,0.0,0.0,,,,,0,,1,,
Raw,18729608,18733659000000,,,-1291005709788244736,0.0,80.51032637013122,5.260202070560217,15.32689092181231,434,22,0.0,15,381243366635609,7,37.5,257.126220703125,0.038600001484155655,0,0.0,0.0,,,,,0,,1,,
Raw,18729608,18733659000000,,,-1291005709788244736,0.0,80.51032637013122,5.260202070560217,15.32689092181231,434,27,0.0,15,381243373565877,17,28.3,-636.1726684570312,0.040800001472234726,0,0.0,0.0,,,,,0,,1,,
Raw,18729609,18733659000000,,,-1291005709788244736,0.0,80.51032637013122,5.260202070560217,15.32689092181231,434,5,0.0,783,381229313995875,11,33.4,6.855810165405273,0.4650000333786011,0,0.0,0.0,,,,,0,,5,,
Raw,18729610,18733659000000,,,-1291005709788244736,0.0,80.51032637013122,5.260202070560217,15.32689092181231,434,7,0.0,15,381229325653656,28,24.7,64.42924499511719,1.031000018119812,0,0.0,0.0,,,,,0,,5,,
Raw,18729610,18733659000000,,,-1291005709788244736,0.0,80.51032637013122,5.260202070560217,15.32689092181231,434,10,0.0,15,381229322972486,90,31.3,23.716876983642578,68.00849914550781,0,0.0,0.0,,,,,0,,5,,
Raw,18729611,18733659000000,,,-1291005709788244736,0.0,80.51032637013122,5.260202070560217,15.32689092181231,434,14,0.0,15,381229365332646,11,33.8,-127.389404296875,0.3460000157356262,0,0.0,0.0,,,,,0,,5,,
Raw,18729611,18733659000000,,,-1291005709788244736,0.0,80.51032637013122,5.260202070560217,15.32689092181231,434,21,0.0,15,381229366695768,65,33.7,511.09393310546875,67.8584976196289,0,0.0,0.0,,,,,0,,5,,
Raw,18729612,18733659000000,,,-1291005709788244736,0.0,80.51032637013122,5.260202070560217,15.32689092181231,434,24,0.0,15,381229363668590,11,33.4,-255.22048950195312,0.36900001764297485,0,0.0,0.0,,,,,0,,5,,
NMEA,$GPGSV,3,1,11,03,18,271,37,04,23,319,35,08,06,202,26,16,58,284,35*71,1606989225493
NMEA,$GPGSV,3,2,11,22,17,248,38,27,36,185,28,18,03,095,,26,56,358,*72,1606989225494
NMEA,$GPGSV,3,3,11,29,11,039,,31,44,056,,32,28,149,*4E,1606989225496
NMEA,$GLGSV,3,1,10,74,37,338,26,75,00,000,28,70,06,172,20,65,14,324,21*62,1606989225497
NMEA,$GLGSV,3,2,10,71,45,209,27,72,46,292,28,73,24,036,,84,30,115,*65,1606989225501
NMEA,$GLGSV,3,3,10,83,18,052,,85,06,168,*65,1606989225502
NMEA,$GAGSV,2,1,07,02,03,254,,03,23,314,,05,66,261,,09,40,168,*68,1606989225504
NMEA,$GAGSV,2,2,07,24,47,011,,25,42,286,,33,02,049,*58,1606989225505
NMEA,$PQGSV,1,1,03,193,37,170,32,194,60,032,,195,48,129,,0,5*61,1606989225506
NMEA,$PQGSV,4,1,16,05,16,255,33,07,71,306,25,10,52,261,31,14,26,293,34,0,4*65,1606989225506
NMEA,$PQGSV,4,2,16,21,32,199,34,24,21,293,33,01,52,129,,02,40,240,,0,4*6F,1606989225507
NMEA,$PQGSV,4,3,16,03,58,202,,04,37,115,,06,80,127,,09,68,329,,0,4*65,1606989225508
NMEA,$PQGSV,4,4,16,12,07,188,,16,83,122,,26,48,347,,29,18,052,,0,4*69,1606989225509
NMEA,$GNGSA,A,3,03,04,16,22,27,,,,,,,,1.9,1.7,0.9,1*33,1606989225511
NMEA,$GNGSA,A,2,65,71,72,,,,,,,,,,1.9,1.7,0.9,2*34,1606989225512
NMEA,$PQGSA,A,2,14,24,,,,,,,,,,,1.9,1.7,0.9,4*39,1606989225513
NMEA,$GNVTG,,T,,M,0.0,N,0.0,K,A*3D,1606989225513
NMEA,$GNRMC,095346.00,A,2255.528352,N,12017.682149,E,0.0,,031220,2.8,W,A*1C,1606989225514
NMEA,$GNGGA,095346.00,2255.528352,N,12017.682149,E,1,10,1.7,25.1,M,17.5,M,,*43,1606989225515
Fix,gps,22.925473,120.294703,42.583618,0.000000,6.432000,1606989227000
Raw,18730604,18734659000000,,,-1291005709788244736,0.0,80.1549176685512,1.9077586674155877,16.458017515708516,434,10,0.0,207,46426376704823,40,21.2,28.383495330810547,1.0104999542236328,0,0.0,0.0,,,,,0,,3,,
Raw,18730605,18734659000000,,,-1291005709788244736,0.0,80.1549176685512,1.9077586674155877,16.458017515708516,434,11,0.0,207,46426374121362,17,28.3,-133.27853393554688,0.25429999828338623,0,0.0,0.0,,,,,0,,3,,
Raw,18730605,18734659000000,,,-1291005709788244736,0.0,80.1549176685512,1.9077586674155877,16.458017515708516,434,6,0.0,207,46426367576414,755,17.9,804.328369140625,2.817000150680542,0,0.0,0.0,,,,,0,,3,,
Raw,18730606,18734659000000,,,-1291005709788244736,0.0,80.1549176685512,1.9077586674155877,16.458017515708516,434,1,0.0,207,46426370136172,37,22.5,-566.6277465820312,1.4485000371932983,0,0.0,0.0,,,,,0,,3,,
Raw,18730606,18734659000000,,,-1291005709788244736,0.0,80.1549176685512,1.9077586674155877,16.458017515708516,434,7,0.0,207,46426378714399,19,27.3,561.8350830078125,0.26829999685287476,0,0.0,0.0,,,,,0,,3,,
Raw,18730607,18734659000000,,,-1291005709788244736,0.0,80.1549176685512,1.9077586674155877,16.458017515708516,434,8,0.0,207,46426378875186,16,29.0,-112.99593353271484,0.25369998812675476,0,0.0,0.0,,,,,0,,3,,
Raw,18730608,18734659000000,,,-1291005709788244736,0.0,80.1549176685512,1.9077586674155877,16.458017515708516,434,3,0.0,15,381244367661574,6,39.2,160.08499145507812,0.030100001022219658,0,0.0,0.0,,,,,0,,1,,
Raw,18730608,18734659000000,,,-1291005709788244736,0.0,80.1549176685512,1.9077586674155877,16.458017515708516,434,4,0.0,15,381244369395789,9,35.9,-596.2269287109375,0.035100001841783524,0,0.0,0.0,,,,,0,,1,,
Raw,18730609,18734659000000,,,-1291005709788244736,0.0,80.1549176685512,1.9077586674155877,16.458017515708516,434,8,0.0,15,381244363949526,46,20.9,-722.9447021484375,0.8510000109672546,0,0.0,0.0,,,,,0,,1,,
Raw,18730609,18734659000000,,,-1291005709788244736,0.0,80.1549176685512,1.9077586674155877,16.458017515708516,434,16,0.0,15,381244378367045,13,31.8,-64.65560150146484,0.05220000073313713,0,0.0,0.0,,,,,0,,1,,
Raw,18730610,18734659000000,,,-1291005709788244736,0.0,80.1549176685512,1.9077586674155877,16.458017515708516,434,22,0.0,15,381244366634757,6,38.2,257.72796630859375,0.029100000858306885,0,0.0,0.0,,,,,0,,1,,
Raw,18730610,18734659000000,,,-1291005709788244736,0.0,80.1549176685512,1.9077586674155877,16.458017515708516,434,27,0.0,15,381244373567988,24,25.6,-635.579833984375,0.40130001306533813,0,0.0,0.0,,,,,0,,1,,
Raw,18730611,18734659000000,,,-1291005709788244736,0.0,80.1549176685512,1.9077586674155877,16.458017515708516,434,5,0.0,783,381230313995860,13,31.7,7.547151565551758,0.33500000834465027,0,0.0,0.0,,,,,0,,5,,
Raw,18730611,18734659000000,,,-1291005709788244736,0.0,80.1549176685512,1.9077586674155877,16.458017515708516,434,7,0.0,15,381230325653489,24,25.0,64.55421447753906,0.38929998874664307,0,0.0,0.0,,,,,0,,5,,
Raw,18730612,18734659000000,,,-1291005709788244736,0.0,80.1549176685512,1.9077586674155877,16.458017515708516,434,10,0.0,15,381230322972407,323,31.3,23.716876983642578,69.50849914550781,0,0.0,0.0,,,,,0,,5,,
Raw,18730612,18734659000000,,,-1291005709788244736,0.0,80.1549176685512,1.9077586674155877,16.458017515708516,434,12,0.0,15,381230360290632,54,19.3,-587.4199829101562,1.4014999866485596,0,0.0,0.0,,,,,0,,5,,
Raw,18730613,18734659000000,,,-1291005709788244736,0.0,80.1549176685512,1.9077586674155877,16.458017515708516,434,14,0.0,15,381230365333056,11,33.5,-126.94031524658203,0.030400000512599945,0,0.0,0.0,,,,,0,,5,,
Raw,18730613,18734659000000,,,-1291005709788244736,0.0,80.1549176685512,1.9077586674155877,16.458017515708516,434,21,0.0,15,381230366694063,297,33.7,511.09393310546875,69.3584976196289,0,0.0,0.0,,,,,0,,5,,
Raw,18730614,18734659000000,,,-1291005709788244736,0.0,80.1549176685512,1.9077586674155877,16.458017515708516,434,24,0.0,15,381230363669454,11,33.1,-255.05799865722656,0.027400000020861626,0,0.0,0.0,,,,,0,,5,,
NMEA,$GPGSV,3,1,11,03,18,271,39,04,23,319,36,08,06,202,21,16,58,284,32*7C,1606989226496
NMEA,$GPGSV,3,2,11,22,17,248,38,27,36,185,26,18,03,095,,26,56,358,*7C,1606989226497
NMEA,$GPGSV,3,3,11,29,11,039,,31,44,056,,32,28,149,*4E,1606989226497
NMEA,$GLGSV,3,1,10,74,37,338,21,75,00,000,28,70,06,172,18,65,14,324,23*6C,1606989226498
NMEA,$GLGSV,3,2,10,71,45,209,27,72,46,292,29,73,24,036,,84,30,115,*64,1606989226499
NMEA,$GLGSV,3,3,10,83,18,052,,85,06,168,*65,1606989226500
NMEA,$GAGSV,2,1,07,02,03,254,,03,23,314,,05,66,261,,09,40,168,*68,1606989226501
NMEA,$GAGSV,2,2,07,24,47,011,,25,42,286,,33,02,049,*58,1606989226502
NMEA,$PQGSV,1,1,03,193,37,170,29,194,60,032,,195,48,129,,0,5*6B,1606989226503
NMEA,$PQGSV,4,1,16,05,16,255,32,07,71,306,25,10,52,261,31,12,07,188,19,0,4*67,1606989226503
NMEA,$PQGSV,4,2,16,14,26,293,34,21,32,199,34,24,21,293,33,01,52,129,,0,4*61,1606989226504
NMEA,$PQGSV,4,3,16,02,40,240,,03,58,202,,04,37,115,,06,80,127,,0,4*6A,1606989226505
NMEA,$PQGSV,4,4,16,09,68,329,,16,83,122,,26,48,347,,29,18,052,,0,4*63,1606989226506
NMEA,$GNGSA,A,3,03,04,16,22,27,,,,,,,,1.9,1.7,0.9,1*33,1606989226509
NMEA,$GNGSA,A,2,65,71,72,,,,,,,,,,1.9,1.7,0.9,2*34,1606989226510
NMEA,$PQGSA,A,2,14,24,,,,,,,,,,,1.9,1.7,0.9,4*39,1606989226511
NMEA,$GNVTG,,T,,M,0.0,N,0.0,K,A*3D,1606989226511
NMEA,$GNRMC,095347.00,A,2255.528354,N,12017.682151,E,0.0,,031220,2.8,W,A*12,1606989226512
NMEA,$GNGGA,095347.00,2255.528354,N,12017.682151,E,1,10,1.7,25.1,M,17.5,M,,*4D,1606989226513
Raw,18731790,18735659000000,,,-1291005709788244736,0.0,80.67025191849098,3.0960761439421027,15.547571238852623,434,10,0.0,207,46427376704880,35,22.3,28.824350357055664,0.950499951839447,0,0.0,0.0,,,,,0,,3,,
Raw,18731793,18735659000000,,,-1291005709788244736,0.0,80.67025191849098,3.0960761439421027,15.547571238852623,434,11,0.0,207,46427374121861,17,28.1,-133.5375518798828,0.25429999828338623,0,0.0,0.0,,,,,0,,3,,
Raw,18731795,18735659000000,,,-1291005709788244736,0.0,80.67025191849098,3.0960761439421027,15.547571238852623,434,6,0.0,207,46427367573770,764,17.4,804.478271484375,3.567000150680542,0,0.0,0.0,,,,,0,,3,,
Raw,18731798,18735659000000,,,-1291005709788244736,0.0,80.67025191849098,3.0960761439421027,15.547571238852623,434,1,0.0,207,46427370138209,24,25.2,-569.6328735351562,0.5967999696731567,0,0.0,0.0,,,,,0,,3,,
Raw,18731800,18735659000000,,,-1291005709788244736,0.0,80.67025191849098,3.0960761439421027,15.547571238852623,434,7,0.0,207,46427378712593,21,26.5,561.5440673828125,0.33820000290870667,0,0.0,0.0,,,,,0,,3,,
Raw,18731801,18735659000000,,,-1291005709788244736,0.0,80.67025191849098,3.0960761439421027,15.547571238852623,434,8,0.0,207,46427378875536,17,28.8,-113.0930404663086,0.26030001044273376,0,0.0,0.0,,,,,0,,3,,
Raw,18731801,18735659000000,,,-1291005709788244736,0.0,80.67025191849098,3.0960761439421027,15.547571238852623,434,3,0.0,15,381245367661046,6,38.7,159.87156677246094,0.03060000203549862,0,0.0,0.0,,,,,0,,1,,
Raw,18731802,18735659000000,,,-1291005709788244736,0.0,80.67025191849098,3.0960761439421027,15.547571238852623,434,4,0.0,15,381245369397779,10,34.4,-596.46533203125,0.035600002855062485,0,0.0,0.0,,,,,0,,1,,
Raw,18731802,18735659000000,,,-1291005709788244736,0.0,80.67025191849098,3.0960761439421027,15.547571238852623,434,16,0.0,15,381245378367240,11,33.2,-64.81941223144531,0.04990000277757645,0,0.0,0.0,,,,,0,,1,,
Raw,18731803,18735659000000,,,-1291005709788244736,0.0,80.67025191849098,3.0960761439421027,15.547571238852623,434,22,0.0,15,381245366633910,7,37.5,257.4609069824219,0.029600001871585846,0,0.0,0.0,,,,,0,,1,,
Raw,18731803,18735659000000,,,-1291005709788244736,0.0,80.67025191849098,3.0960761439421027,15.547571238852623,434,27,0.0,15,381245373570120,21,26.8,-635.7822265625,0.1307000070810318,0,0.0,0.0,,,,,0,,1,,
Raw,18731804,18735659000000,,,-1291005709788244736,0.0,80.67025191849098,3.0960761439421027,15.547571238852623,434,2,0.0,783,381231322223857,14,30.4,3.735168218612671,0.45649999380111694,0,0.0,0.0,,,,,0,,5,,
Raw,18731805,18735659000000,,,-1291005709788244736,0.0,80.67025191849098,3.0960761439421027,15.547571238852623,434,5,0.0,783,381231313995846,13,31.5,6.0588459968566895,0.33500000834465027,0,0.0,0.0,,,,,0,,5,,
Raw,18731805,18735659000000,,,-1291005709788244736,0.0,80.67025191849098,3.0960761439421027,15.547571238852623,434,7,0.0,15,381231325653263,24,25.0,64.39644622802734,0.38929998874664307,0,0.0,0.0,,,,,0,,5,,
Raw,18731806,18735659000000,,,-1291005709788244736,0.0,80.67025191849098,3.0960761439421027,15.547571238852623,434,10,0.0,15,381231322972328,567,31.3,23.716876983642578,71.00849914550781,0,0.0,0.0,,,,,0,,5,,
Raw,18731806,18735659000000,,,-1291005709788244736,0.0,80.67025191849098,3.0960761439421027,15.547571238852623,434,12,0.0,15,381231360292509,93,15.6,-588.4762573242188,1.4214999675750732,0,0.0,0.0,,,,,0,,5,,
Raw,18731807,18735659000000,,,-1291005709788244736,0.0,80.67025191849098,3.0960761439421027,15.547571238852623,434,14,0.0,15,381231365333473,10,34.5,-127.12716674804688,0.029600001871585846,0,0.0,0.0,,,,,0,,5,,
Raw,18731807,18735659000000,,,-1291005709788244736,0.0,80.67025191849098,3.0960761439421027,15.547571238852623,434,21,0.0,15,381231366692358,540,33.7,511.09393310546875,70.8584976196289,0,0.0,0.0,,,,,0,,5,,
Raw,18731808,18735659000000,,,-1291005709788244736,0.0,80.67025191849098,3.0960761439421027,15.547571238852623,434,24,0.0,15,381231363670287,10,34.0,-255.33645629882812,0.026600001379847527,0,0.0,0.0,,,,,0,,5,,
Fix,gps,22.925473,120.294703,42.577148,0.000000,6.432000,1606989228000
NMEA,$GPGSV,3,1,11,03,18,271,39,04,23,319,34,16,58,284,33,22,17,248,38*71,1606989227494
NMEA,$GPGSV,3,2,11,27,36,185,27,08,06,202,,18,03,095,,26,56,358,*70,1606989227495
NMEA,$GPGSV,3,3,11,29,11,039,,31,44,056,,32,28,149,*4E,1606989227502
NMEA,$GLGSV,3,1,10,74,37,338,22,75,00,000,28,70,06,172,17,65,14,324,25*66,1606989227502
NMEA,$GLGSV,3,2,10,71,45,209,27,72,46,292,29,73,24,036,,84,30,115,*64,1606989227504
NMEA,$GLGSV,3,3,10,83,18,052,,85,06,168,*65,1606989227505
NMEA,$GAGSV,2,1,07,02,03,254,,03,23,314,,05,66,261,,09,40,168,*68,1606989227507
NMEA,$GAGSV,2,2,07,24,47,011,,25,42,286,,33,02,049,*58,1606989227507
NMEA,$PQGSV,1,1,03,193,37,170,29,194,60,032,,195,48,129,,0,5*6B,1606989227508
NMEA,$PQGSV,4,1,16,02,40,240,30,05,16,255,32,07,71,306,25,10,52,261,31,0,4*69,1606989227509
NMEA,$PQGSV,4,2,16,12,07,188,16,14,26,293,35,21,32,199,34,24,21,293,34,0,4*69,1606989227510
NMEA,$PQGSV,4,3,16,01,52,129,,03,58,202,,04,37,115,,06,80,127,,0,4*66,1606989227511
NMEA,$PQGSV,4,4,16,09,68,329,,16,83,122,,26,48,347,,29,18,052,,0,4*63,1606989227512
NMEA,$GNGSA,A,3,03,04,16,22,27,,,,,,,,1.9,1.7,0.9,1*33,1606989227514
NMEA,$GNGSA,A,2,65,71,72,,,,,,,,,,1.9,1.7,0.9,2*34,1606989227515
NMEA,$PQGSA,A,2,14,24,,,,,,,,,,,1.9,1.7,0.9,4*39,1606989227516
NMEA,$GNVTG,,T,,M,0.0,N,0.0,K,A*3D,1606989227517
NMEA,$GNRMC,095348.00,A,2255.528355,N,12017.682153,E,0.0,,031220,2.8,W,A*1E,1606989227522
NMEA,$GNGGA,095348.00,2255.528355,N,12017.682153,E,1,10,1.7,25.1,M,17.5,M,,*41,1606989227522
NMEA,$GPGSV,3,1,11,03,18,271,38,04,23,319,35,16,58,284,32,22,17,248,38*70,1606989228493
Raw,18732603,18736659000000,,,-1291005709788244736,0.0,83.35929305758327,1.9133113038307676,15.506326490963184,434,10,0.0,207,46428376704678,35,22.3,26.788917541503906,0.950499951839447,0,0.0,0.0,,,,,0,,3,,
Raw,18732604,18736659000000,,,-1291005709788244736,0.0,83.35929305758327,1.9133113038307676,15.506326490963184,434,11,0.0,207,46428374122310,17,28.9,-134.90985107421875,0.25429999828338623,0,0.0,0.0,,,,,0,,3,,
Raw,18732606,18736659000000,,,-1291005709788244736,0.0,83.35929305758327,1.9133113038307676,15.506326490963184,434,6,0.0,207,46428367571100,889,16.3,804.487548828125,4.4070000648498535,0,0.0,0.0,,,,,0,,3,,
Raw,18732607,18736659000000,,,-1291005709788244736,0.0,83.35929305758327,1.9133113038307676,15.506326490963184,434,1,0.0,207,46428370140055,21,26.9,-571.2050170898438,0.326200008392334,0,0.0,0.0,,,,,0,,3,,
