# 
# Header Description:
# 
# Version: v2.0.0.1 Platform: 8.0.0 Manufacturer: Sony Model: G8142
# 
# Raw,ElapsedRealtimeMillis,TimeNanos,LeapSecond,TimeUncertaintyNanos,FullBiasNanos,BiasNanos,BiasUncertaintyNanos,DriftNanosPerSecond,DriftUncertaintyNanosPerSecond,HardwareClockDiscontinuityCount,Svid,TimeOffsetNanos,State,ReceivedSvTimeNanos,ReceivedSvTimeUncertaintyNanos,Cn0DbHz,PseudorangeRateMetersPerSecond,PseudorangeRateUncertaintyMetersPerSecond,AccumulatedDeltaRangeState,AccumulatedDeltaRangeMeters,AccumulatedDeltaRangeUncertaintyMeters,CarrierFrequencyHz,CarrierCycles,CarrierPhase,CarrierPhaseUncertainty,MultipathIndicator,SnrInDb,ConstellationType,AgcDb,CarrierFrequencyHz
# 
# Fix,Provider,Latitude,Longitude,Altitude,Speed,Accuracy,(UTC)TimeInMs
# 
# Nav,Svid,Type,Status,MessageId,Sub-messageId,Data(Bytes)
# 
Raw,19100613,19104755000000,,,-1291005709676155648,0.0,62.237828387878835,2.1904397131244537,11.270565957034266,649,10,0.0,207,46796360581447,46,20.0,29.490318298339844,1.0464999675750732,0,0.0,0.0,,,,,0,,3,,
Raw,19100613,19104755000000,,,-1291005709676155648,0.0,62.237828387878835,2.1904397131244537,11.270565957034266,649,11,0.0,207,46796358196169,24,25.6,-130.77626037597656,0.6087999939918518,0,0.0,0.0,,,,,0,,3,,
Raw,19100613,19104755000000,,,-1291005709676155648,0.0,62.237828387878835,2.1904397131244537,11.270565957034266,649,6,0.0,207,46796350500079,53,19.9,795.7548217773438,1.131500005722046,0,0.0,0.0,,,,,0,,3,,
Raw,19100614,19104755000000,,,-1291005709676155648,0.0,62.237828387878835,2.1904397131244537,11.270565957034266,649,9,0.0,207,46796356862554,1918,11.9,268.448486328125,9.750500679016113,0,0.0,0.0,,,,,0,,3,,
Raw,19100614,19104755000000,,,-1291005709676155648,0.0,62.237828387878835,2.1904397131244537,11.270565957034266,649,1,0.0,207,46796354727311,110,14.4,-531.1685180664062,2.327500104904175,0,0.0,0.0,,,,,0,,3,,
Raw,19100614,19104755000000,,,-1291005709676155648,0.0,62.237828387878835,2.1904397131244537,11.270565957034266,649,21,0.0,207,46796352039281,1305,14.9,-728.5185546875,9.374500274658203,0,0.0,0.0,,,,,0,,3,,
Raw,19100614,19104755000000,,,-1291005709676155648,0.0,62.237828387878835,2.1904397131244537,11.270565957034266,649,7,0.0,207,46796361909715,8,36.8,598.6124267578125,0.22270001471042633,0,0.0,0.0,,,,,0,,3,,
Raw,19100614,19104755000000,,,-1291005709676155648,0.0,62.237828387878835,2.1904397131244537,11.270565957034266,649,8,0.0,207,46796362889622,19,27.1,-53.316650390625,0.2443000078201294,0,0.0,0.0,,,,,0,,3,,
Raw,19100615,19104755000000,,,-1291005709676155648,0.0,62.237828387878835,2.1904397131244537,11.270565957034266,649,3,0.0,15,381614351358768,17,28.5,187.61215209960938,0.049800001084804535,0,0.0,0.0,,,,,0,,1,,
Raw,19100615,19104755000000,,,-1291005709676155648,0.0,62.237828387878835,2.1904397131244537,11.270565957034266,649,4,0.0,15,381614354032649,11,33.6,-578.2279663085938,0.04390000179409981,0,0.0,0.0,,,,,0,,1,,
Raw,19100615,19104755000000,,,-1291005709676155648,0.0,62.237828387878835,2.1904397131244537,11.270565957034266,649,8,0.0,15,381614348754134,10,34.7,-723.6829223632812,0.0340999998152256,0,0.0,0.0,,,,,0,,1,,
Raw,19100615,19104755000000,,,-1291005709676155648,0.0,62.237828387878835,2.1904397131244537,11.270565957034266,649,16,0.0,15,381614362339403,12,32.2,-33.52973937988281,0.026900000870227814,0,0.0,0.0,,,,,0,,1,,
Raw,19100616,19104755000000,,,-1291005709676155648,0.0,62.237828387878835,2.1904397131244537,11.270565957034266,649,22,0.0,15,381614350220816,12,32.6,269.9241027832031,0.03890000283718109,0,0.0,0.0,,,,,0,,1,,
Raw,19100616,19104755000000,,,-1291005709676155648,0.0,62.237828387878835,2.1904397131244537,11.270565957034266,649,26,0.0,15,381614361127351,35,22.7,278.3235168457031,0.7279999852180481,0,0.0,0.0,,,,,0,,1,,
Raw,19100616,19104755000000,,,-1291005709676155648,0.0,62.237828387878835,2.1904397131244537,11.270565957034266,649,27,0.0,15,381614358250750,11,33.3,-613.102294921875,0.04990000277757645,0,0.0,0.0,,,,,0,,1,,
Raw,19100616,19104755000000,,,-1291005709676155648,0.0,62.237828387878835,2.1904397131244537,11.270565957034266,649,31,0.0,15,381614358121573,850,18.1,146.53564453125,7.403500080108643,0,0.0,0.0,,,,,0,,1,,
Raw,19100616,19104755000000,,,-1291005709676155648,0.0,62.237828387878835,2.1904397131244537,11.270565957034266,649,2,0.0,783,381600306131989,17,28.7,2.995816230773926,0.44350001215934753,0,0.0,0.0,,,,,0,,5,,
Raw,19100617,19104755000000,,,-1291005709676155648,0.0,62.237828387878835,2.1904397131244537,11.270565957034266,649,3,0.0,783,381600309418582,12,32.0,-1.2386547327041626,0.33500000834465027,0,0.0,0.0,,,,,0,,5,,
Raw,19100617,19104755000000,,,-1291005709676155648,0.0,62.237828387878835,2.1904397131244537,11.270565957034266,649,5,0.0,783,381600297901025,38,23.5,8.497747421264648,2.115000009536743,0,0.0,0.0,,,,,0,,5,,
Raw,19100617,19104755000000,,,-1291005709676155648,0.0,62.237828387878835,2.1904397131244537,11.270565957034266,649,6,0.0,15,381600311937432,96,15.1,0.9601974487304688,1.9329999685287476,0,0.0,0.0,,,,,0,,5,,
Raw,19100617,19104755000000,,,-1291005709676155648,0.0,62.237828387878835,2.1904397131244537,11.270565957034266,649,7,0.0,15,381600309484433,12,32.7,66.64165496826172,0.03739999979734421,0,0.0,0.0,,,,,0,,5,,
Raw,19100617,19104755000000,,,-1291005709676155648,0.0,62.237828387878835,2.1904397131244537,11.270565957034266,649,9,0.0,15,381600311506942,19,27.7,-101.40375518798828,0.05780000239610672,0,0.0,0.0,,,,,0,,5,,
Raw,19100618,19104755000000,,,-1291005709676155648,0.0,62.237828387878835,2.1904397131244537,11.270565957034266,649,10,0.0,15,381600306850979,31,23.2,29.79492950439453,0.6255000233650208,0,0.0,0.0,,,,,0,,5,,
Raw,19100618,19104755000000,,,-1291005709676155648,0.0,62.237828387878835,2.1904397131244537,11.270565957034266,649,12,0.0,15,381600344933905,14,30.8,-597.2734375,0.03180000185966492,0,0.0,0.0,,,,,0,,5,,
Raw,19100618,19104755000000,,,-1291005709676155648,0.0,62.237828387878835,2.1904397131244537,11.270565957034266,649,14,0.0,15,381600349380297,49,20.4,-92.87030029296875,1.5500000715255737,0,0.0,0.0,,,,,0,,5,,
Raw,19100618,19104755000000,,,-1291005709676155648,0.0,62.237828387878835,2.1904397131244537,11.270565957034266,649,16,0.0,15,381600311299427,61,18.9,11.676000595092773,0.8629999756813049,0,0.0,0.0,,,,,0,,5,,
Raw,19100619,19104755000000,,,-1291005709676155648,0.0,62.237828387878835,2.1904397131244537,11.270565957034266,649,21,0.0,15,381600349968606,6,38.0,520.4712524414062,0.03360000252723694,0,0.0,0.0,,,,,0,,5,,
Raw,19100619,19104755000000,,,-1291005709676155648,0.0,62.237828387878835,2.1904397131244537,11.270565957034266,649,24,0.0,15,381600347896717,10,34.2,-256.076416015625,0.032600000500679016,0,0.0,0.0,,,,,0,,5,,
Raw,19100619,19104755000000,,,-1291005709676155648,0.0,62.237828387878835,2.1904397131244537,11.270565957034266,649,26,0.0,15,381600356159643,35,22.2,-49.747833251953125,0.6904999613761902,0,0.0,0.0,,,,,0,,5,,
Raw,19100619,19104755000000,,,-1291005709676155648,0.0,62.237828387878835,2.1904397131244537,11.270565957034266,649,25,0.0,7183,381614347536146,14,30.0,-67.76556396484375,0.04830000177025795,0,0.0,0.0,,,,,0,,6,,
Fix,gps,22.925498,120.294698,50.547302,0.000000,4.288000,1606989597000
NMEA,$GPGSV,3,1,11,03,17,268,29,04,26,319,34,08,08,202,35,16,59,291,32*73,1606989596483
NMEA,$GPGSV,3,2,11,22,16,246,33,26,54,002,23,27,39,185,33,31,43,060,18*70,1606989596484
NMEA,$GPGSV,3,3,11,18,04,092,,29,09,037,,32,25,150,*4B,1606989596484
NMEA,$GLGSV,3,1,10,74,36,343,20,75,00,000,26,70,04,172,20,73,23,039,12*69,1606989596484
NMEA,$GLGSV,3,2,10,65,16,323,14,85,09,167,15,71,42,206,37,72,47,286,27*69,1606989596485
NMEA,$GLGSV,3,3,10,84,32,112,,83,17,049,*6B,1606989596486
NMEA,$GAGSV,2,1,07,25,42,291,30,02,04,255,,03,25,313,,05,66,255,*62,1606989596486
NMEA,$GAGSV,2,2,07,09,37,168,,24,47,014,,33,01,047,*5F,1606989596486
NMEA,$PQGSV,1,1,03,193,35,171,32,194,60,032,,195,49,127,,0,5*6D,1606989596487
NMEA,$PQGSV,4,1,16,02,40,240,29,03,58,202,32,05,16,255,24,06,79,136,15,0,4*63,1606989596487
NMEA,$PQGSV,4,2,16,07,69,309,33,09,68,326,28,10,52,262,23,12,09,187,31,0,4*65,1606989596487
NMEA,$PQGSV,4,3,16,14,27,291,20,16,82,136,19,21,30,198,38,24,23,296,34,0,4*64,1606989596489
NMEA,$PQGSV,4,4,16,26,49,351,22,01,52,129,,04,37,115,,08,00,000,,0,4*63,1606989596489
NMEA,$GNGSA,A,3,03,04,16,22,26,27,,,,,,,1.6,1.3,0.9,1*3C,1606989596493
NMEA,$GNGSA,A,2,65,71,72,,,,,,,,,,1.6,1.3,0.9,2*3F,1606989596493
NMEA,$GNGSA,A,2,25,,,,,,,,,,,,1.6,1.3,0.9,3*39,1606989596494
NMEA,$PQGSA,A,2,14,24,,,,,,,,,,,1.6,1.3,0.9,4*32,1606989596503
NMEA,$GNVTG,,T,,M,0.0,N,0.0,K,A*3D,1606989596503
NMEA,$GNRMC,095957.00,A,2255.529891,N,12017.681854,E,0.0,,031220,2.8,W,A*15,1606989596504
NMEA,$GNGGA,095957.00,2255.529891,N,12017.681854,E,1,12,1.3,33.1,M,17.5,M,,*4B,1606989596504
Fix,gps,22.925498,120.294699,50.537292,0.000000,4.288000,1606989598000
Raw,19101580,19105755000000,,,-1291005709676155648,0.0,64.43469465011731,1.9493183457003878,15.728263348469836,649,10,0.0,207,46797360580921,35,22.0,28.486675262451172,0.9264999628067017,0,0.0,0.0,,,,,0,,3,,
Raw,19101581,19105755000000,,,-1291005709676155648,0.0,64.43469465011731,1.9493183457003878,15.728263348469836,649,11,0.0,207,46797358196582,35,22.3,-130.52284240722656,0.953499972820282,0,0.0,0.0,,,,,0,,3,,
Raw,19101581,19105755000000,,,-1291005709676155648,0.0,64.43469465011731,1.9493183457003878,15.728263348469836,649,6,0.0,207,46797350497215,40,21.4,795.3800048828125,1.0015000104904175,0,0.0,0.0,,,,,0,,3,,
Raw,19101581,19105755000000,,,-1291005709676155648,0.0,64.43469465011731,1.9493183457003878,15.728263348469836,649,9,0.0,207,46797356861676,1949,11.9,268.4859619140625,10.500500679016113,0,0.0,0.0,,,,,0,,3,,
Raw,19101581,19105755000000,,,-1291005709676155648,0.0,64.43469465011731,1.9493183457003878,15.728263348469836,649,1,0.0,207,46797354728993,93,15.8,-530.7008666992188,1.477500081062317,0,0.0,0.0,,,,,0,,3,,
Raw,19101581,19105755000000,,,-1291005709676155648,0.0,64.43469465011731,1.9493183457003878,15.728263348469836,649,21,0.0,207,46797352041700,1335,14.1,-728.5372314453125,10.124500274658203,0,0.0,0.0,,,,,0,,3,,
Raw,19101581,19105755000000,,,-1291005709676155648,0.0,64.43469465011731,1.9493183457003878,15.728263348469836,649,7,0.0,207,46797361907712,9,35.1,598.1657104492188,0.22310000658035278,0,0.0,0.0,,,,,0,,3,,
Raw,19101582,19105755000000,,,-1291005709676155648,0.0,64.43469465011731,1.9493183457003878,15.728263348469836,649,8,0.0,207,46797362889811,24,25.8,-53.60756301879883,0.5848000049591064,0,0.0,0.0,,,,,0,,3,,
Raw,19101582,19105755000000,,,-1291005709676155648,0.0,64.43469465011731,1.9493183457003878,15.728263348469836,649,3,0.0,15,381615351358102,21,26.8,187.1016082763672,0.12770000100135803,0,0.0,0.0,,,,,0,,1,,
Raw,19101582,19105755000000,,,-1291005709676155648,0.0,64.43469465011731,1.9493183457003878,15.728263348469836,649,4,0.0,15,381615354034597,12,32.1,-578.7484741210938,0.04490000009536743,0,0.0,0.0,,,,,0,,1,,
Raw,19101582,19105755000000,,,-1291005709676155648,0.0,64.43469465011731,1.9493183457003878,15.728263348469836,649,8,0.0,15,381615348756549,11,33.4,-724.2449951171875,0.03490000218153,0,0.0,0.0,,,,,0,,1,,
Raw,19101582,19105755000000,,,-1291005709676155648,0.0,64.43469465011731,1.9493183457003878,15.728263348469836,649,16,0.0,15,381615362339515,12,32.6,-33.990478515625,0.026900000870227814,0,0.0,0.0,,,,,0,,1,,
Raw,19101582,19105755000000,,,-1291005709676155648,0.0,64.43469465011731,1.9493183457003878,15.728263348469836,649,22,0.0,15,381615350219938,11,33.0,269.376220703125,0.03790000081062317,0,0.0,0.0,,,,,0,,1,,
Raw,19101583,19105755000000,,,-1291005709676155648,0.0,64.43469465011731,1.9493183457003878,15.728263348469836,649,26,0.0,15,381615361126377,27,24.1,277.5052795410156,0.6679999828338623,0,0.0,0.0,,,,,0,,1,,
Raw,19101583,19105755000000,,,-1291005709676155648,0.0,64.43469465011731,1.9493183457003878,15.728263348469836,649,27,0.0,15,381615358252812,13,31.6,-613.6243286132812,0.05220000073313713,0,0.0,0.0,,,,,0,,1,,
Raw,19101583,19105755000000,,,-1291005709676155648,0.0,64.43469465011731,1.9493183457003878,15.728263348469836,649,31,0.0,15,381615358121080,202,18.1,146.49758911132812,8.5285005569458,0,0.0,0.0,,,,,0,,1,,
Raw,19101583,19105755000000,,,-1291005709676155648,0.0,64.43469465011731,1.9493183457003878,15.728263348469836,649,2,0.0,783,381601306131981,16,29.3,5.319494247436523,0.41350001096725464,0,0.0,0.0,,,,,0,,5,,
Raw,19101583,19105755000000,,,-1291005709676155648,0.0,64.43469465011731,1.9493183457003878,15.728263348469836,649,3,0.0,783,381601309418597,13,31.4,-0.9217895865440369,0.36500000953674316,0,0.0,0.0,,,,,0,,5,,
Raw,19101583,19105755000000,,,-1291005709676155648,0.0,64.43469465011731,1.9493183457003878,15.728263348469836,649,5,0.0,783,381601297900996,55,23.5,8.497747421264648,3.6150002479553223,0,0.0,0.0,,,,,0,,5,,
Raw,19101584,19105755000000,,,-1291005709676155648,0.0,64.43469465011731,1.9493183457003878,15.728263348469836,649,6,0.0,15,381601311937428,110,15.1,0.9601974487304688,3.433000087738037,0,0.0,0.0,,,,,0,,5,,
Raw,19101584,19105755000000,,,-1291005709676155648,0.0,64.43469465011731,1.9493183457003878,15.728263348469836,649,7,0.0,15,381601309484214,12,32.6,66.08602905273438,0.03739999979734421,0,0.0,0.0,,,,,0,,5,,
Raw,19101584,19105755000000,,,-1291005709676155648,0.0,64.43469465011731,1.9493183457003878,15.728263348469836,649,9,0.0,15,381601311507280,17,28.2,-101.94261932373047,0.049800001084804535,0,0.0,0.0,,,,,0,,5,,
Raw,19101584,19105755000000,,,-1291005709676155648,0.0,64.43469465011731,1.9493183457003878,15.728263348469836,649,10,0.0,15,381601306850904,27,24.1,28.978761672973633,0.5855000019073486,0,0.0,0.0,,,,,0,,5,,
Raw,19101584,19105755000000,,,-1291005709676155648,0.0,64.43469465011731,1.9493183457003878,15.728263348469836,649,12,0.0,15,381601344935903,14,30.1,-597.84619140625,0.03180000185966492,0,0.0,0.0,,,,,0,,5,,
Raw,19101584,19105755000000,,,-1291005709676155648,0.0,64.43469465011731,1.9493183457003878,15.728263348469836,649,14,0.0,15,381601349380607,61,20.4,-92.87030029296875,3.0500001907348633,0,0.0,0.0,,,,,0,,5,,
Raw,19101585,19105755000000,,,-1291005709676155648,0.0,64.43469465011731,1.9493183457003878,15.728263348469836,649,16,0.0,15,381601311299350,46,20.6,10.89824104309082,0.8029999732971191,0,0.0,0.0,,,,,0,,5,,
Raw,19101585,19105755000000,,,-1291005709676155648,0.0,64.43469465011731,1.9493183457003878,15.728263348469836,649,21,0.0,15,381601349966866,7,37.6,519.927734375,0.0340999998152256,0,0.0,0.0,,,,,0,,5,,
Raw,19101585,19105755000000,,,-1291005709676155648,0.0,64.43469465011731,1.9493183457003878,15.728263348469836,649,24,0.0,15,381601347897573,12,32.2,-256.6499328613281,0.03440000116825104,0,0.0,0.0,,,,,0,,5,,
Raw,19101585,19105755000000,,,-1291005709676155648,0.0,64.43469465011731,1.9493183457003878,15.728263348469836,649,26,0.0,15,381601356159835,40,21.7,-50.333553314208984,0.750499963760376,0,0.0,0.0,,,,,0,,5,,
NMEA,$GPGSV,3,1,11,03,17,268,27,04,26,319,32,08,08,202,33,16,59,291,33*7C,1606989597484
NMEA,$GPGSV,3,2,11,22,16,246,33,26,54,002,24,27,39,185,32,31,43,060,18*76,1606989597484
NMEA,$GPGSV,3,3,11,18,04,092,,29,09,037,,32,25,150,*4B,1606989597484
NMEA,$GLGSV,3,1,10,74,36,343,22,75,00,000,22,70,04,172,21,73,23,039,12*6E,1606989597484
NMEA,$GLGSV,3,2,10,65,16,323,16,85,09,167,14,71,42,206,35,72,47,286,26*69,1606989597486
NMEA,$GLGSV,3,3,10,84,32,112,,83,17,049,*6B,1606989597487
NMEA,$GAGSV,2,1,07,25,42,291,29,02,04,255,,03,25,313,,05,66,255,*6A,1606989597489
NMEA,$GAGSV,2,2,07,09,37,168,,24,47,014,,33,01,047,*5F,1606989597490
NMEA,$PQGSV,1,1,03,193,35,171,30,194,60,032,,195,49,127,,0,5*6F,1606989597491
NMEA,$PQGSV,4,1,16,02,40,240,29,03,58,202,31,05,16,255,24,06,79,136,15,0,4*60,1606989597492
NMEA,$PQGSV,4,2,16,07,69,309,33,09,68,326,28,10,52,262,24,12,09,187,30,0,4*63,1606989597492
NMEA,$PQGSV,4,3,16,14,27,291,20,16,82,136,21,21,30,198,38,24,23,296,32,0,4*69,1606989597492
NMEA,$PQGSV,4,4,16,26,49,351,22,01,52,129,,04,37,115,,08,00,000,,0,4*63,1606989597492
NMEA,$GNGSA,A,3,03,04,16,22,26,27,,,,,,,1.6,1.3,0.9,1*3C,1606989597493
NMEA,$GNGSA,A,2,65,71,72,,,,,,,,,,1.6,1.3,0.9,2*3F,1606989597494
NMEA,$GNGSA,A,2,25,,,,,,,,,,,,1.6,1.3,0.9,3*39,1606989597494
NMEA,$PQGSA,A,2,14,24,,,,,,,,,,,1.6,1.3,0.9,4*32,1606989597494
NMEA,$GNVTG,,T,,M,0.0,N,0.0,K,A*3D,1606989597494
NMEA,$GNRMC,095958.00,A,2255.529851,N,12017.681911,E,0.0,,031220,2.8,W,A*16,1606989597494
NMEA,$GNGGA,095958.00,2255.529851,N,12017.681911,E,1,12,1.3,33.1,M,17.5,M,,*48,1606989597494
Fix,gps,22.925497,120.294699,50.528564,0.000000,4.288000,1606989599000
Raw,19102582,19106755000000,,,-1291005709676155648,0.0,56.833585404092446,-0.12956342585167732,14.208296330870906,649,10,0.0,207,46798360580816,24,25.6,27.884199142456055,0.5817999839782715,0,0.0,0.0,,,,,0,,3,,
Raw,19102582,19106755000000,,,-1291005709676155648,0.0,56.833585404092446,-0.12956342585167732,14.208296330870906,649,11,0.0,207,46798358197058,19,27.3,-131.74343872070312,0.26829999685287476,0,0.0,0.0,,,,,0,,3,,
Raw,19102582,19106755000000,,,-1291005709676155648,0.0,56.833585404092446,-0.12956342585167732,14.208296330870906,649,6,0.0,207,46798350494791,53,19.4,795.398681640625,1.131500005722046,0,0.0,0.0,,,,,0,,3,,
Raw,19102582,19106755000000,,,-1291005709676155648,0.0,56.833585404092446,-0.12956342585167732,14.208296330870906,649,9,0.0,207,46798356860766,410,11.9,268.448486328125,11.625500679016113,0,0.0,0.0,,,,,0,,3,,
Raw,19102582,19106755000000,,,-1291005709676155648,0.0,56.833585404092446,-0.12956342585167732,14.208296330870906,649,1,0.0,207,46798354730767,61,18.2,-530.0647583007812,1.21750009059906,0,0.0,0.0,,,,,0,,3,,
Raw,19102582,19106755000000,,,-1291005709676155648,0.0,56.833585404092446,-0.12956342585167732,14.208296330870906,649,21,0.0,207,46798352044118,349,14.1,-728.5745849609375,11.249500274658203,0,0.0,0.0,,,,,0,,3,,
Raw,19102583,19106755000000,,,-1291005709676155648,0.0,56.833585404092446,-0.12956342585167732,14.208296330870906,649,7,0.0,207,46798361905752,7,37.8,597.8814697265625,0.22210000455379486,0,0.0,0.0,,,,,0,,3,,
Raw,19102583,19106755000000,,,-1291005709676155648,0.0,56.833585404092446,-0.12956342585167732,14.208296330870906,649,8,0.0,207,46798362890086,21,26.3,-53.914207458496094,0.3141999840736389,0,0.0,0.0,,,,,0,,3,,
Raw,19102583,19106755000000,,,-1291005709676155648,0.0,56.833585404092446,-0.12956342585167732,14.208296330870906,649,3,0.0,15,381616351357497,17,28.7,186.8123779296875,0.049800001084804535,0,0.0,0.0,,,,,0,,1,,
Raw,19102583,19106755000000,,,-1291005709676155648,0.0,56.833585404092446,-0.12956342585167732,14.208296330870906,649,4,0.0,15,381616354036520,10,34.2,-579.0741577148438,0.04310000315308571,0,0.0,0.0,,,,,0,,1,,
Raw,19102583,19106755000000,,,-1291005709676155648,0.0,56.833585404092446,-0.12956342585167732,14.208296330870906,649,8,0.0,15,381616348758965,12,32.2,-724.6153564453125,0.03590000048279762,0,0.0,0.0,,,,,0,,1,,
Raw,19102583,19106755000000,,,-1291005709676155648,0.0,56.833585404092446,-0.12956342585167732,14.208296330870906,649,16,0.0,15,381616362339618,11,33.8,-34.29526138305664,0.02590000070631504,0,0.0,0.0,,,,,0,,1,,
Raw,19102584,19106755000000,,,-1291005709676155648,0.0,56.833585404092446,-0.12956342585167732,14.208296330870906,649,22,0.0,15,381616350219046,10,34.9,269.0487060546875,0.03710000216960907,0,0.0,0.0,,,,,0,,1,,
Raw,19102584,19106755000000,,,-1291005709676155648,0.0,56.833585404092446,-0.12956342585167732,14.208296330870906,649,26,0.0,15,381616361125547,27,24.9,276.9153747558594,0.6180000305175781,0,0.0,0.0,,,,,0,,1,,
Raw,19102584,19106755000000,,,-1291005709676155648,0.0,56.833585404092446,-0.12956342585167732,14.208296330870906,649,27,0.0,15,381616358254855,10,34.9,-613.91796875,0.04910000041127205,0,0.0,0.0,,,,,0,,1,,
Raw,19102584,19106755000000,,,-1291005709676155648,0.0,56.833585404092446,-0.12956342585167732,14.208296330870906,649,2,0.0,783,381602306131959,13,31.9,-0.8833816051483154,0.3334999978542328,0,0.0,0.0,,,,,0,,5,,
Raw,19102584,19106755000000,,,-1291005709676155648,0.0,56.833585404092446,-0.12956342585167732,14.208296330870906,649,3,0.0,783,381602309418598,17,28.8,-3.101437568664551,0.4150000214576721,0,0.0,0.0,,,,,0,,5,,
Raw,19102584,19106755000000,,,-1291005709676155648,0.0,56.833585404092446,-0.12956342585167732,14.208296330870906,649,5,0.0,783,381602297900998,23,26.8,5.7611846923828125,1.2050000429153442,0,0.0,0.0,,,,,0,,5,,
Raw,19102585,19106755000000,,,-1291005709676155648,0.0,56.833585404092446,-0.12956342585167732,14.208296330870906,649,6,0.0,15,381602311937489,110,14.2,-0.31686514616012573,2.0230000019073486,0,0.0,0.0,,,,,0,,5,,
Raw,19102585,19106755000000,,,-1291005709676155648,0.0,56.833585404092446,-0.12956342585167732,14.208296330870906,649,7,0.0,15,381602309483994,11,33.5,65.7254409790039,0.036400001496076584,0,0.0,0.0,,,,,0,,5,,
Raw,19102585,19106755000000,,,-1291005709676155648,0.0,56.833585404092446,-0.12956342585167732,14.208296330870906,649,9,0.0,15,381602311507618,16,29.0,-102.30348205566406,0.04320000112056732,0,0.0,0.0,,,,,0,,5,,
Raw,19102585,19106755000000,,,-1291005709676155648,0.0,56.833585404092446,-0.12956342585167732,14.208296330870906,649,10,0.0,15,381602306850802,27,24.3,27.80731964111328,0.5855000019073486,0,0.0,0.0,,,,,0,,5,,
Raw,19102585,19106755000000,,,-1291005709676155648,0.0,56.833585404092446,-0.12956342585167732,14.208296330870906,649,12,0.0,15,381602344937893,16,29.1,-598.2581176757812,0.03270000219345093,0,0.0,0.0,,,,,0,,5,,
Raw,19102585,19106755000000,,,-1291005709676155648,0.0,56.833585404092446,-0.12956342585167732,14.208296330870906,649,14,0.0,15,381602349380891,56,19.4,-93.5616455078125,1.6100000143051147,0,0.0,0.0,,,,,0,,5,,
Raw,19102586,19106755000000,,,-1291005709676155648,0.0,56.833585404092446,-0.12956342585167732,14.208296330870906,649,16,0.0,15,381602311299305,53,19.3,11.378339767456055,0.8629999756813049,0,0.0,0.0,,,,,0,,5,,
Raw,19102586,19106755000000,,,-1291005709676155648,0.0,56.833585404092446,-0.12956342585167732,14.208296330870906,649,21,0.0,15,381602349965138,7,37.3,519.5792846679688,0.0340999998152256,0,0.0,0.0,,,,,0,,5,,
Raw,19102586,19106755000000,,,-1291005709676155648,0.0,56.833585404092446,-0.12956342585167732,14.208296330870906,649,24,0.0,15,381602347898424,11,33.7,-257.0207214355469,0.033400002866983414,0,0.0,0.0,,,,,0,,5,,
Raw,19102586,19106755000000,,,-1291005709676155648,0.0,56.833585404092446,-0.12956342585167732,14.208296330870906,649,26,0.0,15,381602356160024,40,21.8,-50.92887496948242,0.6904999613761902,0,0.0,0.0,,,,,0,,5,,
NMEA,$GPGSV,3,1,11,03,17,268,29,04,26,319,34,08,08,202,32,16,59,291,34*72,1606989598482
NMEA,$GPGSV,3,2,11,22,16,246,35,26,54,002,25,27,39,185,35,18,04,092,*7A,1606989598483
NMEA,$GPGSV,3,3,11,29,09,037,,31,43,060,,32,25,150,*4E,1606989598483
NMEA,$GLGSV,3,1,10,74,36,343,26,75,00,000,27,70,04,172,19,73,23,039,12*64,1606989598483
NMEA,$GLGSV,3,2,10,65,16,323,18,85,09,167,14,71,42,206,38,72,47,286,26*6A,1606989598484
NMEA,$GLGSV,3,3,10,84,32,112,,83,17,049,*6B,1606989598486
NMEA,$GAGSV,2,1,07,25,42,291,30,02,04,255,,03,25,313,,05,66,255,*62,1606989598487
NMEA,$GAGSV,2,2,07,09,37,168,,24,47,014,,33,01,047,*5F,1606989598487
NMEA,$PQGSV,1,1,03,193,35,171,34,194,60,032,,195,49,127,,0,5*6B,1606989598487
NMEA,$PQGSV,4,1,16,02,40,240,32,03,58,202,29,05,16,255,27,06,79,136,14,0,4*61,1606989598488
NMEA,$PQGSV,4,2,16,07,69,309,34,09,68,326,29,10,52,262,24,12,09,187,29,0,4*6D,1606989598488
NMEA,$PQGSV,4,3,16,14,27,291,19,16,82,136,19,21,30,198,37,24,23,296,34,0,4*61,1606989598488
NMEA,$PQGSV,4,4,16,26,49,351,22,01,52,129,,04,37,115,,08,00,000,,0,4*63,1606989598488
NMEA,$GNGSA,A,3,03,04,16,22,26,27,,,,,,,1.6,1.3,0.9,1*3C,1606989598489
NMEA,$GNGSA,A,2,71,72,,,,,,,,,,,1.6,1.3,0.9,2*3C,1606989598490
NMEA,$GNGSA,A,2,25,,,,,,,,,,,,1.6,1.3,0.9,3*39,1606989598490
NMEA,$PQGSA,A,2,14,24,,,,,,,,,,,1.6,1.3,0.9,4*32,1606989598490
NMEA,$GNVTG,,T,,M,0.0,N,0.0,K,A*3D,1606989598490
NMEA,$GNRMC,095959.00,A,2255.529818,N,12017.681953,E,0.0,,031220,2.8,W,A*1C,1606989598491
NMEA,$GNGGA,095959.00,2255.529818,N,12017.681953,E,1,11,1.3,33.1,M,17.5,M,,*41,1606989598491
Fix,gps,22.925497,120.294700,50.537292,0.000000,4.288000,1606989600000
Raw,19103754,19107755000000,,,-1291005709676155648,0.0,54.89195609698072,-1.256881044475672,14.184130989978375,649,10,0.0,207,46799360580877,35,22.2,28.317834854125977,0.9264999628067017,0,0.0,0.0,,,,,0,,3,,
Raw,19103755,19107755000000,,,-1291005709676155648,0.0,54.89195609698072,-1.256881044475672,14.184130989978375,649,11,0.0,207,46799358197427,17,28.1,-131.673583984375,0.26030001044273376,0,0.0,0.0,,,,,0,,3,,
Raw,19103755,19107755000000,,,-1291005709676155648,0.0,54.89195609698072,-1.256881044475672,14.184130989978375,649,6,0.0,207,46799350492215,61,18.3,794.6397705078125,1.2115000486373901,0,0.0,0.0,,,,,0,,3,,
Raw,19103756,19107755000000,,,-1291005709676155648,0.0,54.89195609698072,-1.256881044475672,14.184130989978375,649,9,0.0,207,46799356859871,486,11.9,268.448486328125,13.125500679016113,0,0.0,0.0,,,,,0,,3,,
Raw,19103757,19107755000000,,,-1291005709676155648,0.0,54.89195609698072,-1.256881044475672,14.184130989978375,649,1,0.0,207,46799354732471,70,17.2,-529.2510375976562,1.2975000143051147,0,0.0,0.0,,,,,0,,3,,
Raw,19103758,19107755000000,,,-1291005709676155648,0.0,54.89195609698072,-1.256881044475672,14.184130989978375,649,21,0.0,207,46799352046548,424,14.1,-728.5745849609375,12.749500274658203,0,0.0,0.0,,,,,0,,3,,
Raw,19103758,19107755000000,,,-1291005709676155648,0.0,54.89195609698072,-1.256881044475672,14.184130989978375,649,7,0.0,207,46799361903758,7,37.4,598.428955078125,0.22210000455379486,0,0.0,0.0,,,,,0,,3,,
Raw,19103759,19107755000000,,,-1291005709676155648,0.0,54.89195609698072,-1.256881044475672,14.184130989978375,649,8,0.0,207,46799362890203,19,27.8,-53.32273483276367,0.2443000078201294,0,0.0,0.0,,,,,0,,3,,
Raw,19103759,19107755000000,,,-1291005709676155648,0.0,54.89195609698072,-1.256881044475672,14.184130989978375,649,3,0.0,15,381617351356848,17,28.8,187.29405212402344,0.049800001084804535,0,0.0,0.0,,,,,0,,1,,
Raw,19103760,19107755000000,,,-1291005709676155648,0.0,54.89195609698072,-1.256881044475672,14.184130989978375,649,4,0.0,15,381617354038456,10,34.0,-578.611572265625,0.04310000315308571,0,0.0,0.0,,,,,0,,1,,
Raw,19103761,19107755000000,,,-1291005709676155648,0.0,54.89195609698072,-1.256881044475672,14.184130989978375,649,8,0.0,15,381617348761398,12,32.5,-724.1801147460938,0.03590000048279762,0,0.0,0.0,,,,,0,,1,,
Raw,19103761,19107755000000,,,-1291005709676155648,0.0,54.89195609698072,-1.256881044475672,14.184130989978375,649,16,0.0,15,381617362339742,11,33.7,-33.765811920166016,0.02590000070631504,0,0.0,0.0,,,,,0,,1,,
Raw,19103762,19107755000000,,,-1291005709676155648,0.0,54.89195609698072,-1.256881044475672,14.184130989978375,649,22,0.0,15,381617350218155,9,35.7,269.492919921875,0.03660000115633011,0,0.0,0.0,,,,,0,,1,,
Raw,19103762,19107755000000,,,-1291005709676155648,0.0,54.89195609698072,-1.256881044475672,14.184130989978375,649,26,0.0,15,381617361124705,35,22.5,278.5709228515625,0.7279999852180481,0,0.0,0.0,,,,,0,,1,,
Raw,19103763,19107755000000,,,-1291005709676155648,0.0,54.89195609698072,-1.256881044475672,14.184130989978375,649,27,0.0,15,381617358256891,10,34.6,-613.4644165039062,0.04910000041127205,0,0.0,0.0,,,,,0,,1,,
Raw,19103764,19107755000000,,,-1291005709676155648,0.0,54.89195609698072,-1.256881044475672,14.184130989978375,649,2,0.0,783,381603306131953,12,32.1,1.3346744775772095,0.3334999978542328,0,0.0,0.0,,,,,0,,5,,
Raw,19103764,19107755000000,,,-1291005709676155648,0.0,54.89195609698072,-1.256881044475672,14.184130989978375,649,3,0.0,783,381603309418607,16,29.4,-4.580142021179199,0.4150000214576721,0,0.0,0.0,,,,,0,,5,,
Raw,19103765,19107755000000,,,-1291005709676155648,0.0,54.89195609698072,-1.256881044475672,14.184130989978375,649,5,0.0,783,381603297900979,16,29.4,5.12745475769043,0.3850000202655792,0,0.0,0.0,,,,,0,,5,,
Raw,19103766,19107755000000,,,-1291005709676155648,0.0,54.89195609698072,-1.256881044475672,14.184130989978375,649,6,0.0,15,381603311937490,124,14.2,-0.31686514616012573,3.5230000019073486,0,0.0,0.0,,,,,0,,5,,
Raw,19103766,19107755000000,,,-1291005709676155648,0.0,54.89195609698072,-1.256881044475672,14.184130989978375,649,7,0.0,15,381603309483777,12,32.9,66.14244842529297,0.03739999979734421,0,0.0,0.0,,,,,0,,5,,
Raw,19103767,19107755000000,,,-1291005709676155648,0.0,54.89195609698072,-1.256881044475672,14.184130989978375,649,9,0.0,15,381603311507965,16,29.3,-101.88074493408203,0.04320000112056732,0,0.0,0.0,,,,,0,,5,,
Raw,19103768,19107755000000,,,-1291005709676155648,0.0,54.89195609698072,-1.256881044475672,14.184130989978375,649,10,0.0,15,381603306850708,27,24.5,28.959556579589844,0.5855000019073486,0,0.0,0.0,,,,,0,,5,,
Raw,19103768,19107755000000,,,-1291005709676155648,0.0,54.89195609698072,-1.256881044475672,14.184130989978375,649,12,0.0,15,381603344939889,16,29.5,-597.8214111328125,0.03270000219345093,0,0.0,0.0,,,,,0,,5,,
Raw,19103769,19107755000000,,,-1291005709676155648,0.0,54.89195609698072,-1.256881044475672,14.184130989978375,649,14,0.0,15,381603349381240,35,22.4,-92.56303405761719,0.6800000071525574,0,0.0,0.0,,,,,0,,5,,
Raw,19103770,19107755000000,,,-1291005709676155648,0.0,54.89195609698072,-1.256881044475672,14.184130989978375,649,16,0.0,15,381603311299311,46,20.9,11.829632759094238,0.7429999709129333,0,0.0,0.0,,,,,0,,5,,
Raw,19103770,19107755000000,,,-1291005709676155648,0.0,54.89195609698072,-1.256881044475672,14.184130989978375,649,21,0.0,15,381603349963403,7,37.2,520.021484375,0.0340999998152256,0,0.0,0.0,,,,,0,,5,,
Raw,19103771,19107755000000,,,-1291005709676155648,0.0,54.89195609698072,-1.256881044475672,14.184130989978375,649,24,0.0,15,381603347899273,11,33.4,-256.6029052734375,0.033400002866983414,0,0.0,0.0,,,,,0,,5,,
Raw,19103772,19107755000000,,,-1291005709676155648,0.0,54.89195609698072,-1.256881044475672,14.184130989978375,649,26,0.0,15,381603356160237,40,21.6,-49.50778579711914,0.750499963760376,0,0.0,0.0,,,,,0,,5,,
NMEA,$GPGSV,3,1,11,03,17,268,29,04,26,319,34,08,08,202,33,16,59,291,34*73,1606989599485
NMEA,$GPGSV,3,2,11,22,16,246,36,26,54,002,23,27,39,185,35,18,04,092,*7F,1606989599486
NMEA,$GPGSV,3,3,11,29,09,037,,31,43,060,,32,25,150,*4E,1606989599486
NMEA,$GLGSV,3,1,10,74,36,343,22,75,00,000,28,70,04,172,18,73,23,039,12*6E,1606989599486
NMEA,$GLGSV,3,2,10,65,16,323,17,85,09,167,14,71,42,206,37,72,47,286,28*64,1606989599486
NMEA,$GLGSV,3,3,10,84,32,112,,83,17,049,*6B,1606989599486
NMEA,$GAGSV,2,1,07,25,42,291,30,02,04,255,,03,25,313,,05,66,255,*62,1606989599486
NMEA,$GAGSV,2,2,07,09,37,168,,24,47,014,,33,01,047,*5F,1606989599486
NMEA,$PQGSV,1,1,03,193,35,171,33,194,60,032,19,195,49,127,,0,5*64,1606989599486
NMEA,$PQGSV,4,1,16,02,40,240,32,03,58,202,29,05,16,255,29,06,79,136,14,0,4*6F,1606989599486
NMEA,$PQGSV,4,2,16,07,69,309,33,09,68,326,29,10,52,262,25,12,09,187,30,0,4*63,1606989599486
NMEA,$PQGSV,4,3,16,14,27,291,22,16,82,136,21,21,30,198,37,24,23,296,33,0,4*65,1606989599487
NMEA,$PQGSV,4,4,16,26,49,351,22,01,52,129,,04,37,115,,08,00,000,,0,4*63,1606989599487
NMEA,$GNGSA,A,3,03,04,16,22,26,27,,,,,,,1.6,1.3,0.9,1*3C,1606989599487
NMEA,$GNGSA,A,2,71,72,,,,,,,,,,,1.6,1.3,0.9,2*3C,1606989599487
NMEA,$GNGSA,A,2,25,,,,,,,,,,,,1.6,1.3,0.9,3*39,1606989599487
NMEA,$PQGSA,A,2,14,24,,,,,,,,,,,1.6,1.3,0.9,4*32,1606989599487
NMEA,$GNVTG,,T,,M,0.0,N,0.0,K,A*3D,1606989599488
NMEA,$GNRMC,100000.00,A,2255.529797,N,12017.681977,E,0.0,,031220,2.8,W,A*1A,1606989599488
NMEA,$GNGGA,100000.00,2255.529797,N,12017.681977,E,1,11,1.3,33.1,M,17.5,M,,*47,1606989599488
Fix,gps,22.925496,120.294700,50.542969,0.000000,4.288000,1606989601000
Raw,19104592,19108755000000,,,-1291005709676155648,0.0,51.275921578053385,-0.2139830507940755,12.231311230646229,649,10,0.0,207,46800360580816,35,22.5,28.317834854125977,0.9264999628067017,0,0.0,0.0,,,,,0,,3,,
Raw,19104593,19108755000000,,,-1291005709676155648,0.0,51.275921578053385,-0.2139830507940755,12.231311230646229,649,11,0.0,207,46800358197926,24,25.1,-131.4481964111328,0.6087999939918518,0,0.0,0.0,,,,,0,,3,,
Raw,19104593,19108755000000,,,-1291005709676155648,0.0,51.275921578053385,-0.2139830507940755,12.231311230646229,649,6,0.0,207,46800350489385,53,19.8,794.845947265625,1.131500005722046,0,0.0,0.0,,,,,0,,3,,
Raw,19104593,19108755000000,,,-1291005709676155648,0.0,51.275921578053385,-0.2139830507940755,12.231311230646229,649,9,0.0,207,46800356858975,572,11.9,268.448486328125,14.625500679016113,0,0.0,0.0,,,,,0,,3,,
Raw,19104593,19108755000000,,,-1291005709676155648,0.0,51.275921578053385,-0.2139830507940755,12.231311230646229,649,1,0.0,207,46800354734346,40,21.1,-530.8037109375,1.0074999332427979,0,0.0,0.0,,,,,0,,3,,
Raw,19104593,19108755000000,,,-1291005709676155648,0.0,51.275921578053385,-0.2139830507940755,12.231311230646229,649,21,0.0,207,46800352048978,509,14.1,-728.5745849609375,14.249500274658203,0,0.0,0.0,,,,,0,,3,,
Raw,19104593,19108755000000,,,-1291005709676155648,0.0,51.275921578053385,-0.2139830507940755,12.231311230646229,649,7,0.0,207,46800361901744,8,36.0,598.3094482421875,0.22270001471042633,0,0.0,0.0,,,,,0,,3,,
Raw,19104594,19108755000000,,,-1291005709676155648,0.0,51.275921578053385,-0.2139830507940755,12.231311230646229,649,8,0.0,207,46800362890403,21,26.8,-53.33378601074219,0.7294999957084656,0,0.0,0.0,,,,,0,,3,,
Raw,19104594,19108755000000,,,-1291005709676155648,0.0,51.275921578053385,-0.2139830507940755,12.231311230646229,649,3,0.0,15,381618351356208,16,29.7,187.4176788330078,0.04320000112056732,0,0.0,0.0,,,,,0,,1,,
Raw,19104594,19108755000000,,,-1291005709676155648,0.0,51.275921578053385,-0.2139830507940755,12.231311230646229,649,4,0.0,15,381618354040406,12,32.9,-578.7017822265625,0.04490000009536743,0,0.0,0.0,,,,,0,,1,,
Raw,19104594,19108755000000,,,-1291005709676155648,0.0,51.275921578053385,-0.2139830507940755,12.231311230646229,649,8,0.0,15,381618348763797,11,33.1,-724.3698120117188,0.03490000218153,0,0.0,0.0,,,,,0,,1,,
Raw,19104595,19108755000000,,,-1291005709676155648,0.0,51.275921578053385,-0.2139830507940755,12.231311230646229,649,16,0.0,15,381618362339871,12,32.8,-33.878944396972656,0.026900000870227814,0,0.0,0.0,,,,,0,,1,,
Raw,19104595,19108755000000,,,-1291005709676155648,0.0,51.275921578053385,-0.2139830507940755,12.231311230646229,649,22,0.0,15,381618350217249,10,34.7,269.3515930175781,0.03710000216960907,0,0.0,0.0,,,,,0,,1,,
Raw,19104595,19108755000000,,,-1291005709676155648,0.0,51.275921578053385,-0.2139830507940755,12.231311230646229,649,26,0.0,15,381618361123736,31,23.4,277.9905090332031,0.7279999852180481,0,0.0,0.0,,,,,0,,1,,
Raw,19104595,19108755000000,,,-1291005709676155648,0.0,51.275921578053385,-0.2139830507940755,12.231311230646229,649,27,0.0,15,381618358258925,11,33.8,-613.5415649414062,0.04990000277757645,0,0.0,0.0,,,,,0,,1,,
Raw,19104595,19108755000000,,,-1291005709676155648,0.0,51.275921578053385,-0.2139830507940755,12.231311230646229,649,2,0.0,783,381604306131941,14,30.4,-0.16323357820510864,0.3935000002384186,0,0.0,0.0,,,,,0,,5,,
Raw,19104596,19108755000000,,,-1291005709676155648,0.0,51.275921578053385,-0.2139830507940755,12.231311230646229,649,3,0.0,783,381604309418596,16,29.8,2.5541253089904785,0.39500001072883606,0,0.0,0.0,,,,,0,,5,,
Raw,19104596,19108755000000,,,-1291005709676155648,0.0,51.275921578053385,-0.2139830507940755,12.231311230646229,649,5,0.0,783,381604297900963,17,28.1,5.549941062927246,0.4150000214576721,0,0.0,0.0,,,,,0,,5,,
Raw,19104596,19108755000000,,,-1291005709676155648,0.0,51.275921578053385,-0.2139830507940755,12.231311230646229,649,6,0.0,15,381604311937491,148,14.2,-0.31686514616012573,5.023000240325928,0,0.0,0.0,,,,,0,,5,,
Raw,19104596,19108755000000,,,-1291005709676155648,0.0,51.275921578053385,-0.2139830507940755,12.231311230646229,649,7,0.0,15,381604309483557,12,32.3,65.98335266113281,0.03739999979734421,0,0.0,0.0,,,,,0,,5,,
Raw,19104596,19108755000000,,,-1291005709676155648,0.0,51.275921578053385,-0.2139830507940755,12.231311230646229,649,9,0.0,15,381604311508293,17,28.1,-101.91535949707031,0.43299999833106995,0,0.0,0.0,,,,,0,,5,,
Raw,19104597,19108755000000,,,-1291005709676155648,0.0,51.275921578053385,-0.2139830507940755,12.231311230646229,649,10,0.0,15,381604306850611,27,24.1,28.268211364746094,0.5855000019073486,0,0.0,0.0,,,,,0,,5,,
Raw,19104597,19108755000000,,,-1291005709676155648,0.0,51.275921578053385,-0.2139830507940755,12.231311230646229,649,12,0.0,15,381604344941874,16,29.6,-598.0708618164062,0.03270000219345093,0,0.0,0.0,,,,,0,,5,,
Raw,19104597,19108755000000,,,-1291005709676155648,0.0,51.275921578053385,-0.2139830507940755,12.231311230646229,649,14,0.0,15,381604349381547,70,17.0,-92.72627258300781,1.0099999904632568,0,0.0,0.0,,,,,0,,5,,
Raw,19104597,19108755000000,,,-1291005709676155648,0.0,51.275921578053385,-0.2139830507940755,12.231311230646229,649,16,0.0,15,381604311299265,70,17.5,13.337143898010254,1.0130000114440918,0,0.0,0.0,,,,,0,,5,,
Raw,19104597,19108755000000,,,-1291005709676155648,0.0,51.275921578053385,-0.2139830507940755,12.231311230646229,649,21,0.0,15,381604349961665,7,37.3,519.8660888671875,0.0340999998152256,0,0.0,0.0,,,,,0,,5,,
Raw,19104598,19108755000000,,,-1291005709676155648,0.0,51.275921578053385,-0.2139830507940755,12.231311230646229,649,24,0.0,15,381604347900143,11,33.3,-256.77313232421875,0.033400002866983414,0,0.0,0.0,,,,,0,,5,,
Raw,19104598,19108755000000,,,-1291005709676155648,0.0,51.275921578053385,-0.2139830507940755,12.231311230646229,649,26,0.0,15,381604356160394,40,21.4,-49.354148864746094,0.750499963760376,0,0.0,0.0,,,,,0,,5,,
NMEA,$GPGSV,3,1,11,03,17,268,30,04,26,319,33,08,08,202,33,16,59,291,33*7B,1606989600483
NMEA,$GPGSV,3,2,11,22,16,246,35,26,54,002,23,27,39,185,34,18,04,092,*7D,1606989600485
NMEA,$GPGSV,3,3,11,29,09,037,,31,43,060,,32,25,150,*4E,1606989600485
NMEA,$GLGSV,3,1,10,74,36,343,23,75,00,000,25,70,04,172,20,73,23,039,12*69,1606989600486
NMEA,$GLGSV,3,2,10,65,16,323,21,85,09,167,14,71,42,206,36,72,47,286,27*6F,1606989600486
NMEA,$GLGSV,3,3,10,84,32,112,,83,17,049,*6B,1606989600486
NMEA,$GAGSV,2,1,07,25,42,291,29,02,04,255,,03,25,313,,05,66,255,*6A,1606989600487
NMEA,$GAGSV,2,2,07,09,37,168,,24,47,014,,33,01,047,*5F,1606989600487
NMEA,$PQGSV,1,1,03,193,35,171,31,194,60,032,17,195,49,127,,0,5*68,1606989600487
NMEA,$PQGSV,4,1,16,02,40,240,30,03,58,202,30,05,16,255,28,06,79,136,14,0,4*64,1606989600488
NMEA,$PQGSV,4,2,16,07,69,309,32,09,68,326,28,10,52,262,24,12,09,187,30,0,4*62,1606989600489
NMEA,$PQGSV,4,3,16,14,27,291,17,16,82,136,18,21,30,198,37,24,23,296,33,0,4*69,1606989600489
NMEA,$PQGSV,4,4,16,26,49,351,21,01,52,129,,04,37,115,,08,00,000,,0,4*60,1606989600489
NMEA,$GNGSA,A,3,03,04,16,22,26,27,,,,,,,1.6,1.3,0.9,1*3C,1606989600490
NMEA,$GNGSA,A,2,71,72,,,,,,,,,,,1.6,1.3,0.9,2*3C,1606989600490
NMEA,$GNGSA,A,2,25,,,,,,,,,,,,1.6,1.3,0.9,3*39,1606989600490
NMEA,$PQGSA,A,2,14,24,,,,,,,,,,,1.6,1.3,0.9,4*32,1606989600491
NMEA,$GNVTG,,T,,M,0.0,N,0.0,K,A*3D,1606989600491
NMEA,$GNRMC,100001.00,A,2255.529786,N,12017.681989,E,0.0,,031220,2.8,W,A*1A,1606989600492
NMEA,$GNGGA,100001.00,2255.529786,N,12017.681989,E,1,11,1.3,33.1,M,17.5,M,,*47,1606989600493
Fix,gps,22.925496,120.294700,50.524048,0.000000,4.288000,1606989602000
Raw,19105580,19109755000000,,,-1291005709676155648,0.0,49.01498323306441,-0.3637572316926529,13.208376420023862,649,10,0.0,207,46801360580524,21,26.6,27.775863647460938,0.31119999289512634,0,0.0,0.0,,,,,0,,3,,
Raw,19105581,19109755000000,,,-1291005709676155648,0.0,49.01498323306441,-0.3637572316926529,13.208376420023862,649,11,0.0,207,46801358198398,21,26.3,-131.70297241210938,0.33820000290870667,0,0.0,0.0,,,,,0,,3,,
Raw,19105581,19109755000000,,,-1291005709676155648,0.0,49.01498323306441,-0.3637572316926529,13.208376420023862,649,6,0.0,207,46801350486945,61,18.3,795.314453125,1.2115000486373901,0,0.0,0.0,,,,,0,,3,,
Raw,19105582,19109755000000,,,-1291005709676155648,0.0,49.01498323306441,-0.3637572316926529,13.208376420023862,649,9,0.0,207,46801356858080,669,11.9,268.448486328125,16.12550163269043,0,0.0,0.0,,,,,0,,3,,
Raw,19105582,19109755000000,,,-1291005709676155648,0.0,49.01498323306441,-0.3637572316926529,13.208376420023862,649,1,0.0,207,46801354736036,46,20.3,-531.2713623046875,1.0674999952316284,0,0.0,0.0,,,,,0,,3,,
Raw,19105583,19109755000000,,,-1291005709676155648,0.0,49.01498323306441,-0.3637572316926529,13.208376420023862,649,21,0.0,207,46801352051409,604,14.1,-728.5745849609375,15.74950122833252,0,0.0,0.0,,,,,0,,3,,
Raw,19105583,19109755000000,,,-1291005709676155648,0.0,49.01498323306441,-0.3637572316926529,13.208376420023862,649,7,0.0,207,46801361899757,10,34.5,598.1339111328125,0.22360001504421234,0,0.0,0.0,,,,,0,,3,,
Raw,19105584,19109755000000,,,-1291005709676155648,0.0,49.01498323306441,-0.3637572316926529,13.208376420023862,649,8,0.0,207,46801362890569,19,27.9,-53.35246276855469,0.6995000243186951,0,0.0,0.0,,,,,0,,3,,
Raw,19105584,19109755000000,,,-1291005709676155648,0.0,49.01498323306441,-0.3637572316926529,13.208376420023862,649,3,0.0,15,381619351355598,12,32.0,187.0045928955078,0.040400002151727676,0,0.0,0.0,,,,,0,,1,,
Raw,19105585,19109755000000,,,-1291005709676155648,0.0,49.01498323306441,-0.3637572316926529,13.208376420023862,649,4,0.0,15,381619354042342,12,32.6,-578.9251708984375,0.04490000009536743,0,0.0,0.0,,,,,0,,1,,
Raw,19105585,19109755000000,,,-1291005709676155648,0.0,49.01498323306441,-0.3637572316926529,13.208376420023862,649,8,0.0,15,381619348766217,11,33.6,-724.6531372070312,0.03490000218153,0,0.0,0.0,,,,,0,,1,,
Raw,19105586,19109755000000,,,-1291005709676155648,0.0,49.01498323306441,-0.3637572316926529,13.208376420023862,649,16,0.0,15,381619362339962,12,32.2,-34.0969123840332,0.026900000870227814,0,0.0,0.0,,,,,0,,1,,
Raw,19105586,19109755000000,,,-1291005709676155648,0.0,49.01498323306441,-0.3637572316926529,13.208376420023862,649,22,0.0,15,381619350216352,9,35.0,269.1324768066406,0.03660000115633011,0,0.0,0.0,,,,,0,,1,,
Raw,19105587,19109755000000,,,-1291005709676155648,0.0,49.01498323306441,-0.3637572316926529,13.208376420023862,649,26,0.0,15,381619361122858,24,25.0,277.3439025878906,0.3833000063896179,0,0.0,0.0,,,,,0,,1,,
Raw,19105587,19109755000000,,,-1291005709676155648,0.0,49.01498323306441,-0.3637572316926529,13.208376420023862,649,27,0.0,15,381619358260971,11,33.3,-613.7105102539062,0.04990000277757645,0,0.0,0.0,,,,,0,,1,,
Raw,19105588,19109755000000,,,-1291005709676155648,0.0,49.01498323306441,-0.3637572316926529,13.208376420023862,649,29,0.0,15,381619348490198,1012,15.8,575.2958374023438,3.81850004196167,0,0.0,0.0,,,,,0,,1,,
Raw,19105588,19109755000000,,,-1291005709676155648,0.0,49.01498323306441,-0.3637572316926529,13.208376420023862,649,2,0.0,783,381605306131948,17,28.5,2.477309465408325,0.44350001215934753,0,0.0,0.0,,,,,0,,5,,
Raw,19105589,19109755000000,,,-1291005709676155648,0.0,49.01498323306441,-0.3637572316926529,13.208376420023862,649,3,0.0,783,381605309418640,14,30.8,0.0864177718758583,0.36500000953674316,0,0.0,0.0,,,,,0,,5,,
Raw,19105589,19109755000000,,,-1291005709676155648,0.0,49.01498323306441,-0.3637572316926529,13.208376420023862,649,5,0.0,783,381605297900942,14,30.7,5.233076095581055,0.36500000953674316,0,0.0,0.0,,,,,0,,5,,
Raw,19105590,19109755000000,,,-1291005709676155648,0.0,49.01498323306441,-0.3637572316926529,13.208376420023862,649,6,0.0,15,381605311937492,183,14.2,-0.31686514616012573,6.523000240325928,0,0.0,0.0,,,,,0,,5,,
Raw,19105591,19109755000000,,,-1291005709676155648,0.0,49.01498323306441,-0.3637572316926529,13.208376420023862,649,7,0.0,15,381605309483323,13,31.4,65.70545196533203,0.038700003176927567,0,0.0,0.0,,,,,0,,5,,
Raw,19105591,19109755000000,,,-1291005709676155648,0.0,49.01498323306441,-0.3637572316926529,13.208376420023862,649,9,0.0,15,381605311508641,21,26.3,-102.28173828125,0.12770000100135803,0,0.0,0.0,,,,,0,,5,,
Raw,19105592,19109755000000,,,-1291005709676155648,0.0,49.01498323306441,-0.3637572316926529,13.208376420023862,649,10,0.0,15,381605306850512,19,27.8,27.980152130126953,0.4255000054836273,0,0.0,0.0,,,,,0,,5,,
Raw,19105592,19109755000000,,,-1291005709676155648,0.0,49.01498323306441,-0.3637572316926529,13.208376420023862,649,12,0.0,15,381605344943877,14,30.4,-598.35888671875,0.03180000185966492,0,0.0,0.0,,,,,0,,5,,
Raw,19105593,19109755000000,,,-1291005709676155648,0.0,49.01498323306441,-0.3637572316926529,13.208376420023862,649,14,0.0,15,381605349381875,40,21.3,-93.3119888305664,0.7400000095367432,0,0.0,0.0,,,,,0,,5,,
Raw,19105593,19109755000000,,,-1291005709676155648,0.0,49.01498323306441,-0.3637572316926529,13.208376420023862,649,16,0.0,15,381605311299222,61,18.0,11.387941360473633,0.9329999685287476,0,0.0,0.0,,,,,0,,5,,
Raw,19105594,19109755000000,,,-1291005709676155648,0.0,49.01498323306441,-0.3637572316926529,13.208376420023862,649,21,0.0,15,381605349959931,9,35.5,519.6307373046875,0.035100001841783524,0,0.0,0.0,,,,,0,,5,,
Raw,19105594,19109755000000,,,-1291005709676155648,0.0,49.01498323306441,-0.3637572316926529,13.208376420023862,649,24,0.0,15,381605347900995,12,32.3,-257.0745849609375,0.03440000116825104,0,0.0,0.0,,,,,0,,5,,
Raw,19105595,19109755000000,,,-1291005709676155648,0.0,49.01498323306441,-0.3637572316926529,13.208376420023862,649,26,0.0,15,381605356160549,46,20.3,-50.784847259521484,0.8104999661445618,0,0.0,0.0,,,,,0,,5,,
Raw,19105595,19109755000000,,,-1291005709676155648,0.0,49.01498323306441,-0.3637572316926529,13.208376420023862,649,25,0.0,7183,381619347537308,14,30.1,-68.38245391845703,0.04830000177025795,0,0.0,0.0,,,,,0,,6,,
NMEA,$GPGSV,3,1,11,03,17,268,32,04,26,319,33,08,08,202,34,16,59,291,32*7F,1606989601482
NMEA,$GPGSV,3,2,11,22,16,246,35,26,54,002,25,27,39,185,33,29,09,037,16*7B,1606989601483
NMEA,$GPGSV,3,3,11,18,04,092,,31,43,060,,32,25,150,*4E,1606989601485
NMEA,$GLGSV,3,1,10,74,36,343,27,75,00,000,26,70,04,172,18,73,23,039,12*65,1606989601485
NMEA,$GLGSV,3,2,10,65,16,323,20,85,09,167,14,71,42,206,35,72,47,286,28*62,1606989601485
NMEA,$GLGSV,3,3,10,84,32,112,,83,17,049,*6B,1606989601486
NMEA,$GAGSV,2,1,07,25,42,291,30,02,04,255,,03,25,313,,05,66,255,*62,1606989601486
NMEA,$GAGSV,2,2,07,09,37,168,,24,47,014,,33,01,047,*5F,1606989601486
NMEA,$PQGSV,1,1,03,193,35,171,31,194,60,032,17,195,49,127,,0,5*68,1606989601487
NMEA,$PQGSV,4,1,16,02,40,240,29,03,58,202,31,05,16,255,31,06,79,136,14,0,4*65,1606989601487
NMEA,$PQGSV,4,2,16,07,69,309,31,09,68,326,26,10,52,262,28,12,09,187,30,0,4*63,1606989601488
NMEA,$PQGSV,4,3,16,14,27,291,21,16,82,136,18,21,30,198,36,24,23,296,32,0,4*6C,1606989601488
NMEA,$PQGSV,4,4,16,26,49,351,20,01,52,129,,04,37,115,,08,00,000,,0,4*61,1606989601488
NMEA,$GNGSA,A,3,03,04,16,22,26,27,,,,,,,1.6,1.3,0.9,1*3C,1606989601489
NMEA,$GNGSA,A,2,65,71,72,,,,,,,,,,1.6,1.3,0.9,2*3F,1606989601489
NMEA,$GNGSA,A,2,25,,,,,,,,,,,,1.6,1.3,0.9,3*39,1606989601489
NMEA,$PQGSA,A,2,14,24,,,,,,,,,,,1.6,1.3,0.9,4*32,1606989601490
NMEA,$GNVTG,,T,,M,0.0,N,0.0,K,A*3D,1606989601490
NMEA,$GNRMC,100002.00,A,2255.529780,N,12017.681998,E,0.0,,031220,2.8,W,A*1F,1606989601496
NMEA,$GNGGA,100002.00,2255.529780,N,12017.681998,E,1,12,1.3,33.1,M,17.5,M,,*41,1606989601497
Raw,19106722,19110755000000,,,-1291005709676155648,0.0,52.51862603472546,-0.9062232471446113,17.83126991412308,649,10,0.0,207,46802360580507,14,30.4,27.01520347595215,0.22579999268054962,0,0.0,0.0,,,,,0,,3,,
Raw,19106723,19110755000000,,,-1291005709676155648,0.0,52.51862603472546,-0.9062232471446113,17.83126991412308,649,11,0.0,207,46802358198845,31,23.5,-132.2194061279297,0.8934999704360962,0,0.0,0.0,,,,,0,,3,,
Raw,19106724,19110755000000,,,-1291005709676155648,0.0,52.51862603472546,-0.9062232471446113,17.83126991412308,649,6,0.0,207,46802350483923,80,16.6,795.314453125,1.381500005722046,0,0.0,0.0,,,,,0,,3,,
Raw,19106724,19110755000000,,,-1291005709676155648,0.0,52.51862603472546,-0.9062232471446113,17.83126991412308,649,9,0.0,207,46802356857184,775,11.9,268.448486328125,17.62550163269043,0,0.0,0.0,,,,,0,,3,,
Raw,19106725,19110755000000,,,-1291005709676155648,0.0,52.51862603472546,-0.9062232471446113,17.83126991412308,649,1,0.0,207,46802354737752,46,20.1,-531.5145874023438,1.0674999952316284,0,0.0,0.0,,,,,0,,3,,
Raw,19106725,19110755000000,,,-1291005709676155648,0.0,52.51862603472546,-0.9062232471446113,17.83126991412308,649,21,0.0,207,46802352053839,709,14.1,-728.5745849609375,17.249500274658203,0,0.0,0.0,,,,,0,,3,,
Raw,19106726,19110755000000,,,-1291005709676155648,0.0,52.51862603472546,-0.9062232471446113,17.83126991412308,649,7,0.0,207,46802361897761,9,35.0,597.3731079101562,0.22310000658035278,0,0.0,0.0,,,,,0,,3,,
Raw,19106726,19110755000000,,,-1291005709676155648,0.0,52.51862603472546,-0.9062232471446113,17.83126991412308,649,8,0.0,207,46802362890740,31,23.1,-53.80997848510742,0.8694999814033508,0,0.0,0.0,,,,,0,,3,,
Raw,19106727,19110755000000,,,-1291005709676155648,0.0,52.51862603472546,-0.9062232471446113,17.83126991412308,649,3,0.0,15,381620351354985,11,33.2,186.1980438232422,0.039400000125169754,0,0.0,0.0,,,,,0,,1,,
Raw,19106728,19110755000000,,,-1291005709676155648,0.0,52.51862603472546,-0.9062232471446113,17.83126991412308,649,4,0.0,15,381620354044301,12,32.0,-579.7781372070312,0.04490000009536743,0,0.0,0.0,,,,,0,,1,,
Raw,19106728,19110755000000,,,-1291005709676155648,0.0,52.51862603472546,-0.9062232471446113,17.83126991412308,649,8,0.0,15,381620348768607,10,34.1,-725.5150756835938,0.0340999998152256,0,0.0,0.0,,,,,0,,1,,
Raw,19106729,19110755000000,,,-1291005709676155648,0.0,52.51862603472546,-0.9062232471446113,17.83126991412308,649,16,0.0,15,381620362340060,19,27.6,-34.933860778808594,0.04430000111460686,0,0.0,0.0,,,,,0,,1,,
Raw,19106730,19110755000000,,,-1291005709676155648,0.0,52.51862603472546,-0.9062232471446113,17.83126991412308,649,22,0.0,15,381620350215461,11,33.5,268.2661437988281,0.03790000081062317,0,0.0,0.0,,,,,0,,1,,
Raw,19106731,19110755000000,,,-1291005709676155648,0.0,52.51862603472546,-0.9062232471446113,17.83126991412308,649,26,0.0,15,381620361121922,24,25.5,276.6336975097656,0.3833000063896179,0,0.0,0.0,,,,,0,,1,,
Raw,19106731,19110755000000,,,-1291005709676155648,0.0,52.51862603472546,-0.9062232471446113,17.83126991412308,649,27,0.0,15,381620358263029,11,33.8,-614.5963134765625,0.04990000277757645,0,0.0,0.0,,,,,0,,1,,
Raw,19106732,19110755000000,,,-1291005709676155648,0.0,52.51862603472546,-0.9062232471446113,17.83126991412308,649,29,0.0,15,381620348488258,1024,15.6,575.191162109375,4.56850004196167,0,0.0,0.0,,,,,0,,1,,
Raw,19106733,19110755000000,,,-1291005709676155648,0.0,52.51862603472546,-0.9062232471446113,17.83126991412308,649,2,0.0,783,381606306131949,19,27.9,-0.1440296173095703,0.44350001215934753,0,0.0,0.0,,,,,0,,5,,
Raw,19106733,19110755000000,,,-1291005709676155648,0.0,52.51862603472546,-0.9062232471446113,17.83126991412308,649,3,0.0,783,381606309418635,19,27.6,-2.342881679534912,0.48500001430511475,0,0.0,0.0,,,,,0,,5,,
Raw,19106734,19110755000000,,,-1291005709676155648,0.0,52.51862603472546,-0.9062232471446113,17.83126991412308,649,5,0.0,783,381606297900931,14,30.3,4.983425140380859,0.36500000953674316,0,0.0,0.0,,,,,0,,5,,
Raw,19106734,19110755000000,,,-1291005709676155648,0.0,52.51862603472546,-0.9062232471446113,17.83126991412308,649,6,0.0,15,381606311937411,124,14.0,-0.700944185256958,3.5230000019073486,0,0.0,0.0,,,,,0,,5,,
Raw,19106735,19110755000000,,,-1291005709676155648,0.0,52.51862603472546,-0.9062232471446113,17.83126991412308,649,7,0.0,15,381606309483107,12,32.2,64.85829162597656,0.03739999979734421,0,0.0,0.0,,,,,0,,5,,
Raw,19106735,19110755000000,,,-1291005709676155648,0.0,52.51862603472546,-0.9062232471446113,17.83126991412308,649,9,0.0,15,381606311508980,17,28.5,-103.213134765625,0.049800001084804535,0,0.0,0.0,,,,,0,,5,,
Raw,19106736,19110755000000,,,-1291005709676155648,0.0,52.51862603472546,-0.9062232471446113,17.83126991412308,649,10,0.0,15,381606306850425,17,28.0,26.819561004638672,0.04230000078678131,0,0.0,0.0,,,,,0,,5,,
Raw,19106737,19110755000000,,,-1291005709676155648,0.0,52.51862603472546,-0.9062232471446113,17.83126991412308,649,12,0.0,15,381606344945878,14,30.4,-599.3234252929688,0.03180000185966492,0,0.0,0.0,,,,,0,,5,,
Raw,19106737,19110755000000,,,-1291005709676155648,0.0,52.51862603472546,-0.9062232471446113,17.83126991412308,649,14,0.0,15,381606349382165,27,24.4,-94.27218627929688,0.5900000333786011,0,0.0,0.0,,,,,0,,5,,
Raw,19106738,19110755000000,,,-1291005709676155648,0.0,52.51862603472546,-0.9062232471446113,17.83126991412308,649,16,0.0,15,381606311299238,53,19.8,10.494958877563477,0.8029999732971191,0,0.0,0.0,,,,,0,,5,,
Raw,19106739,19110755000000,,,-1291005709676155648,0.0,52.51862603472546,-0.9062232471446113,17.83126991412308,649,21,0.0,15,381606349958198,8,36.0,518.7455444335938,0.034700002521276474,0,0.0,0.0,,,,,0,,5,,
Raw,19106740,19110755000000,,,-1291005709676155648,0.0,52.51862603472546,-0.9062232471446113,17.83126991412308,649,24,0.0,15,381606347901850,13,31.0,-257.7842102050781,0.34700000286102295,0,0.0,0.0,,,,,0,,5,,
Raw,19106741,19110755000000,,,-1291005709676155648,0.0,52.51862603472546,-0.9062232471446113,17.83126991412308,649,26,0.0,15,381606356160711,40,21.7,-51.48579025268555,0.750499963760376,0,0.0,0.0,,,,,0,,5,,
Fix,gps,22.925496,120.294700,50.521729,0.000000,4.288000,1606989603000
NMEA,$GPGSV,3,1,11,03,17,268,33,04,26,319,32,08,08,202,34,16,59,291,28*74,1606989602482
NMEA,$GPGSV,3,2,11,22,16,246,34,26,54,002,26,27,39,185,34,29,09,037,16*7E,1606989602482
NMEA,$GPGSV,3,3,11,18,04,092,,31,43,060,,32,25,150,*4E,1606989602483
NMEA,$GLGSV,3,1,10,74,36,343,30,75,00,000,24,70,04,172,17,73,23,039,12*6E,1606989602483
NMEA,$GLGSV,3,2,10,65,16,323,20,85,09,167,14,71,42,206,35,72,47,286,23*69,1606989602484
NMEA,$GLGSV,3,3,10,84,32,112,,83,17,049,*6B,1606989602484
NMEA,$GAGSV,2,1,07,25,42,291,28,02,04,255,,03,25,313,,05,66,255,*6B,1606989602485
NMEA,$GAGSV,2,2,07,09,37,168,,24,47,014,,33,01,047,*5F,1606989602485
NMEA,$PQGSV,1,1,03,193,35,171,30,194,60,032,16,195,49,127,,0,5*68,1606989602488
NMEA,$PQGSV,4,1,16,02,40,240,28,03,58,202,28,05,16,255,30,06,79,136,14,0,4*6D,1606989602489
NMEA,$PQGSV,4,2,16,07,69,309,32,09,68,326,29,10,52,262,28,12,09,187,30,0,4*6F,1606989602489
NMEA,$PQGSV,4,3,16,14,27,291,24,16,82,136,20,21,30,198,36,24,23,296,31,0,4*61,1606989602491
NMEA,$PQGSV,4,4,16,26,49,351,22,01,52,129,,04,37,115,,08,00,000,,0,4*63,1606989602491
NMEA,$GNGSA,A,3,03,04,16,22,26,27,,,,,,,1.6,1.3,0.9,1*3C,1606989602492
NMEA,$GNGSA,A,2,65,71,72,,,,,,,,,,1.6,1.3,0.9,2*3F,1606989602493
NMEA,$GNGSA,A,2,25,,,,,,,,,,,,1.6,1.3,0.9,3*39,1606989602493
NMEA,$PQGSA,A,2,14,24,,,,,,,,,,,1.6,1.3,0.9,4*32,1606989602493
NMEA,$GNVTG,,T,,M,0.0,N,0.0,K,A*3D,1606989602493
NMEA,$GNRMC,100003.00,A,2255.529777,N,12017.682003,E,0.0,,031220,2.8,W,A*1E,1606989602494
NMEA,$GNGGA,100003.00,2255.529777,N,12017.682003,E,1,12,1.3,33.1,M,17.5,M,,*40,1606989602494
Fix,gps,22.925496,120.294700,50.518311,0.000000,4.288000,1606989604000
Raw,19107580,19111755000000,,,-1291005709676155648,0.0,48.24945062864572,-4.106846241952053,12.235841933834038,649,10,0.0,207,46803360580621,17,28.2,28.167346954345703,0.23330000042915344,0,0.0,0.0,,,,,0,,3,,
Raw,19107580,19111755000000,,,-1291005709676155648,0.0,48.24945062864572,-4.106846241952053,12.235841933834038,649,11,0.0,207,46803358199411,31,23.6,-131.41331481933594,0.8934999704360962,0,0.0,0.0,,,,,0,,3,,
Raw,19107581,19111755000000,,,-1291005709676155648,0.0,48.24945062864572,-4.106846241952053,12.235841933834038,649,6,0.0,207,46803350481465,80,16.7,796.5699462890625,1.381500005722046,0,0.0,0.0,,,,,0,,3,,
Raw,19107581,19111755000000,,,-1291005709676155648,0.0,48.24945062864572,-4.106846241952053,12.235841933834038,649,9,0.0,207,46803356856289,891,11.9,268.448486328125,19.12550163269043,0,0.0,0.0,,,,,0,,3,,
Raw,19107582,19111755000000,,,-1291005709676155648,0.0,48.24945062864572,-4.106846241952053,12.235841933834038,649,1,0.0,207,46803354739567,46,20.1,-529.8964233398438,1.0674999952316284,0,0.0,0.0,,,,,0,,3,,
Raw,19107582,19111755000000,,,-1291005709676155648,0.0,48.24945062864572,-4.106846241952053,12.235841933834038,649,21,0.0,207,46803352056269,824,14.1,-728.5745849609375,18.749500274658203,0,0.0,0.0,,,,,0,,3,,
Raw,19107583,19111755000000,,,-1291005709676155648,0.0,48.24945062864572,-4.106846241952053,12.235841933834038,649,7,0.0,207,46803361895795,9,35.1,598.6270141601562,0.22310000658035278,0,0.0,0.0,,,,,0,,3,,
Raw,19107583,19111755000000,,,-1291005709676155648,0.0,48.24945062864572,-4.106846241952053,12.235841933834038,649,8,0.0,207,46803362890988,35,22.6,-52.82024383544922,0.9294999837875366,0,0.0,0.0,,,,,0,,3,,
Raw,19107583,19111755000000,,,-1291005709676155648,0.0,48.24945062864572,-4.106846241952053,12.235841933834038,649,3,0.0,15,381621351354368,10,34.4,187.42532348632812,0.038600001484155655,0,0.0,0.0,,,,,0,,1,,
Raw,19107584,19111755000000,,,-1291005709676155648,0.0,48.24945062864572,-4.106846241952053,12.235841933834038,649,4,0.0,15,381621354046228,12,32.0,-578.5525512695312,0.04490000009536743,0,0.0,0.0,,,,,0,,1,,
Raw,19107584,19111755000000,,,-1291005709676155648,0.0,48.24945062864572,-4.106846241952053,12.235841933834038,649,8,0.0,15,381621348771035,10,34.0,-724.3489379882812,0.0340999998152256,0,0.0,0.0,,,,,0,,1,,
Raw,19107584,19111755000000,,,-1291005709676155648,0.0,48.24945062864572,-4.106846241952053,12.235841933834038,649,16,0.0,15,381621362340166,14,30.1,-33.5837516784668,0.028800001367926598,0,0.0,0.0,,,,,0,,1,,
Raw,19107585,19111755000000,,,-1291005709676155648,0.0,48.24945062864572,-4.106846241952053,12.235841933834038,649,22,0.0,15,381621350214562,12,32.7,269.46044921875,0.03890000283718109,0,0.0,0.0,,,,,0,,1,,
Raw,19107585,19111755000000,,,-1291005709676155648,0.0,48.24945062864572,-4.106846241952053,12.235841933834038,649,26,0.0,15,381621361120929,27,24.8,277.8097229003906,0.6180000305175781,0,0.0,0.0,,,,,0,,1,,
Raw,19107586,19111755000000,,,-1291005709676155648,0.0,48.24945062864572,-4.106846241952053,12.235841933834038,649,27,0.0,15,381621358265053,10,34.0,-613.3507080078125,0.04910000041127205,0,0.0,0.0,,,,,0,,1,,
Raw,19107586,19111755000000,,,-1291005709676155648,0.0,48.24945062864572,-4.106846241952053,12.235841933834038,649,2,0.0,783,381607306131922,17,28.2,-0.10562172532081604,0.44350001215934753,0,0.0,0.0,,,,,0,,5,,
Raw,19107587,19111755000000,,,-1291005709676155648,0.0,48.24945062864572,-4.106846241952053,12.235841933834038,649,3,0.0,783,381607309418644,14,30.3,-2.6117372512817383,0.39500001072883606,0,0.0,0.0,,,,,0,,5,,
Raw,19107587,19111755000000,,,-1291005709676155648,0.0,48.24945062864572,-4.106846241952053,12.235841933834038,649,5,0.0,783,381607297900921,19,27.6,3.312681198120117,0.45500001311302185,0,0.0,0.0,,,,,0,,5,,
Raw,19107587,19111755000000,,,-1291005709676155648,0.0,48.24945062864572,-4.106846241952053,12.235841933834038,649,6,0.0,15,381607311937413,148,14.0,-0.700944185256958,5.023000240325928,0,0.0,0.0,,,,,0,,5,,
Raw,19107588,19111755000000,,,-1291005709676155648,0.0,48.24945062864572,-4.106846241952053,12.235841933834038,649,7,0.0,15,381607309482895,13,31.1,66.00909423828125,0.038700003176927567,0,0.0,0.0,,,,,0,,5,,
Raw,19107588,19111755000000,,,-1291005709676155648,0.0,48.24945062864572,-4.106846241952053,12.235841933834038,649,9,0.0,15,381607311509323,17,28.2,-102.05119323730469,0.049800001084804535,0,0.0,0.0,,,,,0,,5,,
Raw,19107589,19111755000000,,,-1291005709676155648,0.0,48.24945062864572,-4.106846241952053,12.235841933834038,649,10,0.0,15,381607306850343,17,28.3,28.76751708984375,0.4255000054836273,0,0.0,0.0,,,,,0,,5,,
Raw,19107589,19111755000000,,,-1291005709676155648,0.0,48.24945062864572,-4.106846241952053,12.235841933834038,649,12,0.0,15,381607344947865,14,30.2,-598.0870361328125,0.03180000185966492,0,0.0,0.0,,,,,0,,5,,
Raw,19107590,19111755000000,,,-1291005709676155648,0.0,48.24945062864572,-4.106846241952053,12.235841933834038,649,14,0.0,15,381607349382446,40,21.3,-92.19815826416016,0.7400000095367432,0,0.0,0.0,,,,,0,,5,,
Raw,19107590,19111755000000,,,-1291005709676155648,0.0,48.24945062864572,-4.106846241952053,12.235841933834038,649,16,0.0,15,381607311299123,46,20.9,12.26172161102295,0.7429999709129333,0,0.0,0.0,,,,,0,,5,,
Raw,19107591,19111755000000,,,-1291005709676155648,0.0,48.24945062864572,-4.106846241952053,12.235841933834038,649,21,0.0,15,381607349956467,10,34.4,519.9373779296875,0.035600002855062485,0,0.0,0.0,,,,,0,,5,,
