# 
# Header Description:
# 
# Version: v2.0.0.1 Platform: 8.0.0 Manufacturer: Sony Model: G8142
# 
# Raw,ElapsedRealtimeMillis,TimeNanos,LeapSecond,TimeUncertaintyNanos,FullBiasNanos,BiasNanos,BiasUncertaintyNanos,DriftNanosPerSecond,DriftUncertaintyNanosPerSecond,HardwareClockDiscontinuityCount,Svid,TimeOffsetNanos,State,ReceivedSvTimeNanos,ReceivedSvTimeUncertaintyNanos,Cn0DbHz,PseudorangeRateMetersPerSecond,PseudorangeRateUncertaintyMetersPerSecond,AccumulatedDeltaRangeState,AccumulatedDeltaRangeMeters,AccumulatedDeltaRangeUncertaintyMeters,CarrierFrequencyHz,CarrierCycles,CarrierPhase,CarrierPhaseUncertainty,MultipathIndicator,SnrInDb,ConstellationType,AgcDb,CarrierFrequencyHz
# 
# Fix,Provider,Latitude,Longitude,Altitude,Speed,Accuracy,(UTC)TimeInMs
# 
# Nav,Svid,Type,Status,MessageId,Sub-messageId,Data(Bytes)
# 
Raw,19563796,19567943000000,,,-1291005709500775936,0.0,50.82025018054992,-8.897700625380256,14.584598389388624,971,10,0.0,207,47259373158141,21,26.8,24.3100528717041,0.33070001006126404,0,0.0,0.0,,,,,0,,3,,
Raw,19563796,19567943000000,,,-1291005709500775936,0.0,50.82025018054992,-8.897700625380256,14.584598389388624,971,11,0.0,207,47259371017507,27,24.7,-133.09112548828125,0.8330000042915344,0,0.0,0.0,,,,,0,,3,,
Raw,19563796,19567943000000,,,-1291005709500775936,0.0,50.82025018054992,-8.897700625380256,14.584598389388624,971,1,0.0,207,47259368126863,27,24.8,-479.85504150390625,0.8285000324249268,0,0.0,0.0,,,,,0,,3,,
Raw,19563797,19567943000000,,,-1291005709500775936,0.0,50.82025018054992,-8.897700625380256,14.584598389388624,971,21,0.0,207,47259365795213,306,16.0,-742.6742553710938,10.779000282287598,0,0.0,0.0,,,,,0,,3,,
Raw,19563797,19567943000000,,,-1291005709500775936,0.0,50.82025018054992,-8.897700625380256,14.584598389388624,971,7,0.0,207,47259373574158,14,30.6,635.2337036132812,0.24529999494552612,0,0.0,0.0,,,,,0,,3,,
Raw,19563797,19567943000000,,,-1291005709500775936,0.0,50.82025018054992,-8.897700625380256,14.584598389388624,971,8,0.0,207,47259375535106,24,25.9,17.665882110595703,0.7989999651908875,0,0.0,0.0,,,,,0,,3,,
Raw,19563797,19567943000000,,,-1291005709500775936,0.0,50.82025018054992,-8.897700625380256,14.584598389388624,971,3,0.0,15,382077363665093,70,17.8,214.80349731445312,1.0809999704360962,0,0.0,0.0,,,,,0,,1,,
Raw,19563797,19567943000000,,,-1291005709500775936,0.0,50.82025018054992,-8.897700625380256,14.584598389388624,971,4,0.0,15,382077367526668,21,26.7,-555.3865966796875,0.12170000374317169,0,0.0,0.0,,,,,0,,1,,
Raw,19563797,19567943000000,,,-1291005709500775936,0.0,50.82025018054992,-8.897700625380256,14.584598389388624,971,8,0.0,15,382077362491525,11,33.5,-725.0286865234375,0.02590000070631504,0,0.0,0.0,,,,,0,,1,,
Raw,19563797,19567943000000,,,-1291005709500775936,0.0,50.82025018054992,-8.897700625380256,14.584598389388624,971,16,0.0,15,382077374982995,10,34.3,0.1485099047422409,0.04310000315308571,0,0.0,0.0,,,,,0,,1,,
Raw,19563798,19567943000000,,,-1291005709500775936,0.0,50.82025018054992,-8.897700625380256,14.584598389388624,971,22,0.0,15,382077362415089,12,32.6,278.3830871582031,0.026900000870227814,0,0.0,0.0,,,,,0,,1,,
Raw,19563798,19567943000000,,,-1291005709500775936,0.0,50.82025018054992,-8.897700625380256,14.584598389388624,971,26,0.0,15,382077373306074,24,25.6,290.4583740234375,0.40130001306533813,0,0.0,0.0,,,,,0,,1,,
Raw,19563798,19567943000000,,,-1291005709500775936,0.0,50.82025018054992,-8.897700625380256,14.584598389388624,971,27,0.0,15,382077371794058,9,35.6,-584.1525268554688,0.038100000470876694,0,0.0,0.0,,,,,0,,1,,
Raw,19563798,19567943000000,,,-1291005709500775936,0.0,50.82025018054992,-8.897700625380256,14.584598389388624,971,31,0.0,15,382077370506804,365,12.7,157.2301483154297,10.896500587463379,0,0.0,0.0,,,,,0,,1,,
Raw,19563798,19567943000000,,,-1291005709500775936,0.0,50.82025018054992,-8.897700625380256,14.584598389388624,971,1,0.0,783,382063319786406,76,18.7,-16.784252166748047,3.0900001525878906,0,0.0,0.0,,,,,0,,5,,
Raw,19563798,19567943000000,,,-1291005709500775936,0.0,50.82025018054992,-8.897700625380256,14.584598389388624,971,2,0.0,783,382063318748504,17,28.1,-5.396309852600098,0.44350001215934753,0,0.0,0.0,,,,,0,,5,,
Raw,19563798,19567943000000,,,-1291005709500775936,0.0,50.82025018054992,-8.897700625380256,14.584598389388624,971,3,0.0,783,382063322041699,17,28.4,-0.5953224301338196,0.44350001215934753,0,0.0,0.0,,,,,0,,5,,
Raw,19563799,19567943000000,,,-1291005709500775936,0.0,50.82025018054992,-8.897700625380256,14.584598389388624,971,5,0.0,783,382063310513739,93,21.3,6.318099498748779,5.253499984741211,0,0.0,0.0,,,,,0,,5,,
Raw,19563799,19567943000000,,,-1291005709500775936,0.0,50.82025018054992,-8.897700625380256,14.584598389388624,971,6,0.0,15,382063324547054,17,28.3,10.52281665802002,0.03930000215768814,0,0.0,0.0,,,,,0,,5,,
Raw,19563799,19567943000000,,,-1291005709500775936,0.0,50.82025018054992,-8.897700625380256,14.584598389388624,971,7,0.0,15,382063322000644,16,29.5,65.28791046142578,0.02970000170171261,0,0.0,0.0,,,,,0,,5,,
Raw,19563799,19567943000000,,,-1291005709500775936,0.0,50.82025018054992,-8.897700625380256,14.584598389388624,971,8,0.0,15,382063304432397,53,19.9,-119.50617218017578,0.7924999594688416,0,0.0,0.0,,,,,0,,5,,
Raw,19563799,19567943000000,,,-1291005709500775936,0.0,50.82025018054992,-8.897700625380256,14.584598389388624,971,9,0.0,15,382063324277231,14,30.2,-95.44371032714844,0.03180000185966492,0,0.0,0.0,,,,,0,,5,,
Raw,19563799,19567943000000,,,-1291005709500775936,0.0,50.82025018054992,-8.897700625380256,14.584598389388624,971,10,0.0,15,382063319422451,19,27.1,31.062885284423828,0.06980000436306,0,0.0,0.0,,,,,0,,5,,
Raw,19563799,19567943000000,,,-1291005709500775936,0.0,50.82025018054992,-8.897700625380256,14.584598389388624,971,12,0.0,15,382063358484727,12,32.9,-609.9805297851562,0.05090000107884407,0,0.0,0.0,,,,,0,,5,,
Raw,19563802,19567943000000,,,-1291005709500775936,0.0,50.82025018054992,-8.897700625380256,14.584598389388624,971,14,0.0,15,382063362110400,27,24.9,-52.484397888183594,0.5295000076293945,0,0.0,0.0,,,,,0,,5,,
Raw,19563802,19567943000000,,,-1291005709500775936,0.0,50.82025018054992,-8.897700625380256,14.584598389388624,971,16,0.0,15,382063323891285,16,29.1,22.103403091430664,0.031200001016259193,0,0.0,0.0,,,,,0,,5,,
Raw,19563802,19567943000000,,,-1291005709500775936,0.0,50.82025018054992,-8.897700625380256,14.584598389388624,971,21,0.0,15,382063361779497,8,36.4,524.2874755859375,0.022700000554323196,0,0.0,0.0,,,,,0,,5,,
Raw,19563802,19567943000000,,,-1291005709500775936,0.0,50.82025018054992,-8.897700625380256,14.584598389388624,971,24,0.0,15,382063360914436,19,27.4,-261.4072265625,0.04130000248551369,0,0.0,0.0,,,,,0,,5,,
Fix,gps,22.925474,120.294672,51.703247,0.000000,4.288000,1606990060000
NMEA,$GPGSV,3,1,11,03,17,265,18,04,28,317,27,08,10,202,34,16,59,295,34*74,1606990059481
NMEA,$GPGSV,3,2,11,22,15,244,33,26,53,005,26,27,42,185,36,31,43,063,13*75,1606990059489
NMEA,$GPGSV,3,3,11,18,05,090,,29,07,036,,32,23,150,*41,1606990059489
NMEA,$GLGSV,3,1,10,74,36,347,27,75,00,000,25,65,18,319,25,85,12,165,16*6D,1606990059490
NMEA,$GLGSV,3,2,10,71,38,205,31,72,47,279,26,70,00,000,,73,21,043,*64,1606990059490
NMEA,$GLGSV,3,3,10,84,34,106,,83,16,045,*65,1606990059490
NMEA,$GAGSV,2,1,07,25,42,293,26,02,04,257,,03,27,312,,05,65,248,*69,1606990059490
NMEA,$GAGSV,2,2,07,09,35,168,,24,45,015,,33,01,046,*5F,1606990059491
NMEA,$PQGSV,1,1,03,193,35,171,32,194,60,033,16,195,50,126,18,0,5*6B,1606990059492
NMEA,$PQGSV,4,1,16,01,52,129,19,02,40,240,28,03,58,202,28,05,16,255,21,0,4*60,1606990059492
NMEA,$PQGSV,4,2,16,06,78,143,28,07,68,312,30,08,00,000,20,09,70,323,30,0,4*60,1606990059493
NMEA,$PQGSV,4,3,16,10,52,265,27,12,11,187,33,14,27,288,25,16,82,147,29,0,4*65,1606990059494
NMEA,$PQGSV,4,4,16,21,28,196,36,24,23,299,27,04,37,115,,26,49,354,,0,4*60,1606990059494
NMEA,$GNGSA,A,3,03,04,08,16,22,26,27,,,,,,1.5,1.2,0.9,1*36,1606990059495
NMEA,$GNGSA,A,2,65,71,72,,,,,,,,,,1.5,1.2,0.9,2*3D,1606990059495
NMEA,$PQGSA,A,2,21,,,,,,,,,,,,1.5,1.2,0.9,4*30,1606990059496
NMEA,$GNVTG,,T,,M,0.0,N,0.0,K,A*3D,1606990059496
NMEA,$GNRMC,100740.00,A,2255.528457,N,12017.680308,E,0.0,,031220,2.8,W,A*14,1606990059496
NMEA,$GNGGA,100740.00,2255.528457,N,12017.680308,E,1,11,1.2,34.2,M,17.5,M,,*4C,1606990059496
NMEA,$GPGSV,3,1,11,03,17,265,19,04,28,317,30,08,10,202,34,16,59,295,33*74,1606990060481
Raw,19564591,19568943000000,,,-1291005709500775936,0.0,48.8669793412555,-10.382978378041669,14.593833166537445,971,10,0.0,207,47260373158055,27,24.7,25.01612091064453,0.8360000252723694,0,0.0,0.0,,,,,0,,3,,
Raw,19564592,19568943000000,,,-1291005709500775936,0.0,48.8669793412555,-10.382978378041669,14.593833166537445,971,11,0.0,207,47260371018006,17,28.6,-132.8779754638672,0.24980001151561737,0,0.0,0.0,,,,,0,,3,,
Raw,19564592,19568943000000,,,-1291005709500775936,0.0,48.8669793412555,-10.382978378041669,14.593833166537445,971,1,0.0,207,47260368128573,27,24.1,-480.0982360839844,0.8285000324249268,0,0.0,0.0,,,,,0,,3,,
Raw,19564593,19568943000000,,,-1291005709500775936,0.0,48.8669793412555,-10.382978378041669,14.593833166537445,971,21,0.0,207,47260365797467,72,17.4,-743.6273193359375,1.8389999866485596,0,0.0,0.0,,,,,0,,3,,
Raw,19564594,19568943000000,,,-1291005709500775936,0.0,48.8669793412555,-10.382978378041669,14.593833166537445,971,7,0.0,207,47260373572092,21,26.5,635.2329711914062,0.33070001006126404,0,0.0,0.0,,,,,0,,3,,
Raw,19564594,19568943000000,,,-1291005709500775936,0.0,48.8669793412555,-10.382978378041669,14.593833166537445,971,8,0.0,207,47260375535043,27,24.1,18.235448837280273,0.8389999866485596,0,0.0,0.0,,,,,0,,3,,
Raw,19564595,19568943000000,,,-1291005709500775936,0.0,48.8669793412555,-10.382978378041669,14.593833166537445,971,3,0.0,15,382078363664253,61,18.6,215.8311004638672,1.0010000467300415,0,0.0,0.0,,,,,0,,1,,
Raw,19564596,19568943000000,,,-1291005709500775936,0.0,48.8669793412555,-10.382978378041669,14.593833166537445,971,4,0.0,15,382078367528562,16,29.6,-555.3710327148438,0.03720000013709068,0,0.0,0.0,,,,,0,,1,,
Raw,19564596,19568943000000,,,-1291005709500775936,0.0,48.8669793412555,-10.382978378041669,14.593833166537445,971,8,0.0,15,382078362493928,10,34.3,-725.1014404296875,0.025100000202655792,0,0.0,0.0,,,,,0,,1,,
Raw,19564596,19568943000000,,,-1291005709500775936,0.0,48.8669793412555,-10.382978378041669,14.593833166537445,971,16,0.0,15,382078374982990,11,33.3,0.1683308482170105,0.04390000179409981,0,0.0,0.0,,,,,0,,1,,
Raw,19564596,19568943000000,,,-1291005709500775936,0.0,48.8669793412555,-10.382978378041669,14.593833166537445,971,22,0.0,15,382078362414156,14,30.4,278.356689453125,0.028800001367926598,0,0.0,0.0,,,,,0,,1,,
Raw,19564597,19568943000000,,,-1291005709500775936,0.0,48.8669793412555,-10.382978378041669,14.593833166537445,971,26,0.0,15,382078373305100,31,23.8,290.21685791015625,0.6859999895095825,0,0.0,0.0,,,,,0,,1,,
Raw,19564597,19568943000000,,,-1291005709500775936,0.0,48.8669793412555,-10.382978378041669,14.593833166537445,971,27,0.0,15,382078371796007,10,34.3,-584.1507568359375,0.038600001484155655,0,0.0,0.0,,,,,0,,1,,
Raw,19564597,19568943000000,,,-1291005709500775936,0.0,48.8669793412555,-10.382978378041669,14.593833166537445,971,31,0.0,15,382078370506279,437,12.7,157.2301483154297,12.396500587463379,0,0.0,0.0,,,,,0,,1,,
Raw,19564597,19568943000000,,,-1291005709500775936,0.0,48.8669793412555,-10.382978378041669,14.593833166537445,971,1,0.0,783,382064319786462,98,18.7,-16.784252166748047,4.590000152587891,0,0.0,0.0,,,,,0,,5,,
Raw,19564597,19568943000000,,,-1291005709500775936,0.0,48.8669793412555,-10.382978378041669,14.593833166537445,971,2,0.0,783,382064318748488,16,29.0,-4.964221000671387,0.41350001096725464,0,0.0,0.0,,,,,0,,5,,
Raw,19564598,19568943000000,,,-1291005709500775936,0.0,48.8669793412555,-10.382978378041669,14.593833166537445,971,3,0.0,783,382064322041701,24,28.4,-0.5953224301338196,1.94350004196167,0,0.0,0.0,,,,,0,,5,,
Raw,19564598,19568943000000,,,-1291005709500775936,0.0,48.8669793412555,-10.382978378041669,14.593833166537445,971,5,0.0,783,382064310513794,54,20.0,1.2290527820587158,2.313500165939331,0,0.0,0.0,,,,,0,,5,,
Raw,19564598,19568943000000,,,-1291005709500775936,0.0,48.8669793412555,-10.382978378041669,14.593833166537445,971,6,0.0,15,382064324547017,17,28.4,10.464606285095215,0.03930000215768814,0,0.0,0.0,,,,,0,,5,,
Raw,19564598,19568943000000,,,-1291005709500775936,0.0,48.8669793412555,-10.382978378041669,14.593833166537445,971,7,0.0,15,382064322000433,16,29.6,65.2091064453125,0.02970000170171261,0,0.0,0.0,,,,,0,,5,,
Raw,19564598,19568943000000,,,-1291005709500775936,0.0,48.8669793412555,-10.382978378041669,14.593833166537445,971,8,0.0,15,382064304432799,53,19.1,-118.91085815429688,0.8524999618530273,0,0.0,0.0,,,,,0,,5,,
Raw,19564599,19568943000000,,,-1291005709500775936,0.0,48.8669793412555,-10.382978378041669,14.593833166537445,971,9,0.0,15,382064324277524,16,29.7,-95.5855712890625,0.03270000219345093,0,0.0,0.0,,,,,0,,5,,
Raw,19564599,19568943000000,,,-1291005709500775936,0.0,48.8669793412555,-10.382978378041669,14.593833166537445,971,10,0.0,15,382064319422351,21,26.3,30.922683715820312,0.1397000104188919,0,0.0,0.0,,,,,0,,5,,
Raw,19564599,19568943000000,,,-1291005709500775936,0.0,48.8669793412555,-10.382978378041669,14.593833166537445,971,12,0.0,15,382064358486753,12,32.1,-610.05908203125,0.05090000107884407,0,0.0,0.0,,,,,0,,5,,
Raw,19564599,19568943000000,,,-1291005709500775936,0.0,48.8669793412555,-10.382978378041669,14.593833166537445,971,14,0.0,15,382064362110577,24,25.8,-52.64125442504883,0.384799987077713,0,0.0,0.0,,,,,0,,5,,
Raw,19564600,19568943000000,,,-1291005709500775936,0.0,48.8669793412555,-10.382978378041669,14.593833166537445,971,16,0.0,15,382064323891222,16,29.3,22.12148094177246,0.031200001016259193,0,0.0,0.0,,,,,0,,5,,
Raw,19564600,19568943000000,,,-1291005709500775936,0.0,48.8669793412555,-10.382978378041669,14.593833166537445,971,21,0.0,15,382064361777746,8,36.9,524.2149047851562,0.022700000554323196,0,0.0,0.0,,,,,0,,5,,
Raw,19564600,19568943000000,,,-1291005709500775936,0.0,48.8669793412555,-10.382978378041669,14.593833166537445,971,24,0.0,15,382064360915293,17,28.1,-261.5039367675781,0.0333000011742115,0,0.0,0.0,,,,,0,,5,,
Fix,gps,22.925474,120.294672,51.702148,0.000000,4.288000,1606990061000
NMEA,$GPGSV,3,2,11,22,15,244,30,26,53,005,24,27,42,185,34,31,43,063,13*76,1606990060481
NMEA,$GPGSV,3,3,11,18,05,090,,29,07,036,,32,23,150,*41,1606990060484
NMEA,$GLGSV,3,1,10,74,36,347,25,75,00,000,29,65,18,319,24,85,12,165,17*63,1606990060486
NMEA,$GLGSV,3,2,10,71,38,205,27,72,47,279,24,70,00,000,,73,21,043,*61,1606990060486
NMEA,$GLGSV,3,3,10,84,34,106,,83,16,045,*65,1606990060486
NMEA,$GAGSV,2,1,07,25,42,293,25,02,04,257,,03,27,312,,05,65,248,*6A,1606990060487
NMEA,$GAGSV,2,2,07,09,35,168,,24,45,015,,33,01,046,*5F,1606990060487
NMEA,$PQGSV,1,1,03,193,35,171,31,194,60,033,17,195,50,126,19,0,5*68,1606990060488
NMEA,$PQGSV,4,1,16,01,52,129,19,02,40,240,29,03,58,202,28,05,16,255,20,0,4*60,1606990060491
NMEA,$PQGSV,4,2,16,06,78,143,28,07,68,312,30,08,00,000,19,09,70,323,30,0,4*6A,1606990060492
NMEA,$PQGSV,4,3,16,10,52,265,26,12,11,187,32,14,27,288,26,16,82,147,29,0,4*66,1606990060493
NMEA,$PQGSV,4,4,16,21,28,196,37,24,23,299,28,04,37,115,,26,49,354,,0,4*6E,1606990060493
NMEA,$GNGSA,A,3,03,04,08,16,22,26,27,,,,,,1.5,1.2,0.9,1*36,1606990060494
NMEA,$GNGSA,A,2,65,71,72,,,,,,,,,,1.5,1.2,0.9,2*3D,1606990060495
NMEA,$PQGSA,A,2,21,,,,,,,,,,,,1.5,1.2,0.9,4*30,1606990060495
NMEA,$GNVTG,,T,,M,0.0,N,0.0,K,A*3D,1606990060495
NMEA,$GNRMC,100741.00,A,2255.528457,N,12017.680307,E,0.0,,031220,2.8,W,A*1A,1606990060495
NMEA,$GNGGA,100741.00,2255.528457,N,12017.680307,E,1,11,1.2,34.2,M,17.5,M,,*42,1606990060496
Raw,19565558,19570279000000,,,-1291005709500036864,0.0,4114.286508411169,-9.535460920186116,5.81256970441481,972,10,0.0,207,47261708418795,17,28.6,26.122907638549805,0.25279998779296875,0,0.0,0.0,,,,,0,,3,,
Raw,19565558,19570279000000,,,-1291005709500036864,0.0,4114.286508411169,-9.535460920186116,5.81256970441481,972,1,0.0,207,47261703391531,24,25.3,-478.400146484375,0.3839000165462494,0,0.0,0.0,,,,,0,,3,,
Raw,19565558,19570279000000,,,-1291005709500036864,0.0,4114.286508411169,-9.535460920186116,5.81256970441481,972,7,0.0,207,47261708830169,14,30.2,637.2051391601562,0.23880000412464142,0,0.0,0.0,,,,,0,,3,,
Raw,19565559,19570279000000,,,-1291005709500036864,0.0,4114.286508411169,-9.535460920186116,5.81256970441481,972,8,0.0,207,47261710795934,19,27.2,19.95991325378418,0.2786000072956085,0,0.0,0.0,,,,,0,,3,,
Raw,19565559,19570279000000,,,-1291005709500036864,0.0,4114.286508411169,-9.535460920186116,5.81256970441481,972,3,0.0,15,382079698924430,27,24.9,217.76255798339844,0.6285000443458557,0,0.0,0.0,,,,,0,,1,,
Raw,19565559,19570279000000,,,-1291005709500036864,0.0,4114.286508411169,-9.535460920186116,5.81256970441481,972,4,0.0,15,382079702792041,13,31.3,-553.4653930664062,0.0568000003695488,0,0.0,0.0,,,,,0,,1,,
Raw,19565559,19570279000000,,,-1291005709500036864,0.0,4114.286508411169,-9.535460920186116,5.81256970441481,972,8,0.0,15,382079697758125,9,35.4,-723.2620849609375,0.04050000011920929,0,0.0,0.0,,,,,0,,1,,
Raw,19565560,19570279000000,,,-1291005709500036864,0.0,4114.286508411169,-9.535460920186116,5.81256970441481,972,16,0.0,15,382079710243936,10,34.0,2.1040661334991455,0.032099999487400055,0,0.0,0.0,,,,,0,,1,,
Raw,19565560,19570279000000,,,-1291005709500036864,0.0,4114.286508411169,-9.535460920186116,5.81256970441481,972,22,0.0,15,382079697673873,16,29.8,280.18597412109375,0.0552000030875206,0,0.0,0.0,,,,,0,,1,,
Raw,19565560,19570279000000,,,-1291005709500036864,0.0,4114.286508411169,-9.535460920186116,5.81256970441481,972,26,0.0,15,382079708564835,19,27.0,292.26727294921875,0.07559999823570251,0,0.0,0.0,,,,,0,,1,,
Raw,19565560,19570279000000,,,-1291005709500036864,0.0,4114.286508411169,-9.535460920186116,5.81256970441481,972,27,0.0,15,382079707059561,10,34.8,-582.2115478515625,0.02759999968111515,0,0.0,0.0,,,,,0,,1,,
Fix,gps,22.925474,120.294672,51.697510,0.000000,4.288000,1606990062000
NMEA,$GPGSV,3,1,11,03,17,265,25,04,28,317,31,08,10,202,35,16,59,295,34*7C,1606990061481
NMEA,$GPGSV,3,2,11,22,15,244,30,26,53,005,27,27,42,185,35,31,43,063,13*74,1606990061481
NMEA,$GPGSV,3,3,11,18,05,090,,29,07,036,,32,23,150,*41,1606990061481
NMEA,$GLGSV,3,1,10,74,36,347,29,75,00,000,29,65,18,319,25,85,12,165,17*6E,1606990061482
NMEA,$GLGSV,3,2,10,71,38,205,30,72,47,279,27,70,00,000,,73,21,043,*64,1606990061482
NMEA,$GLGSV,3,3,10,84,34,106,,83,16,045,*65,1606990061482
NMEA,$GAGSV,1,1,0,*74,1606990061482
NMEA,$PQGSV,1,1,03,193,35,171,33,195,50,126,21,194,60,033,,0,5*67,1606990061482
NMEA,$PQGSV,1,1,0,*73,1606990061482
NMEA,$GNGSA,A,3,03,04,08,16,22,26,27,,,,,,1.5,1.2,0.9,1*36,1606990061483
NMEA,$GNGSA,A,2,65,71,72,,,,,,,,,,1.5,1.2,0.9,2*3D,1606990061483
NMEA,$GNVTG,,T,,M,0.0,N,0.0,K,A*3D,1606990061483
NMEA,$GNRMC,100742.00,A,2255.528457,N,12017.680306,E,0.0,,031220,2.8,W,A*18,1606990061484
NMEA,$GNGGA,100742.00,2255.528457,N,12017.680306,E,1,10,1.2,34.2,M,17.5,M,,*41,1606990061484
Fix,gps,22.925474,120.294672,51.697266,0.000000,4.288000,1606990063000
NMEA,$GPGSA,A,1,,,,,,,,,,,,,1.5,1.2,0.9,1*23,1606990062478
NMEA,$GPVTG,,T,,M,0.0,N,0.0,K,A*23,1606990062479
NMEA,$GPRMC,100743.00,A,2255.528457,N,12017.680304,E,0.0,,031220,2.8,W,A*05,1606990062479
NMEA,$GPGGA,100743.00,2255.528457,N,12017.680304,E,1,00,1.2,34.2,M,17.5,M,,*5D,1606990062479
Raw,19567611,19571933000000,,,-1291005709499516672,0.0,64.13796654669568,-2.9177094294663948,14.176911449248355,973,10,0.0,207,47263361898479,35,22.3,26.92023468017578,1.1019999980926514,0,0.0,0.0,,,,,0,,3,,
Raw,19567612,19571933000000,,,-1291005709499516672,0.0,64.13796654669568,-2.9177094294663948,14.176911449248355,973,11,0.0,207,47263359760110,24,25.1,-130.84153747558594,0.9399999976158142,0,0.0,0.0,,,,,0,,3,,
Raw,19567612,19571933000000,,,-1291005709499516672,0.0,64.13796654669568,-2.9177094294663948,14.176911449248355,973,1,0.0,207,47263356873805,17,28.2,-477.37835693359375,0.25130000710487366,0,0.0,0.0,,,,,0,,3,,
Raw,19567613,19571933000000,,,-1291005709499516672,0.0,64.13796654669568,-2.9177094294663948,14.176911449248355,973,21,0.0,207,47263354545583,564,19.2,-743.1040649414062,1.8875000476837158,0,0.0,0.0,,,,,0,,3,,
Raw,19567614,19571933000000,,,-1291005709499516672,0.0,64.13796654669568,-2.9177094294663948,14.176911449248355,973,7,0.0,207,47263362306440,19,27.1,638.139892578125,0.2803000211715698,0,0.0,0.0,,,,,0,,3,,
Raw,19567614,19571933000000,,,-1291005709499516672,0.0,64.13796654669568,-2.9177094294663948,14.176911449248355,973,8,0.0,207,47263364275565,24,25.2,21.568809509277344,0.9325000047683716,0,0.0,0.0,,,,,0,,3,,
Raw,19567615,19571933000000,,,-1291005709499516672,0.0,64.13796654669568,-2.9177094294663948,14.176911449248355,973,3,0.0,15,382081352402941,489,21.2,216.8110809326172,1.464500069618225,0,0.0,0.0,,,,,0,,1,,
Raw,19567615,19571933000000,,,-1291005709499516672,0.0,64.13796654669568,-2.9177094294663948,14.176911449248355,973,4,0.0,15,382081356274807,17,28.7,-552.5374755859375,0.05130000039935112,0,0.0,0.0,,,,,0,,1,,
Raw,19567616,19571933000000,,,-1291005709499516672,0.0,64.13796654669568,-2.9177094294663948,14.176911449248355,973,8,0.0,15,382081351241843,11,33.5,-722.3993530273438,0.04840000346302986,0,0.0,0.0,,,,,0,,1,,
Raw,19567617,19571933000000,,,-1291005709499516672,0.0,64.13796654669568,-2.9177094294663948,14.176911449248355,973,16,0.0,15,382081363723696,11,33.5,3.0917646884918213,0.06040000170469284,0,0.0,0.0,,,,,0,,1,,
Raw,19567618,19571933000000,,,-1291005709499516672,0.0,64.13796654669568,-2.9177094294663948,14.176911449248355,973,22,0.0,15,382081351152072,16,29.9,281.07977294921875,0.05220000073313713,0,0.0,0.0,,,,,0,,1,,
Raw,19567618,19571933000000,,,-1291005709499516672,0.0,64.13796654669568,-2.9177094294663948,14.176911449248355,973,26,0.0,15,382081362042935,24,25.6,293.17303466796875,0.42080000042915344,0,0.0,0.0,,,,,0,,1,,
Raw,19567619,19571933000000,,,-1291005709499516672,0.0,64.13796654669568,-2.9177094294663948,14.176911449248355,973,27,0.0,15,382081360542531,9,35.6,-581.2332153320312,0.06360000371932983,0,0.0,0.0,,,,,0,,1,,
Raw,19567619,19571933000000,,,-1291005709499516672,0.0,64.13796654669568,-2.9177094294663948,14.176911449248355,973,32,0.0,15,382081354483317,862,17.4,663.5540161132812,1.787500023841858,0,0.0,0.0,,,,,0,,1,,
Raw,19567620,19571933000000,,,-1291005709499516672,0.0,64.13796654669568,-2.9177094294663948,14.176911449248355,973,6,0.0,15,382067313287645,119,27.5,12.280925750732422,68.16000366210938,0,0.0,0.0,,,,,0,,5,,
Raw,19567621,19571933000000,,,-1291005709499516672,0.0,64.13796654669568,-2.9177094294663948,14.176911449248355,973,7,0.0,15,382067310740483,102,29.1,67.02178192138672,68.06849670410156,0,0.0,0.0,,,,,0,,5,,
Raw,19567621,19571933000000,,,-1291005709499516672,0.0,64.13796654669568,-2.9177094294663948,14.176911449248355,973,9,0.0,15,382067313019203,100,30.5,-93.6960678100586,68.06999969482422,0,0.0,0.0,,,,,0,,5,,
Raw,19567622,19571933000000,,,-1291005709499516672,0.0,64.13796654669568,-2.9177094294663948,14.176911449248355,973,10,0.0,15,382067308162745,25,25.5,34.50949478149414,1.0214999914169312,0,0.0,0.0,,,,,0,,5,,
Raw,19567622,19571933000000,,,-1291005709499516672,0.0,64.13796654669568,-2.9177094294663948,14.176911449248355,973,12,0.0,15,382067347233536,248,31.7,-608.2659301757812,69.02999877929688,0,0.0,0.0,,,,,0,,5,,
Raw,19567623,19571933000000,,,-1291005709499516672,0.0,64.13796654669568,-2.9177094294663948,14.176911449248355,973,16,0.0,15,382067312631668,160,30.7,23.86090660095215,68.45850372314453,0,0.0,0.0,,,,,0,,5,,
Raw,19567624,19571933000000,,,-1291005709499516672,0.0,64.13796654669568,-2.9177094294663948,14.176911449248355,973,21,0.0,15,382067350513217,58,36.0,526.0825805664062,67.83149719238281,0,0.0,0.0,,,,,0,,5,,
Raw,19567624,19571933000000,,,-1291005709499516672,0.0,64.13796654669568,-2.9177094294663948,14.176911449248355,973,24,0.0,15,382067349658565,48,32.8,-259.5798034667969,67.74150085449219,0,0.0,0.0,,,,,0,,5,,
Fix,gps,22.925474,120.294672,51.699890,0.000000,4.288000,1606990064000
NMEA,$GPGSV,3,1,11,03,17,265,21,04,28,317,29,08,10,202,34,16,59,295,34*70,1606990063480
NMEA,$GPGSV,3,2,11,22,15,244,30,26,53,005,26,27,42,185,36,32,23,150,17*76,1606990063481
NMEA,$GPGSV,3,3,11,18,05,090,,29,07,036,,31,43,063,*45,1606990063481
NMEA,$GLGSV,3,1,10,74,36,347,22,75,00,000,25,65,18,319,28,85,12,165,19*6A,1606990063481
NMEA,$GLGSV,3,2,10,71,38,205,27,72,47,279,25,70,00,000,,73,21,043,*60,1606990063481
NMEA,$GLGSV,3,3,10,84,34,106,,83,16,045,*65,1606990063481
NMEA,$GAGSV,2,1,07,02,04,257,,03,27,312,,05,65,248,,09,35,168,*64,1606990063482
NMEA,$GAGSV,2,2,07,24,45,015,,25,42,293,,33,01,046,*56,1606990063482
NMEA,$PQGSV,1,1,03,193,35,171,32,195,50,126,19,194,60,033,,0,5*6D,1606990063482
NMEA,$PQGSV,4,1,16,06,78,143,28,07,68,312,29,09,70,323,31,10,52,265,26,0,4*63,1606990063482
NMEA,$PQGSV,4,2,16,12,11,187,32,16,82,147,31,21,28,196,36,24,23,299,33,0,4*6C,1606990063483
NMEA,$PQGSV,4,3,16,01,52,129,,02,40,240,,03,58,202,,04,37,115,,0,4*6C,1606990063483
NMEA,$PQGSV,4,4,16,05,16,255,,08,00,000,,14,27,288,,26,49,354,,0,4*6D,1606990063483
NMEA,$GNGSA,A,3,03,04,08,16,22,26,27,,,,,,1.5,1.2,0.9,1*36,1606990063484
NMEA,$GNGSA,A,2,65,71,72,,,,,,,,,,1.5,1.2,0.9,2*3D,1606990063484
NMEA,$PQGSA,A,2,21,,,,,,,,,,,,1.5,1.2,0.9,4*30,1606990063484
NMEA,$GNVTG,,T,,M,0.0,N,0.0,K,A*3D,1606990063484
NMEA,$GNRMC,100744.00,A,2255.528456,N,12017.680304,E,0.0,,031220,2.8,W,A*1D,1606990063484
NMEA,$GNGGA,100744.00,2255.528456,N,12017.680304,E,1,11,1.2,34.2,M,17.5,M,,*45,1606990063484
Fix,gps,22.925474,120.294672,51.700195,0.000000,4.288000,1606990065000
Raw,19568585,19572933000000,,,-1291005709499516672,0.0,53.200034017208964,-1.8643650762729524,11.873109717074014,973,10,0.0,207,47264361898327,24,25.3,26.717926025390625,0.583299994468689,0,0.0,0.0,,,,,0,,3,,
Raw,19568586,19572933000000,,,-1291005709499516672,0.0,53.200034017208964,-1.8643650762729524,11.873109717074014,973,11,0.0,207,47264359760471,27,24.6,-130.67282104492188,0.8149999976158142,0,0.0,0.0,,,,,0,,3,,
Raw,19568587,19572933000000,,,-1291005709499516672,0.0,53.200034017208964,-1.8643650762729524,11.873109717074014,973,9,0.0,207,47264357813536,1001,15.6,258.8229064941406,2.9820001125335693,0,0.0,0.0,,,,,0,,3,,
Raw,19568587,19572933000000,,,-1291005709499516672,0.0,53.200034017208964,-1.8643650762729524,11.873109717074014,973,1,0.0,207,47264356875322,17,28.7,-477.2081298828125,0.2573000192642212,0,0.0,0.0,,,,,0,,3,,
Raw,19568588,19572933000000,,,-1291005709499516672,0.0,53.200034017208964,-1.8643650762729524,11.873109717074014,973,21,0.0,207,47264354548161,656,18.7,-741.72119140625,2.7175002098083496,0,0.0,0.0,,,,,0,,3,,
Raw,19568589,19572933000000,,,-1291005709499516672,0.0,53.200034017208964,-1.8643650762729524,11.873109717074014,973,7,0.0,207,47264362304365,21,26.2,638.2091064453125,0.3141999840736389,0,0.0,0.0,,,,,0,,3,,
Raw,19568589,19572933000000,,,-1291005709499516672,0.0,53.200034017208964,-1.8643650762729524,11.873109717074014,973,8,0.0,207,47264364275454,21,26.0,21.120046615600586,0.3172000050544739,0,0.0,0.0,,,,,0,,3,,
Raw,19568590,19572933000000,,,-1291005709499516672,0.0,53.200034017208964,-1.8643650762729524,11.873109717074014,973,3,0.0,15,382082352402147,21,27.7,219.03753662109375,1.1054999828338623,0,0.0,0.0,,,,,0,,1,,
Raw,19568590,19572933000000,,,-1291005709499516672,0.0,53.200034017208964,-1.8643650762729524,11.873109717074014,973,4,0.0,15,382082356276722,19,27.6,-552.6040649414062,0.06530000269412994,0,0.0,0.0,,,,,0,,1,,
Raw,19568591,19572933000000,,,-1291005709499516672,0.0,53.200034017208964,-1.8643650762729524,11.873109717074014,973,8,0.0,15,382082351244249,10,34.0,-722.5192260742188,0.038600001484155655,0,0.0,0.0,,,,,0,,1,,
Raw,19568592,19572933000000,,,-1291005709499516672,0.0,53.200034017208964,-1.8643650762729524,11.873109717074014,973,16,0.0,15,382082363723685,11,33.2,3.0100250244140625,0.027400000020861626,0,0.0,0.0,,,,,0,,1,,
Raw,19568592,19572933000000,,,-1291005709499516672,0.0,53.200034017208964,-1.8643650762729524,11.873109717074014,973,22,0.0,15,382082351151146,24,25.8,280.742431640625,0.3982999920845032,0,0.0,0.0,,,,,0,,1,,
Raw,19568593,19572933000000,,,-1291005709499516672,0.0,53.200034017208964,-1.8643650762729524,11.873109717074014,973,26,0.0,15,382082362041876,21,26.4,293.1015625,0.11420000344514847,0,0.0,0.0,,,,,0,,1,,
Raw,19568594,19572933000000,,,-1291005709499516672,0.0,53.200034017208964,-1.8643650762729524,11.873109717074014,973,27,0.0,15,382082360544463,9,35.0,-581.3106689453125,0.02160000056028366,0,0.0,0.0,,,,,0,,1,,
Raw,19568594,19572933000000,,,-1291005709499516672,0.0,53.200034017208964,-1.8643650762729524,11.873109717074014,973,29,0.0,15,382082348941043,753,17.7,599.9863891601562,2.438499927520752,0,0.0,0.0,,,,,0,,1,,
Raw,19568595,19572933000000,,,-1291005709499516672,0.0,53.200034017208964,-1.8643650762729524,11.873109717074014,973,32,0.0,15,382082354481138,753,17.9,664.6101684570312,2.447499990463257,0,0.0,0.0,,,,,0,,1,,
Raw,19568595,19572933000000,,,-1291005709499516672,0.0,53.200034017208964,-1.8643650762729524,11.873109717074014,973,2,0.0,783,382068307489204,29,27.6,1.4787040948867798,2.330000162124634,0,0.0,0.0,,,,,0,,5,,
Raw,19568596,19572933000000,,,-1291005709499516672,0.0,53.200034017208964,-1.8643650762729524,11.873109717074014,973,3,0.0,783,382068310782481,18,28.3,1.0562171936035156,0.8485000133514404,0,0.0,0.0,,,,,0,,5,,
Raw,19568597,19572933000000,,,-1291005709499516672,0.0,53.200034017208964,-1.8643650762729524,11.873109717074014,973,6,0.0,15,382068313287604,354,27.5,12.280925750732422,69.66000366210938,0,0.0,0.0,,,,,0,,5,,
Raw,19568597,19572933000000,,,-1291005709499516672,0.0,53.200034017208964,-1.8643650762729524,11.873109717074014,973,7,0.0,15,382068310740259,336,29.1,67.02178192138672,69.56849670410156,0,0.0,0.0,,,,,0,,5,,
Raw,19568598,19572933000000,,,-1291005709499516672,0.0,53.200034017208964,-1.8643650762729524,11.873109717074014,973,9,0.0,15,382068313019515,334,30.5,-93.6960678100586,69.56999969482422,0,0.0,0.0,,,,,0,,5,,
Raw,19568599,19572933000000,,,-1291005709499516672,0.0,53.200034017208964,-1.8643650762729524,11.873109717074014,973,10,0.0,15,382068308162651,27,24.5,33.80855178833008,0.5885000228881836,0,0.0,0.0,,,,,0,,5,,
Raw,19568599,19572933000000,,,-1291005709499516672,0.0,53.200034017208964,-1.8643650762729524,11.873109717074014,973,12,0.0,15,382068347235566,32,34.2,-608.2562866210938,67.6500015258789,0,0.0,0.0,,,,,0,,5,,
Raw,19568600,19572933000000,,,-1291005709499516672,0.0,53.200034017208964,-1.8643650762729524,11.873109717074014,973,16,0.0,15,382068312631588,397,30.7,23.86090660095215,69.95850372314453,0,0.0,0.0,,,,,0,,5,,
Raw,19568601,19572933000000,,,-1291005709499516672,0.0,53.200034017208964,-1.8643650762729524,11.873109717074014,973,21,0.0,15,382068350511462,186,36.0,526.0825805664062,68.66850280761719,0,0.0,0.0,,,,,0,,5,,
Raw,19568602,19572933000000,,,-1291005709499516672,0.0,53.200034017208964,-1.8643650762729524,11.873109717074014,973,24,0.0,15,382068349659431,204,32.8,-259.5798034667969,68.75849914550781,0,0.0,0.0,,,,,0,,5,,
NMEA,$GPGSV,3,1,11,03,16,264,28,04,29,317,28,08,11,202,34,16,59,299,33*73,1606990064482
NMEA,$GPGSV,3,2,11,22,15,243,26,26,52,008,26,27,43,185,35,29,07,036,18*7A,1606990064482
NMEA,$GPGSV,3,3,11,32,21,151,18,18,05,090,,31,42,066,*46,1606990064482
NMEA,$GLGSV,3,1,10,74,36,347,25,75,00,000,25,73,21,043,16,65,18,319,29*6F,1606990064482
NMEA,$GLGSV,3,2,10,85,12,165,19,71,38,205,26,72,47,279,26,70,00,000,*66,1606990064483
NMEA,$GLGSV,3,3,10,84,34,106,,83,16,045,*65,1606990064485
NMEA,$GAGSV,2,1,07,02,04,258,,03,27,312,,05,65,247,,09,34,168,*65,1606990064485
NMEA,$GAGSV,2,2,07,24,45,016,,25,42,295,,33,01,045,*50,1606990064486
NMEA,$PQGSV,1,1,03,193,34,171,33,195,51,126,19,194,60,033,,0,5*6C,1606990064486
NMEA,$PQGSV,4,1,16,02,40,240,28,03,58,202,28,06,78,146,28,07,68,312,29,0,4*65,1606990064486
NMEA,$PQGSV,4,2,16,09,70,322,31,10,51,265,25,12,12,185,34,16,82,150,31,0,4*66,1606990064487
NMEA,$PQGSV,4,3,16,21,27,196,36,24,24,299,33,01,52,129,,04,37,115,,0,4*6D,1606990064487
NMEA,$PQGSV,4,4,16,05,16,255,,08,00,000,,14,27,286,,26,49,355,,0,4*62,1606990064488
NMEA,$GNGSA,A,3,03,04,08,16,22,26,27,,,,,,1.3,1.0,0.8,1*33,1606990064490
NMEA,$GNGSA,A,2,65,71,72,,,,,,,,,,1.3,1.0,0.8,2*38,1606990064490
NMEA,$PQGSA,A,2,21,,,,,,,,,,,,1.3,1.0,0.8,4*35,1606990064490
NMEA,$GNVTG,,T,,M,0.0,N,0.0,K,A*3D,1606990064490
NMEA,$GNRMC,100745.00,A,2255.528456,N,12017.680303,E,0.0,,031220,2.8,W,A*1B,1606990064491
NMEA,$GNGGA,100745.00,2255.528456,N,12017.680303,E,1,11,1.0,34.2,M,17.5,M,,*41,1606990064491
Fix,gps,22.925474,120.294672,51.702759,0.000000,4.288000,1606990066000
Raw,19569551,19573933000000,,,-1291005709499516672,0.0,51.491013437043875,-2.1502675974843664,11.21073474886709,973,10,0.0,207,47265361898277,24,25.5,26.66118049621582,0.583299994468689,0,0.0,0.0,,,,,0,,3,,
Raw,19569551,19573933000000,,,-1291005709499516672,0.0,51.491013437043875,-2.1502675974843664,11.21073474886709,973,11,0.0,207,47265359760786,61,18.2,-132.19129943847656,1.1950000524520874,0,0.0,0.0,,,,,0,,3,,
Raw,19569552,19573933000000,,,-1291005709499516672,0.0,51.491013437043875,-2.1502675974843664,11.21073474886709,973,9,0.0,207,47265357812723,1161,14.1,258.75738525390625,3.832000255584717,0,0.0,0.0,,,,,0,,3,,
Raw,19569552,19573933000000,,,-1291005709499516672,0.0,51.491013437043875,-2.1502675974843664,11.21073474886709,973,1,0.0,207,47265356876927,16,29.8,-478.31634521484375,0.2506999969482422,0,0.0,0.0,,,,,0,,3,,
Raw,19569552,19573933000000,,,-1291005709499516672,0.0,51.491013437043875,-2.1502675974843664,11.21073474886709,973,21,0.0,207,47265354550657,664,18.7,-741.7025146484375,3.4675002098083496,0,0.0,0.0,,,,,0,,3,,
Raw,19569552,19573933000000,,,-1291005709499516672,0.0,51.491013437043875,-2.1502675974843664,11.21073474886709,973,7,0.0,207,47265362302204,17,28.6,636.9522094726562,0.2363000065088272,0,0.0,0.0,,,,,0,,3,,
Raw,19569553,19573933000000,,,-1291005709499516672,0.0,51.491013437043875,-2.1502675974843664,11.21073474886709,973,8,0.0,207,47265364275680,70,17.3,20.67244529724121,1.2825000286102295,0,0.0,0.0,,,,,0,,3,,
Raw,19569553,19573933000000,,,-1291005709499516672,0.0,51.491013437043875,-2.1502675974843664,11.21073474886709,973,3,0.0,15,382083352401427,40,21.2,217.5151824951172,0.8644999861717224,0,0.0,0.0,,,,,0,,1,,
Raw,19569553,19573933000000,,,-1291005709499516672,0.0,51.491013437043875,-2.1502675974843664,11.21073474886709,973,4,0.0,15,382083356278453,24,25.7,-553.8117065429688,0.6004999876022339,0,0.0,0.0,,,,,0,,1,,
Raw,19569553,19573933000000,,,-1291005709499516672,0.0,51.491013437043875,-2.1502675974843664,11.21073474886709,973,8,0.0,15,382083351246675,10,34.4,-723.6111450195312,0.038600001484155655,0,0.0,0.0,,,,,0,,1,,
Raw,19569554,19573933000000,,,-1291005709499516672,0.0,51.491013437043875,-2.1502675974843664,11.21073474886709,973,16,0.0,15,382083363723690,14,30.5,1.994017481803894,0.030300000682473183,0,0.0,0.0,,,,,0,,1,,
Raw,19569554,19573933000000,,,-1291005709499516672,0.0,51.491013437043875,-2.1502675974843664,11.21073474886709,973,22,0.0,15,382083351150174,21,26.4,279.3760070800781,0.12770000100135803,0,0.0,0.0,,,,,0,,1,,
Raw,19569554,19573933000000,,,-1291005709499516672,0.0,51.491013437043875,-2.1502675974843664,11.21073474886709,973,26,0.0,15,382083362040942,27,24.9,291.77728271484375,0.6195000410079956,0,0.0,0.0,,,,,0,,1,,
Raw,19569554,19573933000000,,,-1291005709499516672,0.0,51.491013437043875,-2.1502675974843664,11.21073474886709,973,27,0.0,15,382083360546420,9,35.0,-582.3515014648438,0.02160000056028366,0,0.0,0.0,,,,,0,,1,,
Raw,19569554,19573933000000,,,-1291005709499516672,0.0,51.491013437043875,-2.1502675974843664,11.21073474886709,973,29,0.0,15,382083348939008,761,18.1,600.4526977539062,3.188499927520752,0,0.0,0.0,,,,,0,,1,,
Raw,19569555,19573933000000,,,-1291005709499516672,0.0,51.491013437043875,-2.1502675974843664,11.21073474886709,973,32,0.0,15,382083354478935,761,17.8,664.0868530273438,3.197499990463257,0,0.0,0.0,,,,,0,,1,,
Raw,19569555,19573933000000,,,-1291005709499516672,0.0,51.491013437043875,-2.1502675974843664,11.21073474886709,973,2,0.0,783,382069307489199,48,27.6,1.4787040948867798,3.830000162124634,0,0.0,0.0,,,,,0,,5,,
Raw,19569555,19573933000000,,,-1291005709499516672,0.0,51.491013437043875,-2.1502675974843664,11.21073474886709,973,3,0.0,783,382069310782499,18,28.5,-3.7159643173217773,0.6234999895095825,0,0.0,0.0,,,,,0,,5,,
Raw,19569555,19573933000000,,,-1291005709499516672,0.0,51.491013437043875,-2.1502675974843664,11.21073474886709,973,6,0.0,15,382069313287536,20,27.0,12.117691993713379,0.9440000057220459,0,0.0,0.0,,,,,0,,5,,
Raw,19569555,19573933000000,,,-1291005709499516672,0.0,51.491013437043875,-2.1502675974843664,11.21073474886709,973,7,0.0,15,382069310740001,15,30.3,66.44566345214844,0.8585000038146973,0,0.0,0.0,,,,,0,,5,,
Raw,19569556,19573933000000,,,-1291005709499516672,0.0,51.491013437043875,-2.1502675974843664,11.21073474886709,973,8,0.0,15,382069293175466,53,19.6,-117.8834457397461,1.034000039100647,0,0.0,0.0,,,,,0,,5,,
Raw,19569556,19573933000000,,,-1291005709499516672,0.0,51.491013437043875,-2.1502675974843664,11.21073474886709,973,9,0.0,15,382069313019799,17,29.9,-94.10895538330078,0.8540000319480896,0,0.0,0.0,,,,,0,,5,,
Raw,19569556,19573933000000,,,-1291005709499516672,0.0,51.491013437043875,-2.1502675974843664,11.21073474886709,973,10,0.0,15,382069308162532,40,21.7,33.83735656738281,0.7384999990463257,0,0.0,0.0,,,,,0,,5,,
Raw,19569556,19573933000000,,,-1291005709499516672,0.0,51.491013437043875,-2.1502675974843664,11.21073474886709,973,12,0.0,15,382069347237595,264,34.2,-608.2562866210938,69.1500015258789,0,0.0,0.0,,,,,0,,5,,
Raw,19569557,19573933000000,,,-1291005709499516672,0.0,51.491013437043875,-2.1502675974843664,11.21073474886709,973,14,0.0,15,382069350852099,19,27.8,-50.66460418701172,0.03830000013113022,0,0.0,0.0,,,,,0,,5,,
Raw,19569557,19573933000000,,,-1291005709499516672,0.0,51.491013437043875,-2.1502675974843664,11.21073474886709,973,16,0.0,15,382069312631511,18,28.3,23.668867111206055,0.905500054359436,0,0.0,0.0,,,,,0,,5,,
Raw,19569557,19573933000000,,,-1291005709499516672,0.0,51.491013437043875,-2.1502675974843664,11.21073474886709,973,21,0.0,15,382069350509697,11,34.5,525.7849731445312,0.7585000395774841,0,0.0,0.0,,,,,0,,5,,
Raw,19569557,19573933000000,,,-1291005709499516672,0.0,51.491013437043875,-2.1502675974843664,11.21073474886709,973,24,0.0,15,382069349660317,15,30.1,-260.4727478027344,0.9350000023841858,0,0.0,0.0,,,,,0,,5,,
NMEA,$GPGSV,3,1,11,03,16,264,21,04,29,317,26,08,11,202,34,16,59,299,31*76,1606990065478
NMEA,$GPGSV,3,2,11,22,15,243,26,26,52,008,25,27,43,185,35,29,07,036,18*79,1606990065479
NMEA,$GPGSV,3,3,11,32,21,151,18,18,05,090,,31,42,066,*46,1606990065479
NMEA,$GLGSV,3,1,10,74,36,347,26,75,00,000,18,73,21,043,14,65,18,319,30*68,1606990065479
NMEA,$GLGSV,3,2,10,85,12,165,19,71,38,205,29,72,47,279,17,70,00,000,*6B,1606990065479
NMEA,$GLGSV,3,3,10,84,34,106,,83,16,045,*65,1606990065479
NMEA,$GAGSV,2,1,07,02,04,258,,03,27,312,,05,65,247,,09,34,168,*65,1606990065479
NMEA,$GAGSV,2,2,07,24,45,016,,25,42,295,,33,01,045,*50,1606990065479
NMEA,$PQGSV,1,1,03,193,34,171,33,195,51,126,20,194,60,033,,0,5*66,1606990065479
NMEA,$PQGSV,4,1,16,02,40,240,28,03,58,202,29,06,78,146,27,07,68,312,30,0,4*63,1606990065479
NMEA,$PQGSV,4,2,16,08,00,000,20,09,70,322,30,10,51,265,22,12,12,185,34,0,4*61,1606990065479
NMEA,$PQGSV,4,3,16,14,27,286,28,16,82,150,28,21,27,196,35,24,24,299,30,0,4*61,1606990065480
NMEA,$PQGSV,4,4,16,01,52,129,,04,37,115,,05,16,255,,26,49,355,,0,4*6F,1606990065480
NMEA,$GNGSA,A,3,03,04,08,16,22,26,27,32,,,,,1.3,1.0,0.8,1*32,1606990065480
NMEA,$GNGSA,A,2,65,71,72,,,,,,,,,,1.3,1.0,0.8,2*38,1606990065481
NMEA,$PQGSA,A,2,21,,,,,,,,,,,,1.3,1.0,0.8,4*35,1606990065481
NMEA,$GNVTG,,T,,M,0.0,N,0.0,K,A*3D,1606990065481
NMEA,$GNRMC,100746.00,A,2255.528456,N,12017.680303,E,0.0,,031220,2.8,W,A*18,1606990065481
NMEA,$GNGGA,100746.00,2255.528456,N,12017.680303,E,1,12,1.0,34.2,M,17.5,M,,*41,1606990065481
NMEA,$GPGSV,3,1,11,03,16,264,26,04,29,317,21,08,11,202,34,16,59,299,33*74,1606990066480
Raw,19570552,19574933000000,,,-1291005709499516672,0.0,54.03725663200021,-5.390761794324964,15.237589068036808,973,10,0.0,207,47266361898300,24,25.4,25.71845054626465,0.583299994468689,0,0.0,0.0,,,,,0,,3,,
Raw,19570552,19574933000000,,,-1291005709499516672,0.0,54.03725663200021,-5.390761794324964,15.237589068036808,973,11,0.0,207,47266359761457,21,26.1,-131.56288146972656,0.30970001220703125,0,0.0,0.0,,,,,0,,3,,
Raw,19570553,19574933000000,,,-1291005709499516672,0.0,54.03725663200021,-5.390761794324964,15.237589068036808,973,9,0.0,207,47266357811860,1179,14.1,258.6356506347656,4.957000255584717,0,0.0,0.0,,,,,0,,3,,
Raw,19570553,19574933000000,,,-1291005709499516672,0.0,54.03725663200021,-5.390761794324964,15.237589068036808,973,1,0.0,207,47266356878356,12,32.1,-478.1126708984375,0.24790000915527344,0,0.0,0.0,,,,,0,,3,,
Raw,19570554,19574933000000,,,-1291005709499516672,0.0,54.03725663200021,-5.390761794324964,15.237589068036808,973,21,0.0,207,47266354553148,675,18.7,-742.0015258789062,4.21750020980835,0,0.0,0.0,,,,,0,,3,,
Raw,19570554,19574933000000,,,-1291005709499516672,0.0,54.03725663200021,-5.390761794324964,15.237589068036808,973,7,0.0,207,47266362300067,14,30.3,637.2440185546875,0.2287999987602234,0,0.0,0.0,,,,,0,,3,,
Raw,19570555,19574933000000,,,-1291005709499516672,0.0,54.03725663200021,-5.390761794324964,15.237589068036808,973,8,0.0,207,47266364275339,40,21.5,20.448352813720703,0.9924999475479126,0,0.0,0.0,,,,,0,,3,,
Raw,19570555,19574933000000,,,-1291005709499516672,0.0,54.03725663200021,-5.390761794324964,15.237589068036808,973,3,0.0,15,382084352400748,21,26.1,217.15362548828125,0.5945000052452087,0,0.0,0.0,,,,,0,,1,,
Raw,19570555,19574933000000,,,-1291005709499516672,0.0,54.03725663200021,-5.390761794324964,15.237589068036808,973,4,0.0,15,382084356280394,40,21.3,-553.8117065429688,0.8704999685287476,0,0.0,0.0,,,,,0,,1,,
Raw,19570556,19574933000000,,,-1291005709499516672,0.0,54.03725663200021,-5.390761794324964,15.237589068036808,973,8,0.0,15,382084351249090,11,33.9,-723.5557250976562,0.039400000125169754,0,0.0,0.0,,,,,0,,1,,
Raw,19570556,19574933000000,,,-1291005709499516672,0.0,54.03725663200021,-5.390761794324964,15.237589068036808,973,16,0.0,15,382084363723665,12,32.7,2.10526967048645,0.0284000001847744,0,0.0,0.0,,,,,0,,1,,
Raw,19570556,19574933000000,,,-1291005709499516672,0.0,54.03725663200021,-5.390761794324964,15.237589068036808,973,22,0.0,15,382084351149275,16,29.8,279.7031555175781,0.43299999833106995,0,0.0,0.0,,,,,0,,1,,
Raw,19570557,19574933000000,,,-1291005709499516672,0.0,54.03725663200021,-5.390761794324964,15.237589068036808,973,26,0.0,15,382084362039960,31,23.9,292.357666015625,0.6694999933242798,0,0.0,0.0,,,,,0,,1,,
Raw,19570557,19574933000000,,,-1291005709499516672,0.0,54.03725663200021,-5.390761794324964,15.237589068036808,973,27,0.0,15,382084360548340,8,36.1,-582.2079467773438,0.02120000123977661,0,0.0,0.0,,,,,0,,1,,
Raw,19570558,19574933000000,,,-1291005709499516672,0.0,54.03725663200021,-5.390761794324964,15.237589068036808,973,29,0.0,15,382084348937011,771,17.5,600.5953979492188,3.938500165939331,0,0.0,0.0,,,,,0,,1,,
Raw,19570558,19574933000000,,,-1291005709499516672,0.0,54.03725663200021,-5.390761794324964,15.237589068036808,973,31,0.0,15,382084359243811,1169,14.6,158.68589782714844,4.235000133514404,0,0.0,0.0,,,,,0,,1,,
Raw,19570558,19574933000000,,,-1291005709499516672,0.0,54.03725663200021,-5.390761794324964,15.237589068036808,973,32,0.0,15,382084354476716,672,18.5,664.2295532226562,3.867500066757202,0,0.0,0.0,,,,,0,,1,,
Raw,19570559,19574933000000,,,-1291005709499516672,0.0,54.03725663200021,-5.390761794324964,15.237589068036808,973,2,0.0,783,382070307489183,45,21.0,5.12745475769043,1.8350000381469727,0,0.0,0.0,,,,,0,,5,,
Raw,19570559,19574933000000,,,-1291005709499516672,0.0,54.03725663200021,-5.390761794324964,15.237589068036808,973,3,0.0,783,382070310782523,17,28.0,-5.319494247436523,0.44350001215934753,0,0.0,0.0,,,,,0,,5,,
Raw,19570560,19574933000000,,,-1291005709499516672,0.0,54.03725663200021,-5.390761794324964,15.237589068036808,973,6,0.0,15,382070313287497,24,25.9,12.17851734161377,0.40130001306533813,0,0.0,0.0,,,,,0,,5,,
Raw,19570560,19574933000000,,,-1291005709499516672,0.0,54.03725663200021,-5.390761794324964,15.237589068036808,973,7,0.0,15,382070310739776,17,28.3,66.70930480957031,0.04830000177025795,0,0.0,0.0,,,,,0,,5,,
Raw,19570560,19574933000000,,,-1291005709499516672,0.0,54.03725663200021,-5.390761794324964,15.237589068036808,973,8,0.0,15,382070293175818,46,20.3,-117.31693267822266,0.8059999942779541,0,0.0,0.0,,,,,0,,5,,
Raw,19570561,19574933000000,,,-1291005709499516672,0.0,54.03725663200021,-5.390761794324964,15.237589068036808,973,9,0.0,15,382070313020122,17,28.1,-93.774658203125,0.052799999713897705,0,0.0,0.0,,,,,0,,5,,
Raw,19570561,19574933000000,,,-1291005709499516672,0.0,54.03725663200021,-5.390761794324964,15.237589068036808,973,10,0.0,15,382070308162427,31,23.7,32.80034637451172,0.6285000443458557,0,0.0,0.0,,,,,0,,5,,
Raw,19570561,19574933000000,,,-1291005709499516672,0.0,54.03725663200021,-5.390761794324964,15.237589068036808,973,12,0.0,15,382070347239623,10,34.0,-608.882080078125,0.0536000020802021,0,0.0,0.0,,,,,0,,5,,
Raw,19570562,19574933000000,,,-1291005709499516672,0.0,54.03725663200021,-5.390761794324964,15.237589068036808,973,14,0.0,15,382070350852260,21,26.2,-50.8367805480957,0.12620000541210175,0,0.0,0.0,,,,,0,,5,,
Raw,19570562,19574933000000,,,-1291005709499516672,0.0,54.03725663200021,-5.390761794324964,15.237589068036808,973,16,0.0,15,382070312631427,17,28.0,23.716402053833008,0.05130000039935112,0,0.0,0.0,,,,,0,,5,,
Raw,19570563,19574933000000,,,-1291005709499516672,0.0,54.03725663200021,-5.390761794324964,15.237589068036808,973,21,0.0,15,382070350507951,8,36.5,525.7782592773438,0.03620000183582306,0,0.0,0.0,,,,,0,,5,,
Raw,19570563,19574933000000,,,-1291005709499516672,0.0,54.03725663200021,-5.390761794324964,15.237589068036808,973,24,0.0,15,382070349661143,17,28.4,-260.0216064453125,0.046800002455711365,0,0.0,0.0,,,,,0,,5,,
Fix,gps,22.925474,120.294672,51.719666,0.000000,5.360000,1606990067000
NMEA,$GPGSV,3,2,11,22,15,243,30,26,52,008,24,27,43,185,36,29,07,036,18*7C,1606990066481
NMEA,$GPGSV,3,3,11,31,42,066,15,32,21,151,19,18,05,090,*43,1606990066481
NMEA,$GLGSV,3,1,10,74,36,347,25,75,00,000,26,73,21,043,14,65,18,319,32*64,1606990066481
NMEA,$GLGSV,3,2,10,85,12,165,19,71,38,205,30,72,47,279,22,70,00,000,*65,1606990066481
NMEA,$GLGSV,3,3,10,84,34,106,,83,16,045,*65,1606990066481
NMEA,$GAGSV,2,1,07,02,04,258,,03,27,312,,05,65,247,,09,34,168,*65,1606990066481
NMEA,$GAGSV,2,2,07,24,45,016,,25,42,295,,33,01,045,*50,1606990066481
NMEA,$PQGSV,1,1,03,193,34,171,34,195,51,126,20,194,60,033,,0,5*61,1606990066482
NMEA,$PQGSV,4,1,16,02,40,240,21,03,58,202,28,06,78,146,26,07,68,312,28,0,4*63,1606990066483
NMEA,$PQGSV,4,2,16,08,00,000,20,09,70,322,28,10,51,265,24,12,12,185,34,0,4*6E,1606990066483
NMEA,$PQGSV,4,3,16,14,27,286,26,16,82,150,28,21,27,196,37,24,24,299,28,0,4*64,1606990066483
NMEA,$PQGSV,4,4,16,01,52,129,,04,37,115,,05,16,255,,26,49,355,,0,4*6F,1606990066484
NMEA,$GNGSA,A,3,03,04,08,16,22,26,27,32,,,,,1.3,1.0,0.8,1*32,1606990066485
NMEA,$GNGSA,A,2,65,71,72,,,,,,,,,,1.3,1.0,0.8,2*38,1606990066485
NMEA,$PQGSA,A,2,21,,,,,,,,,,,,1.3,1.0,0.8,4*35,1606990066485
NMEA,$GNVTG,,T,,M,0.0,N,0.0,K,A*3D,1606990066485
NMEA,$GNRMC,100747.00,A,2255.528451,N,12017.680298,E,0.0,,031220,2.8,W,A*1D,1606990066485
NMEA,$GNGGA,100747.00,2255.528451,N,12017.680298,E,1,12,1.0,34.3,M,17.5,M,,*45,1606990066486
Fix,gps,22.925474,120.294672,51.736511,0.000000,5.360000,1606990068000
Raw,19571583,19575933000000,,,-1291005709499516672,0.0,58.6992027820088,-5.575248576622646,13.98094680601368,973,10,0.0,207,47267361898075,21,26.8,25.874324798583984,0.3127000033855438,0,0.0,0.0,,,,,0,,3,,
Raw,19571584,19575933000000,,,-1291005709499516672,0.0,58.6992027820088,-5.575248576622646,13.98094680601368,973,11,0.0,207,47267359761883,21,26.6,-131.44166564941406,0.30970001220703125,0,0.0,0.0,,,,,0,,3,,
Raw,19571584,19575933000000,,,-1291005709499516672,0.0,58.6992027820088,-5.575248576622646,13.98094680601368,973,9,0.0,207,47267357810998,1212,14.1,258.6356506347656,6.457000255584717,0,0.0,0.0,,,,,0,,3,,
Raw,19571585,19575933000000,,,-1291005709499516672,0.0,58.6992027820088,-5.575248576622646,13.98094680601368,973,1,0.0,207,47267356879956,11,33.5,-477.8866882324219,0.24690000712871552,0,0.0,0.0,,,,,0,,3,,
Raw,19571586,19575933000000,,,-1291005709499516672,0.0,58.6992027820088,-5.575248576622646,13.98094680601368,973,21,0.0,207,47267354555637,689,18.3,-741.9734497070312,4.96750020980835,0,0.0,0.0,,,,,0,,3,,
Raw,19571586,19575933000000,,,-1291005709499516672,0.0,58.6992027820088,-5.575248576622646,13.98094680601368,973,7,0.0,207,47267362297908,17,28.9,637.3823852539062,0.2363000065088272,0,0.0,0.0,,,,,0,,3,,
Raw,19571587,19575933000000,,,-1291005709499516672,0.0,58.6992027820088,-5.575248576622646,13.98094680601368,973,8,0.0,207,47267364275259,24,25.2,20.4255313873291,0.5877999663352966,0,0.0,0.0,,,,,0,,3,,
Raw,19571587,19575933000000,,,-1291005709499516672,0.0,58.6992027820088,-5.575248576622646,13.98094680601368,973,3,0.0,15,382085352399965,24,25.2,217.5767059326172,0.39980000257492065,0,0.0,0.0,,,,,0,,1,,
Raw,19571588,19575933000000,,,-1291005709499516672,0.0,58.6992027820088,-5.575248576622646,13.98094680601368,973,4,0.0,15,382085356282242,48,21.3,-553.8117065429688,2.370500087738037,0,0.0,0.0,,,,,0,,1,,
Raw,19571589,19575933000000,,,-1291005709499516672,0.0,58.6992027820088,-5.575248576622646,13.98094680601368,973,8,0.0,15,382085351251491,10,34.7,-723.4227294921875,0.038600001484155655,0,0.0,0.0,,,,,0,,1,,
Raw,19571589,19575933000000,,,-1291005709499516672,0.0,58.6992027820088,-5.575248576622646,13.98094680601368,973,16,0.0,15,382085363723664,9,35.6,2.3161468505859375,0.026100000366568565,0,0.0,0.0,,,,,0,,1,,
Raw,19571590,19575933000000,,,-1291005709499516672,0.0,58.6992027820088,-5.575248576622646,13.98094680601368,973,22,0.0,15,382085351148326,12,32.3,280.1030578613281,0.040400002151727676,0,0.0,0.0,,,,,0,,1,,
Raw,19571591,19575933000000,,,-1291005709499516672,0.0,58.6992027820088,-5.575248576622646,13.98094680601368,973,26,0.0,15,382085362038970,46,20.3,292.64312744140625,0.9194999933242798,0,0.0,0.0,,,,,0,,1,,
Raw,19571591,19575933000000,,,-1291005709499516672,0.0,58.6992027820088,-5.575248576622646,13.98094680601368,973,27,0.0,15,382085360550262,8,36.9,-582.0203247070312,0.02120000123977661,0,0.0,0.0,,,,,0,,1,,
Raw,19571592,19575933000000,,,-1291005709499516672,0.0,58.6992027820088,-5.575248576622646,13.98094680601368,973,29,0.0,15,382085348935012,898,16.5,600.5668334960938,4.778500080108643,0,0.0,0.0,,,,,0,,1,,
Raw,19571592,19575933000000,,,-1291005709499516672,0.0,58.6992027820088,-5.575248576622646,13.98094680601368,973,31,0.0,15,382085359243300,1030,15.6,158.486083984375,4.885000228881836,0,0.0,0.0,,,,,0,,1,,
Raw,19571593,19575933000000,,,-1291005709499516672,0.0,58.6992027820088,-5.575248576622646,13.98094680601368,973,32,0.0,15,382085354474506,783,18.3,664.2676391601562,4.697500228881836,0,0.0,0.0,,,,,0,,1,,
Raw,19571593,19575933000000,,,-1291005709499516672,0.0,58.6992027820088,-5.575248576622646,13.98094680601368,973,2,0.0,783,382071307489166,59,21.0,5.12745475769043,3.3350000381469727,0,0.0,0.0,,,,,0,,5,,
Raw,19571594,19575933000000,,,-1291005709499516672,0.0,58.6992027820088,-5.575248576622646,13.98094680601368,973,3,0.0,783,382071310782540,24,28.0,-5.319494247436523,1.94350004196167,0,0.0,0.0,,,,,0,,5,,
Raw,19571594,19575933000000,,,-1291005709499516672,0.0,58.6992027820088,-5.575248576622646,13.98094680601368,973,6,0.0,15,382071313287443,24,25.2,12.585799217224121,0.40130001306533813,0,0.0,0.0,,,,,0,,5,,
Raw,19571595,19575933000000,,,-1291005709499516672,0.0,58.6992027820088,-5.575248576622646,13.98094680601368,973,7,0.0,15,382071310739562,16,29.0,66.82758331298828,0.04170000180602074,0,0.0,0.0,,,,,0,,5,,
Raw,19571596,19575933000000,,,-1291005709499516672,0.0,58.6992027820088,-5.575248576622646,13.98094680601368,973,8,0.0,15,382071293176248,61,18.4,-117.94105529785156,0.9359999895095825,0,0.0,0.0,,,,,0,,5,,
Raw,19571596,19575933000000,,,-1291005709499516672,0.0,58.6992027820088,-5.575248576622646,13.98094680601368,973,9,0.0,15,382071313020445,17,28.8,-93.73970031738281,0.052799999713897705,0,0.0,0.0,,,,,0,,5,,
Raw,19571597,19575933000000,,,-1291005709499516672,0.0,58.6992027820088,-5.575248576622646,13.98094680601368,973,10,0.0,15,382071308162305,19,27.2,32.70433807373047,0.053300000727176666,0,0.0,0.0,,,,,0,,5,,
Raw,19571597,19575933000000,,,-1291005709499516672,0.0,58.6992027820088,-5.575248576622646,13.98094680601368,973,12,0.0,15,382071347241653,12,32.8,-608.5489501953125,0.03440000116825104,0,0.0,0.0,,,,,0,,5,,
Raw,19571598,19575933000000,,,-1291005709499516672,0.0,58.6992027820088,-5.575248576622646,13.98094680601368,973,16,0.0,15,382071312631377,21,26.8,23.771617889404297,0.12919999659061432,0,0.0,0.0,,,,,0,,5,,
Raw,19571598,19575933000000,,,-1291005709499516672,0.0,58.6992027820088,-5.575248576622646,13.98094680601368,973,21,0.0,15,382071350506198,8,36.3,525.892333984375,0.03620000183582306,0,0.0,0.0,,,,,0,,5,,
Raw,19571599,19575933000000,,,-1291005709499516672,0.0,58.6992027820088,-5.575248576622646,13.98094680601368,973,24,0.0,15,382071349662012,24,25.5,-260.6167907714844,0.5400000214576721,0,0.0,0.0,,,,,0,,5,,
NMEA,$GPGSV,3,1,11,03,16,264,25,04,29,317,21,08,11,202,35,16,59,299,36*73,1606990067481
NMEA,$GPGSV,3,2,11,22,15,243,32,26,52,008,20,27,43,185,37,29,07,036,17*74,1606990067482
NMEA,$GPGSV,3,3,11,31,42,066,16,32,21,151,18,18,05,090,*41,1606990067482
NMEA,$GLGSV,3,1,10,74,36,347,27,75,00,000,27,73,21,043,14,65,18,319,34*61,1606990067482
NMEA,$GLGSV,3,2,10,85,12,165,18,71,38,205,29,72,47,279,25,70,00,000,*6B,1606990067482
NMEA,$GLGSV,3,3,10,84,34,106,,83,16,045,*65,1606990067484
NMEA,$GAGSV,2,1,07,02,04,258,,03,27,312,,05,65,247,,09,34,168,*65,1606990067485
NMEA,$GAGSV,2,2,07,24,45,016,,25,42,295,,33,01,045,*50,1606990067486
NMEA,$PQGSV,1,1,03,193,34,171,36,194,60,033,,195,51,126,,0,5*61,1606990067486
NMEA,$PQGSV,4,1,16,02,40,240,21,03,58,202,28,06,78,146,25,07,68,312,29,0,4*61,1606990067486
NMEA,$PQGSV,4,2,16,08,00,000,18,09,70,322,29,10,51,265,27,12,12,185,33,0,4*60,1606990067486
NMEA,$PQGSV,4,3,16,16,82,150,27,21,27,196,36,24,24,299,26,01,52,129,,0,4*60,1606990067486
NMEA,$PQGSV,4,4,16,04,37,115,,05,16,255,,14,27,286,,26,49,355,,0,4*6F,1606990067487
NMEA,$GNGSA,A,3,03,04,08,16,22,26,27,32,,,,,1.3,1.0,0.8,1*32,1606990067487
NMEA,$GNGSA,A,2,65,71,72,,,,,,,,,,1.3,1.0,0.8,2*38,1606990067488
NMEA,$PQGSA,A,2,21,,,,,,,,,,,,1.3,1.0,0.8,4*35,1606990067488
NMEA,$GNVTG,,T,,M,0.0,N,0.0,K,A*3D,1606990067488
NMEA,$GNRMC,100748.00,A,2255.528446,N,12017.680293,E,0.0,,031220,2.8,W,A*1F,1606990067488
NMEA,$GNGGA,100748.00,2255.528446,N,12017.680293,E,1,12,1.0,34.3,M,17.5,M,,*47,1606990067488
NMEA,$GPGSV,3,1,11,03,16,264,26,04,29,317,21,08,11,202,34,16,59,299,29*7F,1606990068489
Raw,19572582,19576796000000,,,-1291005709499516672,0.0,57.01393456547521,-5.283812704506373,8.71358404535288,973,10,0.0,207,47268224897976,27,24.3,27.229772567749023,0.8075000047683716,0,0.0,0.0,,,,,0,,3,,
Raw,19572583,19576796000000,,,-1291005709499516672,0.0,57.01393456547521,-5.283812704506373,8.71358404535288,973,11,0.0,207,47268222762262,27,26.6,-131.44166564941406,1.604200005531311,0,0.0,0.0,,,,,0,,3,,
Raw,19572583,19576796000000,,,-1291005709499516672,0.0,57.01393456547521,-5.283812704506373,8.71358404535288,973,9,0.0,207,47268220810253,1249,14.1,258.6356506347656,7.751500606536865,0,0.0,0.0,,,,,0,,3,,
Raw,19572584,19576796000000,,,-1291005709499516672,0.0,57.01393456547521,-5.283812704506373,8.71358404535288,973,1,0.0,207,47268219881326,10,34.9,-476.8692626953125,0.24560000002384186,0,0.0,0.0,,,,,0,,3,,
Raw,19572585,19576796000000,,,-1291005709499516672,0.0,57.01393456547521,-5.283812704506373,8.71358404535288,973,21,0.0,207,47268217557773,717,18.3,-741.9734497070312,6.26200008392334,0,0.0,0.0,,,,,0,,3,,
Raw,19572585,19576796000000,,,-1291005709499516672,0.0,57.01393456547521,-5.283812704506373,8.71358404535288,973,7,0.0,207,47268225296135,13,31.0,638.4236450195312,0.2313000112771988,0,0.0,0.0,,,,,0,,3,,
Raw,19572586,19576796000000,,,-1291005709499516672,0.0,57.01393456547521,-5.283812704506373,8.71358404535288,973,8,0.0,207,47268227275201,30,25.2,20.4255313873291,1.8823000192642212,0,0.0,0.0,,,,,0,,3,,
Raw,19572586,19576796000000,,,-1291005709499516672,0.0,57.01393456547521,-5.283812704506373,8.71358404535288,973,3,0.0,15,382086215399349,24,25.8,218.6252899169922,0.20190000534057617,0,0.0,0.0,,,,,0,,1,,
Raw,19572587,19576796000000,,,-1291005709499516672,0.0,57.01393456547521,-5.283812704506373,8.71358404535288,973,4,0.0,15,382086219283836,63,21.3,-553.8117065429688,3.6650002002716064,0,0.0,0.0,,,,,0,,1,,
Raw,19572588,19576796000000,,,-1291005709499516672,0.0,57.01393456547521,-5.283812704506373,8.71358404535288,973,8,0.0,15,382086214253583,10,34.2,-722.42724609375,0.038100000470876694,0,0.0,0.0,,,,,0,,1,,
Raw,19572588,19576796000000,,,-1291005709499516672,0.0,57.01393456547521,-5.283812704506373,8.71358404535288,973,16,0.0,15,382086226723655,17,28.6,3.019200086593628,0.049799997359514236,0,0.0,0.0,,,,,0,,1,,
Raw,19572589,19576796000000,,,-1291005709499516672,0.0,57.01393456547521,-5.283812704506373,8.71358404535288,973,22,0.0,15,382086214147528,12,32.5,281.0226135253906,0.04240000247955322,0,0.0,0.0,,,,,0,,1,,
Raw,19572589,19576796000000,,,-1291005709499516672,0.0,57.01393456547521,-5.283812704506373,8.71358404535288,973,26,0.0,15,382086225038141,24,25.0,292.92169189453125,0.18690000474452972,0,0.0,0.0,,,,,0,,1,,
Raw,19572590,19576796000000,,,-1291005709499516672,0.0,57.01393456547521,-5.283812704506373,8.71358404535288,973,27,0.0,15,382086223551928,8,36.5,-581.0555419921875,0.01850000023841858,0,0.0,0.0,,,,,0,,1,,
Raw,19572591,19576796000000,,,-1291005709499516672,0.0,57.01393456547521,-5.283812704506373,8.71358404535288,973,29,0.0,15,382086211933284,926,16.5,600.5668334960938,6.073000431060791,0,0.0,0.0,,,,,0,,1,,
Raw,19572592,19576796000000,,,-1291005709499516672,0.0,57.01393456547521,-5.283812704506373,8.71358404535288,973,31,0.0,15,382086222242844,1058,15.6,158.486083984375,6.179500102996826,0,0.0,0.0,,,,,0,,1,,
Raw,19572592,19576796000000,,,-1291005709499516672,0.0,57.01393456547521,-5.283812704506373,8.71358404535288,973,32,0.0,15,382086217472528,31,23.2,665.1144409179688,0.7369999885559082,0,0.0,0.0,,,,,0,,1,,
Fix,gps,22.925474,120.294671,51.758789,0.000000,5.360000,1606990069000
NMEA,$GPGSV,3,2,11,22,15,243,33,26,52,008,25,27,43,185,37,29,07,036,17*70,1606990068490
NMEA,$GPGSV,3,3,11,31,42,066,16,32,21,151,23,18,05,090,*49,1606990068492
NMEA,$GLGSV,3,1,10,74,36,347,24,75,00,000,27,73,21,043,14,65,18,319,35*63,1606990068493
NMEA,$GLGSV,3,2,10,85,12,165,18,71,38,205,31,72,47,279,25,70,00,000,*62,1606990068495
NMEA,$GLGSV,3,3,10,84,34,106,,83,16,045,*65,1606990068496
NMEA,$GAGSV,1,1,0,*74,1606990068498
NMEA,$PQGSV,1,1,03,193,34,171,35,195,51,126,23,194,60,033,,0,5*63,1606990068506
NMEA,$PQGSV,1,1,0,*73,1606990068506
NMEA,$GNGSA,A,3,03,04,08,16,22,26,27,32,,,,,1.3,1.0,0.8,1*32,1606990068507
NMEA,$GNGSA,A,2,65,71,72,,,,,,,,,,1.3,1.0,0.8,2*38,1606990068507
NMEA,$GNVTG,,T,,M,0.0,N,0.0,K,A*3D,1606990068507
NMEA,$GNRMC,100749.00,A,2255.528438,N,12017.680283,E,0.0,,031220,2.8,W,A*16,1606990068507
NMEA,$GNGGA,100749.00,2255.528438,N,12017.680283,E,1,11,1.0,34.3,M,17.5,M,,*4D,1606990068507
Fix,gps,22.925474,120.294671,51.772217,0.000000,5.360000,1606990070000
Raw,19573580,19578282000000,,,-1291005709498703360,0.0,4287.829156965017,-1.9238851316189558,12.622355371837706,974,1,0.0,207,47269705070595,12,32.5,-476.23309326171875,0.2289000004529953,0,0.0,0.0,,,,,0,,3,,
Raw,19573581,19578282000000,,,-1291005709498703360,0.0,4287.829156965017,-1.9238851316189558,12.622355371837706,974,7,0.0,207,47269710479812,13,31.7,638.7127685546875,0.23880000412464142,0,0.0,0.0,,,,,0,,3,,
