# 
# Header Description:
# 
# Version: v2.0.0.1 Platform: 8.0.0 Manufacturer: Sony Model: G8142
# 
# Raw,ElapsedRealtimeMillis,TimeNanos,LeapSecond,TimeUncertaintyNanos,FullBiasNanos,BiasNanos,BiasUncertaintyNanos,DriftNanosPerSecond,DriftUncertaintyNanosPerSecond,HardwareClockDiscontinuityCount,Svid,TimeOffsetNanos,State,ReceivedSvTimeNanos,ReceivedSvTimeUncertaintyNanos,Cn0DbHz,PseudorangeRateMetersPerSecond,PseudorangeRateUncertaintyMetersPerSecond,AccumulatedDeltaRangeState,AccumulatedDeltaRangeMeters,AccumulatedDeltaRangeUncertaintyMeters,CarrierFrequencyHz,CarrierCycles,CarrierPhase,CarrierPhaseUncertainty,MultipathIndicator,SnrInDb,ConstellationType,AgcDb,CarrierFrequencyHz
# 
# Fix,Provider,Latitude,Longitude,Altitude,Speed,Accuracy,(UTC)TimeInMs
# 
# Nav,Svid,Type,Status,MessageId,Sub-messageId,Data(Bytes)
# 
Fix,gps,22.925485,120.294720,41.548035,0.000000,5.360000,1606990472000
NMEA,$GPGSV,3,1,11,03,16,262,33,04,31,316,25,08,13,202,30,16,59,303,20*7C,1606990471479
NMEA,$GPGSV,3,2,11,22,14,240,29,26,51,011,16,27,46,185,23,31,42,068,16*70,1606990471479
NMEA,$GPGSV,3,3,11,18,06,087,,29,04,035,,32,19,151,*4C,1606990471479
NMEA,$GLGSV,3,1,09,75,00,000,33,65,20,316,21,71,34,202,32,72,47,272,25*6C,1606990471479
NMEA,$GLGSV,3,2,09,74,36,351,,73,21,047,,84,36,104,,83,15,042,*6D,1606990471480
NMEA,$GLGSV,3,3,09,85,14,164,*57,1606990471480
NMEA,$GAGSV,2,1,07,05,63,241,29,02,06,260,,03,28,310,,09,32,168,*6C,1606990471480
NMEA,$GAGSV,2,2,07,24,44,019,,25,42,298,,33,00,000,*53,1606990471480
NMEA,$PQGSV,1,1,03,193,33,171,18,194,60,033,,195,52,126,,0,5*69,1606990471480
NMEA,$PQGSV,4,1,16,10,51,268,31,21,25,195,28,01,52,129,,02,40,240,,0,4*6D,1606990471480
NMEA,$PQGSV,4,2,16,03,58,202,,04,37,115,,05,16,255,,06,78,151,,0,4*6D,1606990471481
NMEA,$PQGSV,4,3,16,07,68,314,,08,00,000,,09,71,319,,12,14,185,,0,4*62,1606990471481
NMEA,$PQGSV,4,4,16,14,28,284,,16,80,158,,24,25,302,,26,00,000,,0,4*6A,1606990471481
NMEA,$GNGSA,A,3,03,04,08,16,22,27,31,,,,,,1.8,1.6,0.9,1*39,1606990471482
NMEA,$GNGSA,A,2,65,71,72,,,,,,,,,,1.8,1.6,0.9,2*34,1606990471482
NMEA,$GNGSA,A,2,05,,,,,,,,,,,,1.8,1.6,0.9,3*30,1606990471482
NMEA,$PQGSA,A,2,21,,,,,,,,,,,,1.8,1.6,0.9,4*39,1606990471483
NMEA,$GNVTG,,T,,M,0.0,N,0.0,K,A*3D,1606990471483
NMEA,$GNRMC,101432.00,A,2255.529084,N,12017.683174,E,0.0,,031220,2.8,W,A*12,1606990471483
NMEA,$GNGGA,101432.00,2255.529084,N,12017.683174,E,1,12,1.6,24.1,M,17.5,M,,*4F,1606990471483
Raw,19976618,19981088000000,,,-1291005709345513472,0.0,73.02769517991692,-6.301037881522757,14.12030350596097,1230,11,0.0,207,47672360933686,12,32.5,-133.7898406982422,0.22390000522136688,0,0.0,0.0,,,,,0,,3,,
Raw,19976618,19981088000000,,,-1291005709345513472,0.0,73.02769517991692,-6.301037881522757,14.12030350596097,1230,1,0.0,207,47672358486462,500,20.0,-427.5687561035156,3.008500099182129,0,0.0,0.0,,,,,0,,3,,
Raw,19976619,19981088000000,,,-1291005709345513472,0.0,73.02769517991692,-6.301037881522757,14.12030350596097,1230,7,0.0,207,47672362410995,17,28.5,664.4398193359375,0.2363000065088272,0,0.0,0.0,,,,,0,,3,,
Raw,19976619,19981088000000,,,-1291005709345513472,0.0,73.02769517991692,-6.301037881522757,14.12030350596097,1230,8,0.0,207,47672365198407,31,23.2,82.2042465209961,0.8739999532699585,0,0.0,0.0,,,,,0,,3,,
Raw,19976619,19981088000000,,,-1291005709345513472,0.0,73.02769517991692,-6.301037881522757,14.12030350596097,1230,3,0.0,15,382490353083812,14,30.9,239.60516357421875,0.04530000314116478,0,0.0,0.0,,,,,0,,1,,
Raw,19976619,19981088000000,,,-1291005709345513472,0.0,73.02769517991692,-6.301037881522757,14.12030350596097,1230,4,0.0,15,382490358006834,27,24.2,-529.4921264648438,0.6934999823570251,0,0.0,0.0,,,,,0,,1,,
Raw,19976620,19981088000000,,,-1291005709345513472,0.0,73.02769517991692,-6.301037881522757,14.12030350596097,1230,8,0.0,15,382490353220222,17,28.6,-720.5531616210938,0.052799999713897705,0,0.0,0.0,,,,,0,,1,,
Raw,19976620,19981088000000,,,-1291005709345513472,0.0,73.02769517991692,-6.301037881522757,14.12030350596097,1230,16,0.0,15,382490364694175,572,19.9,32.026424407958984,2.677500009536743,0,0.0,0.0,,,,,0,,1,,
Raw,19976620,19981088000000,,,-1291005709345513472,0.0,73.02769517991692,-6.301037881522757,14.12030350596097,1230,22,0.0,15,382490351759308,17,28.3,284.9656066894531,0.049800001084804535,0,0.0,0.0,,,,,0,,1,,
Raw,19976620,19981088000000,,,-1291005709345513472,0.0,73.02769517991692,-6.301037881522757,14.12030350596097,1230,27,0.0,15,382490362309755,35,22.9,-551.9658203125,0.7294999957084656,0,0.0,0.0,,,,,0,,1,,
Raw,19976621,19981088000000,,,-1291005709345513472,0.0,73.02769517991692,-6.301037881522757,14.12030350596097,1230,2,0.0,783,382476308482850,28,24.9,7.53754997253418,1.1085000038146973,0,0.0,0.0,,,,,0,,5,,
Raw,19976621,19981088000000,,,-1291005709345513472,0.0,73.02769517991692,-6.301037881522757,14.12030350596097,1230,10,0.0,15,382476309109787,171,29.3,40.10744857788086,68.5199966430664,0,0.0,0.0,,,,,0,,5,,
Raw,19976621,19981088000000,,,-1291005709345513472,0.0,73.02769517991692,-6.301037881522757,14.12030350596097,1230,12,0.0,15,382476349062208,47,20.9,-617.5413818359375,1.0700000524520874,0,0.0,0.0,,,,,0,,5,,
Raw,19976621,19981088000000,,,-1291005709345513472,0.0,73.02769517991692,-6.301037881522757,14.12030350596097,1230,14,0.0,15,382476351889784,17,28.5,-15.57440185546875,0.4870000183582306,0,0.0,0.0,,,,,0,,5,,
Raw,19976621,19981088000000,,,-1291005709345513472,0.0,73.02769517991692,-6.301037881522757,14.12030350596097,1230,21,0.0,15,382476350787766,21,28.1,528.9247436523438,1.436500072479248,0,0.0,0.0,,,,,0,,5,,
Raw,19976622,19981088000000,,,-1291005709345513472,0.0,73.02769517991692,-6.301037881522757,14.12030350596097,1230,24,0.0,15,382476351009181,35,22.4,-264.7744445800781,0.7369999885559082,0,0.0,0.0,,,,,0,,5,,
Fix,gps,22.925485,120.294720,41.529907,0.000000,5.360000,1606990473000
NMEA,$GPGSV,3,1,11,03,16,262,31,04,31,316,24,08,13,202,29,16,59,303,20*77,1606990472479
NMEA,$GPGSV,3,2,11,22,14,240,28,26,51,011,16,27,46,185,23,31,42,068,16*71,1606990472479
NMEA,$GPGSV,3,3,11,18,06,087,,29,04,035,,32,19,151,*4C,1606990472479
NMEA,$GLGSV,3,1,09,75,00,000,33,65,20,316,20,71,34,202,29,72,47,272,23*61,1606990472479
NMEA,$GLGSV,3,2,09,74,36,351,,73,21,047,,84,36,104,,83,15,042,*6D,1606990472480
NMEA,$GLGSV,3,3,09,85,14,164,*57,1606990472484
NMEA,$GAGSV,2,1,07,05,63,241,29,02,06,260,,03,28,310,,09,32,168,*6C,1606990472484
NMEA,$GAGSV,2,2,07,24,44,019,,25,42,298,,33,00,000,*53,1606990472484
NMEA,$PQGSV,1,1,03,193,33,171,17,194,60,033,,195,52,126,,0,5*66,1606990472484
NMEA,$PQGSV,4,1,16,02,40,240,25,10,51,268,29,12,14,185,21,14,28,284,29,0,4*6F,1606990472484
NMEA,$PQGSV,4,2,16,21,25,195,28,24,25,302,22,01,52,129,,03,58,202,,0,4*6B,1606990472485
NMEA,$PQGSV,4,3,16,04,37,115,,05,16,255,,06,78,151,,07,68,314,,0,4*6D,1606990472485
NMEA,$PQGSV,4,4,16,08,00,000,,09,71,319,,16,80,158,,26,00,000,,0,4*67,1606990472485
NMEA,$GNGSA,A,3,03,04,08,16,22,27,,,,,,,1.8,1.6,0.9,1*3B,1606990472486
NMEA,$GNGSA,A,2,65,71,72,,,,,,,,,,1.8,1.6,0.9,2*34,1606990472487
NMEA,$GNGSA,A,2,05,,,,,,,,,,,,1.8,1.6,0.9,3*30,1606990472489
NMEA,$PQGSA,A,2,21,,,,,,,,,,,,1.8,1.6,0.9,4*39,1606990472492
NMEA,$GNVTG,,T,,M,0.0,N,0.0,K,A*3D,1606990472492
NMEA,$GNRMC,101433.00,A,2255.529093,N,12017.683171,E,0.0,,031220,2.8,W,A*10,1606990472492
NMEA,$GNGGA,101433.00,2255.529093,N,12017.683171,E,1,11,1.6,24.1,M,17.5,M,,*4E,1606990472492
Raw,19977524,19982088000000,,,-1291005709345513472,0.0,74.22456837957725,-13.382951245294818,15.626065254060052,1230,11,0.0,207,47673360934141,11,33.0,-134.54257202148438,0.22290000319480896,0,0.0,0.0,,,,,0,,3,,
Raw,19977524,19982088000000,,,-1291005709345513472,0.0,74.22456837957725,-13.382951245294818,15.626065254060052,1230,1,0.0,207,47673358487885,584,19.7,-428.2515563964844,3.828500270843506,0,0.0,0.0,,,,,0,,3,,
Raw,19977524,19982088000000,,,-1291005709345513472,0.0,74.22456837957725,-13.382951245294818,15.626065254060052,1230,7,0.0,207,47673362408719,13,31.1,663.7418823242188,0.2282000035047531,0,0.0,0.0,,,,,0,,3,,
Raw,19977525,19982088000000,,,-1291005709345513472,0.0,74.22456837957725,-13.382951245294818,15.626065254060052,1230,8,0.0,207,47673365198102,24,25.6,81.96177673339844,0.5892999768257141,0,0.0,0.0,,,,,0,,3,,
Raw,19977525,19982088000000,,,-1291005709345513472,0.0,74.22456837957725,-13.382951245294818,15.626065254060052,1230,3,0.0,15,382491353083025,12,32.0,238.90037536621094,0.058400001376867294,0,0.0,0.0,,,,,0,,1,,
Raw,19977525,19982088000000,,,-1291005709345513472,0.0,74.22456837957725,-13.382951245294818,15.626065254060052,1230,4,0.0,15,382491358008564,24,25.4,-529.9431762695312,0.423799991607666,0,0.0,0.0,,,,,0,,1,,
Raw,19977525,19982088000000,,,-1291005709345513472,0.0,74.22456837957725,-13.382951245294818,15.626065254060052,1230,8,0.0,15,382491353222610,16,29.9,-721.3193969726562,0.04620000347495079,0,0.0,0.0,,,,,0,,1,,
Raw,19977526,19982088000000,,,-1291005709345513472,0.0,74.22456837957725,-13.382951245294818,15.626065254060052,1230,16,0.0,15,382491364694104,65,20.1,31.427001953125,3.427500009536743,0,0.0,0.0,,,,,0,,1,,
Raw,19977526,19982088000000,,,-1291005709345513472,0.0,74.22456837957725,-13.382951245294818,15.626065254060052,1230,22,0.0,15,382491351758336,17,28.6,284.2060241699219,0.049800001084804535,0,0.0,0.0,,,,,0,,1,,
Raw,19977526,19982088000000,,,-1291005709345513472,0.0,74.22456837957725,-13.382951245294818,15.626065254060052,1230,27,0.0,15,382491362311600,31,23.9,-553.2027587890625,0.6694999933242798,0,0.0,0.0,,,,,0,,1,,
Raw,19977526,19982088000000,,,-1291005709345513472,0.0,74.22456837957725,-13.382951245294818,15.626065254060052,1230,2,0.0,783,382477308482825,39,24.9,7.53754997253418,2.6085000038146973,0,0.0,0.0,,,,,0,,5,,
Raw,19977526,19982088000000,,,-1291005709345513472,0.0,74.22456837957725,-13.382951245294818,15.626065254060052,1230,5,0.0,783,382477300245001,36,23.0,-6.778993606567383,1.8885000944137573,0,0.0,0.0,,,,,0,,5,,
Raw,19977527,19982088000000,,,-1291005709345513472,0.0,74.22456837957725,-13.382951245294818,15.626065254060052,1230,10,0.0,15,382477309109653,408,29.3,40.10744857788086,70.0199966430664,0,0.0,0.0,,,,,0,,5,,
Raw,19977527,19982088000000,,,-1291005709345513472,0.0,74.22456837957725,-13.382951245294818,15.626065254060052,1230,12,0.0,15,382477349064253,46,20.4,-616.6292114257812,0.800000011920929,0,0.0,0.0,,,,,0,,5,,
Raw,19977527,19982088000000,,,-1291005709345513472,0.0,74.22456837957725,-13.382951245294818,15.626065254060052,1230,14,0.0,15,382477351889837,16,29.3,-16.119861602783203,0.04320000112056732,0,0.0,0.0,,,,,0,,5,,
Raw,19977527,19982088000000,,,-1291005709345513472,0.0,74.22456837957725,-13.382951245294818,15.626065254060052,1230,21,0.0,15,382477350785920,83,16.9,526.572265625,1.7615000009536743,0,0.0,0.0,,,,,0,,5,,
Raw,19977527,19982088000000,,,-1291005709345513472,0.0,74.22456837957725,-13.382951245294818,15.626065254060052,1230,24,0.0,15,382477351010095,27,24.2,-265.1585388183594,0.5929999947547913,0,0.0,0.0,,,,,0,,5,,
Fix,gps,22.925485,120.294719,41.539795,0.000000,5.360000,1606990474000
NMEA,$GPGSV,3,1,11,03,16,262,32,04,31,316,25,08,13,202,30,16,59,303,20*7D,1606990473479
NMEA,$GPGSV,3,2,11,22,14,240,29,26,51,011,16,27,46,185,24,31,42,068,16*77,1606990473479
NMEA,$GPGSV,3,3,11,18,06,087,,29,04,035,,32,19,151,*4C,1606990473479
NMEA,$GLGSV,3,1,09,75,00,000,33,65,20,316,20,71,34,202,31,72,47,272,26*6D,1606990473479
NMEA,$GLGSV,3,2,09,74,36,351,,73,21,047,,84,36,104,,83,15,042,*6D,1606990473479
NMEA,$GLGSV,3,3,09,85,14,164,*57,1606990473480
NMEA,$GAGSV,2,1,07,05,63,241,30,02,06,260,,03,28,310,,09,32,168,*64,1606990473480
NMEA,$GAGSV,2,2,07,24,44,019,,25,42,298,,33,00,000,*53,1606990473480
NMEA,$PQGSV,1,1,03,193,33,171,17,194,60,033,15,195,52,126,,0,5*62,1606990473481
NMEA,$PQGSV,4,1,16,02,40,240,25,05,16,255,23,10,51,268,29,12,14,185,20,0,4*65,1606990473481
NMEA,$PQGSV,4,2,16,14,28,284,29,21,25,195,17,24,25,302,24,01,52,129,,0,4*65,1606990473482
NMEA,$PQGSV,4,3,16,03,58,202,,04,37,115,,06,78,151,,07,68,314,,0,4*63,1606990473482
NMEA,$PQGSV,4,4,16,08,00,000,,09,71,319,,16,80,158,,26,00,000,,0,4*67,1606990473482
NMEA,$GNGSA,A,3,03,04,08,16,22,27,,,,,,,1.8,1.6,0.9,1*3B,1606990473483
NMEA,$GNGSA,A,2,65,71,72,,,,,,,,,,1.8,1.6,0.9,2*34,1606990473484
NMEA,$GNGSA,A,2,05,,,,,,,,,,,,1.8,1.6,0.9,3*30,1606990473484
NMEA,$PQGSA,A,2,21,,,,,,,,,,,,1.8,1.6,0.9,4*39,1606990473484
NMEA,$GNVTG,,T,,M,0.0,N,0.0,K,A*3D,1606990473484
NMEA,$GNRMC,101434.00,A,2255.529098,N,12017.683168,E,0.0,,031220,2.8,W,A*14,1606990473484
NMEA,$GNGGA,101434.00,2255.529098,N,12017.683168,E,1,11,1.6,24.1,M,17.5,M,,*4A,1606990473485
NMEA,$GPGSV,3,1,11,03,16,262,33,04,31,316,25,08,13,202,30,16,59,303,24*78,1606990474477
Raw,19978544,19982951000000,,,-1291005709345513472,0.0,64.93648834293708,-16.083272613034527,10.028860620985059,1230,11,0.0,207,47674223934528,16,33.0,-134.54257202148438,1.5174000263214111,0,0.0,0.0,,,,,0,,3,,
Raw,19978544,19982951000000,,,-1291005709345513472,0.0,64.93648834293708,-16.083272613034527,10.028860620985059,1230,1,0.0,207,47674221489163,40,21.5,-429.95391845703125,1.003000020980835,0,0.0,0.0,,,,,0,,3,,
Raw,19978545,19982951000000,,,-1291005709345513472,0.0,64.93648834293708,-16.083272613034527,10.028860620985059,1230,7,0.0,207,47674225406796,13,31.6,663.4668579101562,0.2313000112771988,0,0.0,0.0,,,,,0,,3,,
Raw,19978546,19982951000000,,,-1291005709345513472,0.0,64.93648834293708,-16.083272613034527,10.028860620985059,1230,8,0.0,207,47674228197855,24,25.9,81.65591430664062,0.391400009393692,0,0.0,0.0,,,,,0,,3,,
Raw,19978546,19982951000000,,,-1291005709345513472,0.0,64.93648834293708,-16.083272613034527,10.028860620985059,1230,3,0.0,15,382492216082348,12,32.6,238.62379455566406,0.04540000110864639,0,0.0,0.0,,,,,0,,1,,
Raw,19978547,19982951000000,,,-1291005709345513472,0.0,64.93648834293708,-16.083272613034527,10.028860620985059,1230,4,0.0,15,382492221010005,24,25.0,-530.1231079101562,0.21090000867843628,0,0.0,0.0,,,,,0,,1,,
Raw,19978547,19982951000000,,,-1291005709345513472,0.0,64.93648834293708,-16.083272613034527,10.028860620985059,1230,8,0.0,15,382492216224706,14,30.4,-721.6072998046875,0.05079999938607216,0,0.0,0.0,,,,,0,,1,,
Raw,19978548,19982951000000,,,-1291005709345513472,0.0,64.93648834293708,-16.083272613034527,10.028860620985059,1230,16,0.0,15,382492227694018,31,23.5,28.896095275878906,0.6620000004768372,0,0.0,0.0,,,,,0,,1,,
Raw,19978549,19982951000000,,,-1291005709345513472,0.0,64.93648834293708,-16.083272613034527,10.028860620985059,1230,22,0.0,15,382492214757511,14,30.2,283.9118957519531,0.04780000075697899,0,0.0,0.0,,,,,0,,1,,
Raw,19978549,19982951000000,,,-1291005709345513472,0.0,64.93648834293708,-16.083272613034527,10.028860620985059,1230,27,0.0,15,382492225313170,46,20.6,-552.7555541992188,0.8389999866485596,0,0.0,0.0,,,,,0,,1,,
Fix,gps,22.925485,120.294719,41.540405,0.000000,5.360000,1606990475000
NMEA,$GPGSV,3,2,11,22,14,240,30,26,51,011,16,27,46,185,21,31,42,068,16*7A,1606990474478
NMEA,$GPGSV,3,3,11,18,06,087,,29,04,035,,32,19,151,*4C,1606990474478
NMEA,$GLGSV,3,1,09,75,00,000,33,65,20,316,22,71,34,202,32,72,47,272,26*6C,1606990474478
NMEA,$GLGSV,3,2,09,74,36,351,,73,21,047,,84,36,104,,83,15,042,*6D,1606990474478
NMEA,$GLGSV,3,3,09,85,14,164,*57,1606990474479
NMEA,$GAGSV,1,1,0,*74,1606990474480
NMEA,$PQGSV,1,1,03,193,33,171,17,194,60,033,15,195,52,126,,0,5*62,1606990474480
NMEA,$PQGSV,1,1,0,*73,1606990474480
NMEA,$GNGSA,A,3,03,04,08,16,22,27,,,,,,,1.8,1.6,0.9,1*3B,1606990474481
NMEA,$GNGSA,A,2,65,71,72,,,,,,,,,,1.8,1.6,0.9,2*34,1606990474482
NMEA,$GNVTG,,T,,M,0.0,N,0.0,K,A*3D,1606990474482
NMEA,$GNRMC,101435.00,A,2255.529096,N,12017.683163,E,0.0,,031220,2.8,W,A*10,1606990474482
NMEA,$GNGGA,101435.00,2255.529096,N,12017.683163,E,1,09,1.6,24.1,M,17.5,M,,*47,1606990474482
NMEA,$GPGSV,3,1,11,03,16,262,37,04,31,316,28,08,13,202,30,16,59,303,26*73,1606990475477
Raw,19979572,19984423000000,,,-1291005709344614400,0.0,4288.266412913799,-16.807116268408752,17.13907994459775,1231,1,0.0,207,47675692592172,27,24.1,-429.9632873535156,0.8195000290870667,0,0.0,0.0,,,,,0,,3,,
Raw,19979573,19984423000000,,,-1291005709344614400,0.0,4288.266412913799,-16.807116268408752,17.13907994459775,1231,7,0.0,207,47675696504453,13,31.8,665.0158081054688,0.24780000746250153,0,0.0,0.0,,,,,0,,3,,
Raw,19979574,19984423000000,,,-1291005709344614400,0.0,4288.266412913799,-16.807116268408752,17.13907994459775,1231,3,0.0,15,382493687182073,8,36.6,240.12425231933594,0.024500001221895218,0,0.0,0.0,,,,,0,,1,,
Raw,19979574,19984423000000,,,-1291005709344614400,0.0,4288.266412913799,-16.807116268408752,17.13907994459775,1231,4,0.0,15,382493692113618,19,27.7,-528.6598510742188,0.08160000294446945,0,0.0,0.0,,,,,0,,1,,
Raw,19979575,19984423000000,,,-1291005709344614400,0.0,4288.266412913799,-16.807116268408752,17.13907994459775,1231,8,0.0,15,382493687329135,16,29.9,-720.131103515625,0.04020000249147415,0,0.0,0.0,,,,,0,,1,,
Raw,19979575,19984423000000,,,-1291005709344614400,0.0,4288.266412913799,-16.807116268408752,17.13907994459775,1231,16,0.0,15,382493698794853,24,25.6,31.17542839050293,0.20640000700950623,0,0.0,0.0,,,,,0,,1,,
Raw,19979576,19984423000000,,,-1291005709344614400,0.0,4288.266412913799,-16.807116268408752,17.13907994459775,1231,22,0.0,15,382493685857055,16,29.3,285.3061828613281,0.03720000013709068,0,0.0,0.0,,,,,0,,1,,
Raw,19979577,19984423000000,,,-1291005709344614400,0.0,4288.266412913799,-16.807116268408752,17.13907994459775,1231,27,0.0,15,382493696416829,27,24.4,-551.9277954101562,0.6754999756813049,0,0.0,0.0,,,,,0,,1,,
Fix,gps,22.925485,120.294719,41.543457,0.000000,5.360000,1606990476000
NMEA,$GPGSV,3,2,11,22,14,240,29,27,46,185,24,18,06,087,,26,51,011,*7D,1606990475478
NMEA,$GPGSV,3,3,11,29,04,035,,31,42,068,,32,19,151,*46,1606990475478
NMEA,$GLGSV,2,1,08,75,00,000,33,65,20,316,24,71,34,202,32,74,36,351,*6E,1606990475478
NMEA,$GLGSV,2,2,08,73,21,047,,84,36,104,,83,15,042,,85,14,164,*67,1606990475479
NMEA,$GAGSV,1,1,0,*74,1606990475480
NMEA,$PQGSV,1,1,03,193,33,171,21,194,60,033,15,195,52,126,,0,5*67,1606990475480
NMEA,$PQGSV,1,1,0,*73,1606990475480
NMEA,$GNGSA,A,3,03,04,08,16,22,27,,,,,,,1.8,1.6,0.9,1*3B,1606990475481
NMEA,$GNGSA,A,2,65,71,,,,,,,,,,,1.8,1.6,0.9,2*31,1606990475481
NMEA,$GNVTG,,T,,M,0.0,N,0.0,K,A*3D,1606990475481
NMEA,$GNRMC,101436.00,A,2255.529097,N,12017.683161,E,0.0,,031220,2.8,W,A*10,1606990475481
NMEA,$GNGGA,101436.00,2255.529097,N,12017.683161,E,1,08,1.6,24.1,M,17.5,M,,*46,1606990475481
Raw,19980587,19985437000000,,,-1291005709344604416,0.0,4224.86150637269,-12.015801020929763,11.396872927543475,1232,7,0.0,207,47676710491993,11,33.8,665.2752075195312,0.23399999737739563,0,0.0,0.0,,,,,0,,3,,
Raw,19980588,19985437000000,,,-1291005709344604416,0.0,4224.86150637269,-12.015801020929763,11.396872927543475,1232,3,0.0,15,382494701171020,7,37.6,240.3123321533203,0.04410000145435333,0,0.0,0.0,,,,,0,,1,,
Raw,19980589,19985437000000,,,-1291005709344604416,0.0,4224.86150637269,-12.015801020929763,11.396872927543475,1232,4,0.0,15,382494706105149,27,24.9,-528.8356323242188,0.6105000376701355,0,0.0,0.0,,,,,0,,1,,
Raw,19980590,19985437000000,,,-1291005709344604416,0.0,4224.86150637269,-12.015801020929763,11.396872927543475,1232,8,0.0,15,382494701321263,17,28.5,-720.0404663085938,0.0723000019788742,0,0.0,0.0,,,,,0,,1,,
Raw,19980591,19985437000000,,,-1291005709344604416,0.0,4224.86150637269,-12.015801020929763,11.396872927543475,1232,16,0.0,15,382494712784469,27,24.9,30.741943359375,0.6195000410079956,0,0.0,0.0,,,,,0,,1,,
Raw,19980592,19985437000000,,,-1291005709344604416,0.0,4224.86150637269,-12.015801020929763,11.396872927543475,1232,22,0.0,15,382494699845840,16,29.2,285.4705505371094,0.05820000171661377,0,0.0,0.0,,,,,0,,1,,
Fix,gps,22.925485,120.294719,41.557556,0.000000,5.360000,1606990477000
NMEA,$GPGSV,3,1,10,03,16,262,38,04,31,316,25,08,13,202,29,16,59,303,25*7B,1606990476481
NMEA,$GPGSV,3,2,10,22,14,240,29,18,06,087,,26,51,011,,29,04,035,*78,1606990476483
NMEA,$GPGSV,3,3,10,31,42,068,,32,19,151,*7E,1606990476485
NMEA,$GLGSV,2,1,08,75,00,000,33,71,34,202,34,74,36,351,,73,21,047,*6F,1606990476491
NMEA,$GLGSV,2,2,08,84,36,104,,83,15,042,,85,14,164,,72,47,272,*62,1606990476493
NMEA,$GAGSV,1,1,0,*74,1606990476494
NMEA,$PQGSV,1,1,02,194,60,033,,195,52,126,,0,5*6D,1606990476495
NMEA,$PQGSV,1,1,0,*73,1606990476496
NMEA,$GNGSA,A,3,03,04,08,16,22,,,,,,,,1.8,1.6,0.9,1*3E,1606990476500
NMEA,$GNGSA,A,2,71,72,,,,,,,,,,,1.8,1.6,0.9,2*37,1606990476501
NMEA,$GNVTG,,T,,M,0.0,N,0.0,K,A*3D,1606990476504
NMEA,$GNRMC,101437.00,A,2255.529097,N,12017.683158,E,0.0,,031220,2.8,W,A*1B,1606990476506
NMEA,$GNGGA,101437.00,2255.529097,N,12017.683158,E,1,07,1.6,24.1,M,17.5,M,,*42,1606990476506
Raw,19981590,19986430000000,,,-1291005709343652864,0.0,4239.632282406092,-12.557133764125686,13.322202285419946,1233,7,0.0,207,47677702538182,11,33.5,664.8580932617188,0.22200000286102295,0,0.0,0.0,,,,,0,,3,,
Raw,19981591,19986430000000,,,-1291005709343652864,0.0,4239.632282406092,-12.557133764125686,13.322202285419946,1233,3,0.0,15,382495693218624,8,36.8,239.87948608398438,0.03350000083446503,0,0.0,0.0,,,,,0,,1,,
Raw,19981591,19986430000000,,,-1291005709343652864,0.0,4239.632282406092,-12.557133764125686,13.322202285419946,1233,4,0.0,15,382495698155247,21,26.1,-528.42333984375,0.12469999492168427,0,0.0,0.0,,,,,0,,1,,
Raw,19981592,19986430000000,,,-1291005709343652864,0.0,4239.632282406092,-12.557133764125686,13.322202285419946,1233,8,0.0,15,382495693372116,14,30.7,-720.2425537109375,0.39100000262260437,0,0.0,0.0,,,,,0,,1,,
Raw,19981593,19986430000000,,,-1291005709343652864,0.0,4239.632282406092,-12.557133764125686,13.322202285419946,1233,16,0.0,15,382495704832840,31,23.7,30.056884765625,0.6574999690055847,0,0.0,0.0,,,,,0,,1,,
Raw,19981593,19986430000000,,,-1291005709343652864,0.0,4239.632282406092,-12.557133764125686,13.322202285419946,1233,22,0.0,15,382495691893253,19,27.9,285.01409912109375,0.08009999990463257,0,0.0,0.0,,,,,0,,1,,
Raw,19981594,19986430000000,,,-1291005709343652864,0.0,4239.632282406092,-12.557133764125686,13.322202285419946,1233,27,0.0,15,382495702458679,27,24.3,-551.680419921875,0.6544999480247498,0,0.0,0.0,,,,,0,,1,,
Fix,gps,22.925485,120.294719,41.566406,0.000000,5.360000,1606990478000
NMEA,$GPGSV,3,1,11,03,16,262,37,04,31,316,26,08,13,202,31,16,59,303,24*7E,1606990477488
NMEA,$GPGSV,3,2,11,22,14,240,28,27,46,185,24,18,06,087,,26,51,011,*7C,1606990477490
NMEA,$GPGSV,3,3,11,29,04,035,,31,42,068,,32,19,151,*46,1606990477490
NMEA,$GLGSV,3,1,09,75,00,000,33,71,34,202,34,74,36,351,,73,21,047,*6F,1606990477491
NMEA,$GLGSV,3,2,09,65,20,316,,84,36,104,,83,15,042,,85,14,164,*66,1606990477500
NMEA,$GLGSV,3,3,09,72,47,272,*5D,1606990477501
NMEA,$GAGSV,1,1,0,*74,1606990477502
NMEA,$PQGSV,1,1,03,193,33,171,,194,60,033,,195,52,126,,0,5*60,1606990477504
NMEA,$PQGSV,1,1,0,*73,1606990477505
NMEA,$GNGSA,A,3,03,04,08,16,22,27,,,,,,,1.8,1.6,0.9,1*3B,1606990477506
NMEA,$GNGSA,A,2,65,71,72,,,,,,,,,,1.8,1.6,0.9,2*34,1606990477506
NMEA,$GNVTG,,T,,M,0.0,N,0.0,K,A*3D,1606990477507
NMEA,$GNRMC,101438.00,A,2255.529096,N,12017.683156,E,0.0,,031220,2.8,W,A*1B,1606990477507
NMEA,$GNGGA,101438.00,2255.529096,N,12017.683156,E,1,09,1.6,24.1,M,17.5,M,,*4C,1606990477507
NMEA,$GPGSV,3,1,11,03,16,262,37,04,31,316,30,08,13,202,32,16,59,303,24*7A,1606990478476
Raw,19982545,19987424000000,,,-1291005709343363840,0.0,4252.173937857151,-11.400366587207166,12.622388773546305,1234,7,0.0,207,47678696247036,8,36.4,667.6571044921875,0.23800000548362732,0,0.0,0.0,,,,,0,,3,,
Raw,19982545,19987424000000,,,-1291005709343363840,0.0,4252.173937857151,-11.400366587207166,12.622388773546305,1234,8,0.0,207,47678699046731,40,21.5,86.3779525756836,1.0,0,0.0,0.0,,,,,0,,3,,
Raw,19982546,19987424000000,,,-1291005709343363840,0.0,4252.173937857151,-11.400366587207166,12.622388773546305,1234,3,0.0,15,382496686928900,7,37.3,242.80645751953125,0.02160000056028366,0,0.0,0.0,,,,,0,,1,,
Raw,19982547,19987424000000,,,-1291005709343363840,0.0,4252.173937857151,-11.400366587207166,12.622388773546305,1234,4,0.0,15,382496691868109,16,29.9,-525.9794921875,0.04619999974966049,0,0.0,0.0,,,,,0,,1,,
Raw,19982548,19987424000000,,,-1291005709343363840,0.0,4252.173937857151,-11.400366587207166,12.622388773546305,1234,8,0.0,15,382496687085571,12,32.3,-717.6282958984375,0.03189999982714653,0,0.0,0.0,,,,,0,,1,,
Raw,19982548,19987424000000,,,-1291005709343363840,0.0,4252.173937857151,-11.400366587207166,12.622388773546305,1234,16,0.0,15,382496698543696,31,23.9,33.79615783691406,0.6784999966621399,0,0.0,0.0,,,,,0,,1,,
Raw,19982549,19987424000000,,,-1291005709343363840,0.0,4252.173937857151,-11.400366587207166,12.622388773546305,1234,22,0.0,15,382496685603414,14,30.2,287.88299560546875,0.034299999475479126,0,0.0,0.0,,,,,0,,1,,
Raw,19982549,19987424000000,,,-1291005709343363840,0.0,4252.173937857151,-11.400366587207166,12.622388773546305,1234,27,0.0,15,382496696171482,24,25.9,-548.5526123046875,0.20340000092983246,0,0.0,0.0,,,,,0,,1,,
NMEA,$GPGSV,3,2,11,22,14,240,30,27,46,185,26,18,06,087,,26,51,011,*77,1606990478477
Fix,gps,22.925485,120.294719,41.574524,0.000000,5.360000,1606990479000
NMEA,$GPGSV,3,3,11,29,04,035,,31,42,068,,32,19,151,*46,1606990478477
NMEA,$GLGSV,3,1,09,75,00,000,33,71,34,202,36,72,47,272,22,74,36,351,*68,1606990478478
NMEA,$GLGSV,3,2,09,73,21,047,,65,20,316,,84,36,104,,83,15,042,*69,1606990478479
NMEA,$GLGSV,3,3,09,85,14,164,*57,1606990478479
NMEA,$GAGSV,1,1,0,*74,1606990478479
NMEA,$PQGSV,1,1,03,193,33,171,,194,60,033,,195,52,126,,0,5*60,1606990478479
NMEA,$PQGSV,1,1,0,*73,1606990478479
NMEA,$GNGSA,A,3,03,04,08,16,22,27,,,,,,,1.8,1.6,0.9,1*3B,1606990478480
NMEA,$GNGSA,A,2,65,71,72,,,,,,,,,,1.8,1.6,0.9,2*34,1606990478481
NMEA,$GNVTG,,T,,M,0.0,N,0.0,K,A*3D,1606990478481
NMEA,$GNRMC,101439.00,A,2255.529095,N,12017.683154,E,0.0,,031220,2.8,W,A*1B,1606990478486
NMEA,$GNGGA,101439.00,2255.529095,N,12017.683154,E,1,09,1.6,24.1,M,17.5,M,,*4C,1606990478487
Fix,gps,22.925485,120.294719,41.579895,0.000000,5.360000,1606990480000
Raw,19983583,19988435000000,,,-1291005709343239936,0.0,4245.334770530462,-3.4588646266755405,11.092961119626125,1235,7,0.0,207,47679707121150,9,35.9,669.06689453125,0.22550000250339508,0,0.0,0.0,,,,,0,,3,,
Raw,19983584,19988435000000,,,-1291005709343239936,0.0,4245.334770530462,-3.4588646266755405,11.092961119626125,1235,8,0.0,207,47679709922844,35,22.9,88.04930114746094,0.9249999523162842,0,0.0,0.0,,,,,0,,3,,
Raw,19983585,19988435000000,,,-1291005709343239936,0.0,4245.334770530462,-3.4588646266755405,11.092961119626125,1235,3,0.0,15,382497697804474,7,37.5,244.11024475097656,0.038100000470876694,0,0.0,0.0,,,,,0,,1,,
Raw,19983585,19988435000000,,,-1291005709343239936,0.0,4245.334770530462,-3.4588646266755405,11.092961119626125,1235,4,0.0,15,382497702746261,16,29.7,-524.565673828125,0.03270000219345093,0,0.0,0.0,,,,,0,,1,,
Raw,19983586,19988435000000,,,-1291005709343239936,0.0,4245.334770530462,-3.4588646266755405,11.092961119626125,1235,8,0.0,15,382497697964373,13,31.4,-716.5508422851562,0.3970000147819519,0,0.0,0.0,,,,,0,,1,,
Raw,19983586,19988435000000,,,-1291005709343239936,0.0,4245.334770530462,-3.4588646266755405,11.092961119626125,1235,16,0.0,15,382497709420086,24,25.5,35.14994812011719,0.19290000200271606,0,0.0,0.0,,,,,0,,1,,
Raw,19983587,19988435000000,,,-1291005709343239936,0.0,4245.334770530462,-3.4588646266755405,11.092961119626125,1235,22,0.0,15,382497696478813,13,31.3,289.1495361328125,0.04780000075697899,0,0.0,0.0,,,,,0,,1,,
Raw,19983588,19988435000000,,,-1291005709343239936,0.0,4245.334770530462,-3.4588646266755405,11.092961119626125,1235,27,0.0,15,382497707049742,31,23.8,-548.3598022460938,0.6620000004768372,0,0.0,0.0,,,,,0,,1,,
NMEA,$GPGSV,3,1,11,03,16,262,38,04,31,316,30,08,13,202,31,16,59,303,26*74,1606990479478
NMEA,$GPGSV,3,2,11,22,14,240,31,27,46,185,24,18,06,087,,26,51,011,*74,1606990479478
NMEA,$GPGSV,3,3,11,29,04,035,,31,42,068,,32,19,151,*46,1606990479481
NMEA,$GLGSV,3,1,09,75,00,000,33,71,34,202,36,72,47,272,23,74,36,351,*69,1606990479481
NMEA,$GLGSV,3,2,09,73,21,047,,65,20,316,,84,36,104,,83,15,042,*69,1606990479481
NMEA,$GLGSV,3,3,09,85,14,164,*57,1606990479481
NMEA,$GAGSV,1,1,0,*74,1606990479482
NMEA,$PQGSV,1,1,03,193,33,171,21,194,60,033,,195,52,126,,0,5*63,1606990479482
NMEA,$PQGSV,1,1,0,*73,1606990479482
NMEA,$GNGSA,A,3,03,04,08,16,22,27,,,,,,,1.9,1.6,0.9,1*3A,1606990479483
NMEA,$GNGSA,A,2,65,71,72,,,,,,,,,,1.9,1.6,0.9,2*35,1606990479483
NMEA,$GNVTG,,T,,M,0.0,N,0.0,K,A*3D,1606990479483
NMEA,$GNRMC,101440.00,A,2255.529095,N,12017.683151,E,0.0,,031220,2.8,W,A*10,1606990479483
NMEA,$GNGGA,101440.00,2255.529095,N,12017.683151,E,1,09,1.6,24.1,M,17.5,M,,*47,1606990479484
Raw,19984561,19989429000000,,,-1291005709342245632,0.0,4237.271379679441,0.7502087373616276,13.419048948944921,1236,7,0.0,207,47680700124200,9,35.5,668.8968505859375,0.24500000476837158,0,0.0,0.0,,,,,0,,3,,
Raw,19984561,19989429000000,,,-1291005709342245632,0.0,4237.271379679441,0.7502087373616276,13.419048948944921,1236,8,0.0,207,47680702927695,31,23.3,87.84387969970703,0.8544999361038208,0,0.0,0.0,,,,,0,,3,,
Raw,19984562,19989429000000,,,-1291005709342245632,0.0,4237.271379679441,0.7502087373616276,13.419048948944921,1236,3,0.0,15,382498690808939,7,37.4,243.96559143066406,0.02759999968111515,0,0.0,0.0,,,,,0,,1,,
Raw,19984563,19989429000000,,,-1291005709342245632,0.0,4237.271379679441,0.7502087373616276,13.419048948944921,1236,4,0.0,15,382498695753231,17,28.3,-524.7660522460938,0.0632999986410141,0,0.0,0.0,,,,,0,,1,,
Raw,19984563,19989429000000,,,-1291005709342245632,0.0,4237.271379679441,0.7502087373616276,13.419048948944921,1236,8,0.0,15,382498690971997,14,30.5,-716.5216064453125,0.04179999977350235,0,0.0,0.0,,,,,0,,1,,
Raw,19984564,19989429000000,,,-1291005709342245632,0.0,4237.271379679441,0.7502087373616276,13.419048948944921,1236,16,0.0,15,382498702425154,24,25.1,34.94766616821289,0.21240000426769257,0,0.0,0.0,,,,,0,,1,,
Raw,19984564,19989429000000,,,-1291005709342245632,0.0,4237.271379679441,0.7502087373616276,13.419048948944921,1236,22,0.0,15,382498689483140,13,31.1,288.96331787109375,0.037300001829862595,0,0.0,0.0,,,,,0,,1,,
Fix,gps,22.925485,120.294719,41.588623,0.000000,5.360000,1606990481000
NMEA,$GPGSV,3,1,10,03,16,262,37,04,31,316,28,08,13,202,31,16,59,303,25*70,1606990480479
NMEA,$GPGSV,3,2,10,22,14,240,31,18,06,087,,26,51,011,,29,04,035,*71,1606990480480
NMEA,$GPGSV,3,3,10,31,42,068,,32,19,151,*7E,1606990480480
NMEA,$GLGSV,3,1,09,75,00,000,33,71,34,202,36,72,47,272,23,74,36,351,*69,1606990480480
NMEA,$GLGSV,3,2,09,73,21,047,,65,20,316,,84,36,104,,83,15,042,*69,1606990480480
NMEA,$GLGSV,3,3,09,85,14,164,*57,1606990480481
NMEA,$GAGSV,1,1,0,*74,1606990480482
NMEA,$PQGSV,1,1,03,193,33,171,21,194,60,033,,195,52,126,,0,5*63,1606990480482
NMEA,$PQGSV,1,1,0,*73,1606990480482
NMEA,$GNGSA,A,3,03,04,08,16,22,,,,,,,,1.9,1.6,0.9,1*3F,1606990480483
NMEA,$GNGSA,A,2,65,71,72,,,,,,,,,,1.9,1.6,0.9,2*35,1606990480483
NMEA,$GNVTG,,T,,M,0.0,N,0.0,K,A*3D,1606990480483
NMEA,$GNRMC,101441.00,A,2255.529093,N,12017.683147,E,0.0,,031220,2.8,W,A*10,1606990480484
NMEA,$GNGGA,101441.00,2255.529093,N,12017.683147,E,1,08,1.6,24.1,M,17.5,M,,*46,1606990480484
NMEA,$GPGSV,3,1,11,03,16,262,38,04,31,316,29,08,13,202,31,16,59,303,26*7C,1606990481484
Raw,19985584,19990440000000,,,-1291005709342233600,0.0,4246.991127729416,-0.35454014949660134,11.55523599496232,1237,7,0.0,207,47681711110084,9,35.5,668.7261352539062,0.23150001466274261,0,0.0,0.0,,,,,0,,3,,
Raw,19985586,19990440000000,,,-1291005709342233600,0.0,4246.991127729416,-0.35454014949660134,11.55523599496232,1237,8,0.0,207,47681713915713,40,21.8,88.46013641357422,0.9909999966621399,0,0.0,0.0,,,,,0,,3,,
Raw,19985586,19990440000000,,,-1291005709342233600,0.0,4246.991127729416,-0.35454014949660134,11.55523599496232,1237,3,0.0,15,382499701796261,6,38.1,243.76666259765625,0.04270000010728836,0,0.0,0.0,,,,,0,,1,,
Raw,19985587,19990440000000,,,-1291005709342233600,0.0,4246.991127729416,-0.35454014949660134,11.55523599496232,1237,4,0.0,15,382499706743157,16,29.3,-524.8939819335938,0.03869999945163727,0,0.0,0.0,,,,,0,,1,,
Raw,19985588,19990440000000,,,-1291005709342233600,0.0,4246.991127729416,-0.35454014949660134,11.55523599496232,1237,8,0.0,15,382499701962528,13,31.2,-716.78759765625,0.05530000105500221,0,0.0,0.0,,,,,0,,1,,
Raw,19985589,19990440000000,,,-1291005709342233600,0.0,4246.991127729416,-0.35454014949660134,11.55523599496232,1237,16,0.0,15,382499713413188,24,25.5,34.70127487182617,0.1988999992609024,0,0.0,0.0,,,,,0,,1,,
Raw,19985590,19990440000000,,,-1291005709342233600,0.0,4246.991127729416,-0.35454014949660134,11.55523599496232,1237,22,0.0,15,382499700470291,13,31.5,288.67657470703125,0.05380000174045563,0,0.0,0.0,,,,,0,,1,,
Fix,gps,22.925485,120.294719,41.603516,0.000000,6.432000,1606990482000
NMEA,$GPGSV,3,2,11,22,14,240,32,18,06,087,,26,51,011,,27,46,185,*71,1606990481484
NMEA,$GPGSV,3,3,11,29,04,035,,31,42,068,,32,19,151,*46,1606990481486
NMEA,$GLGSV,3,1,09,75,00,000,33,71,34,202,36,72,47,272,22,74,36,351,*68,1606990481487
NMEA,$GLGSV,3,2,09,73,21,047,,65,20,316,,84,36,104,,83,15,042,*69,1606990481488
NMEA,$GLGSV,3,3,09,85,14,164,*57,1606990481492
NMEA,$GAGSV,1,1,0,*74,1606990481493
NMEA,$PQGSV,1,1,03,193,33,171,23,194,60,033,,195,52,126,,0,5*61,1606990481494
NMEA,$PQGSV,1,1,0,*73,1606990481494
NMEA,$GNGSA,A,3,03,04,08,16,22,27,,,,,,,2.0,1.7,0.9,1*31,1606990481497
NMEA,$GNGSA,A,2,65,71,72,,,,,,,,,,2.0,1.7,0.9,2*3E,1606990481498
NMEA,$GNVTG,,T,,M,0.0,N,0.0,K,A*3D,1606990481499
NMEA,$GNRMC,101442.00,A,2255.529093,N,12017.683142,E,0.0,,031220,2.8,W,A*16,1606990481500
NMEA,$GNGGA,101442.00,2255.529093,N,12017.683142,E,1,09,1.7,24.1,M,17.5,M,,*40,1606990481501
NMEA,$GPGSV,3,1,11,03,16,262,38,04,31,316,29,08,13,202,31,16,59,303,26*7C,1606990482486
Raw,19986585,19991432000000,,,-1291005709342206720,0.0,4263.065289705992,-1.2505627534187398,11.439226294046888,1238,7,0.0,207,47682703080978,9,35.2,671.4117431640625,0.21950000524520874,0,0.0,0.0,,,,,0,,3,,
Raw,19986587,19991432000000,,,-1291005709342206720,0.0,4263.065289705992,-1.2505627534187398,11.439226294046888,1238,8,0.0,207,47682705888752,40,21.0,90.29955291748047,0.9789999723434448,0,0.0,0.0,,,,,0,,3,,
Raw,19986590,19991432000000,,,-1291005709342206720,0.0,4263.065289705992,-1.2505627534187398,11.439226294046888,1238,3,0.0,15,382500693768568,7,37.6,246.39537048339844,0.032099999487400055,0,0.0,0.0,,,,,0,,1,,
Raw,19986592,19991432000000,,,-1291005709342206720,0.0,4263.065289705992,-1.2505627534187398,11.439226294046888,1238,4,0.0,15,382500698717986,16,29.2,-522.0702514648438,0.056700002402067184,0,0.0,0.0,,,,,0,,1,,
Raw,19986596,19991432000000,,,-1291005709342206720,0.0,4263.065289705992,-1.2505627534187398,11.439226294046888,1238,8,0.0,15,382500693938068,13,31.4,-713.9247436523438,0.39100000262260437,0,0.0,0.0,,,,,0,,1,,
Raw,19986598,19991432000000,,,-1291005709342206720,0.0,4263.065289705992,-1.2505627534187398,11.439226294046888,1238,16,0.0,15,382500705386156,24,25.6,37.49321746826172,0.18690000474452972,0,0.0,0.0,,,,,0,,1,,
Raw,19986601,19991432000000,,,-1291005709342206720,0.0,4263.065289705992,-1.2505627534187398,11.439226294046888,1238,22,0.0,15,382500692442445,14,30.8,291.31549072265625,0.04480000212788582,0,0.0,0.0,,,,,0,,1,,
Fix,gps,22.925485,120.294719,41.608032,0.000000,6.432000,1606990483000
NMEA,$GPGSV,3,2,11,22,14,240,31,18,06,087,,26,51,011,,27,46,185,*72,1606990482487
NMEA,$GPGSV,3,3,11,29,04,035,,31,42,068,,32,19,151,*46,1606990482488
NMEA,$GLGSV,3,1,09,75,00,000,33,71,34,202,35,72,47,272,21,74,36,351,*68,1606990482490
NMEA,$GLGSV,3,2,09,73,21,047,,65,20,316,,84,36,104,,83,15,042,*69,1606990482492
NMEA,$GLGSV,3,3,09,85,14,164,*57,1606990482492
NMEA,$GAGSV,1,1,0,*74,1606990482496
NMEA,$PQGSV,1,1,02,194,60,033,,195,52,126,,0,5*6D,1606990482496
NMEA,$PQGSV,1,1,0,*73,1606990482497
NMEA,$GNGSA,A,3,03,04,08,16,22,27,,,,,,,2.0,1.7,0.9,1*31,1606990482502
NMEA,$GNGSA,A,2,71,72,,,,,,,,,,,2.0,1.7,0.9,2*3D,1606990482503
NMEA,$GNVTG,,T,,M,0.0,N,0.0,K,A*3D,1606990482504
NMEA,$GNRMC,101443.00,A,2255.529091,N,12017.683137,E,0.0,,031220,2.8,W,A*17,1606990482505
NMEA,$GNGGA,101443.00,2255.529091,N,12017.683137,E,1,08,1.7,24.1,M,17.5,M,,*40,1606990482505
Raw,19987587,19992429000000,,,-1291005709342075392,0.0,4275.036044418812,7.982683881397747,14.542232298424793,1239,7,0.0,207,47683699947375,9,35.1,670.2606811523438,0.2435000091791153,0,0.0,0.0,,,,,0,,3,,
Raw,19987588,19992429000000,,,-1291005709342075392,0.0,4275.036044418812,7.982683881397747,14.542232298424793,1239,3,0.0,15,382501690636402,7,37.0,245.27783203125,0.02759999968111515,0,0.0,0.0,,,,,0,,1,,
Raw,19987588,19992429000000,,,-1291005709342075392,0.0,4275.036044418812,7.982683881397747,14.542232298424793,1239,4,0.0,15,382501695588390,17,28.2,-523.4225463867188,0.0632999986410141,0,0.0,0.0,,,,,0,,1,,
Raw,19987589,19992429000000,,,-1291005709342075392,0.0,4275.036044418812,7.982683881397747,14.542232298424793,1239,8,0.0,15,382501690809089,13,31.0,-715.3043823242188,0.03880000114440918,0,0.0,0.0,,,,,0,,1,,
Raw,19987589,19992429000000,,,-1291005709342075392,0.0,4275.036044418812,7.982683881397747,14.542232298424793,1239,16,0.0,15,382501702254746,35,22.9,36.602989196777344,0.7444999814033508,0,0.0,0.0,,,,,0,,1,,
Raw,19987590,19992429000000,,,-1291005709342075392,0.0,4275.036044418812,7.982683881397747,14.542232298424793,1239,22,0.0,15,382501689310135,16,29.9,290.1569519042969,0.04320000112056732,0,0.0,0.0,,,,,0,,1,,
Fix,gps,22.925485,120.294719,41.609375,0.000000,6.432000,1606990484000
NMEA,$GPGSV,3,1,11,03,16,262,37,04,31,316,28,08,13,202,31,16,59,303,23*77,1606990483483
NMEA,$GPGSV,3,2,11,22,14,240,30,18,06,087,,26,51,011,,27,46,185,*73,1606990483483
NMEA,$GPGSV,3,3,11,29,04,035,,31,42,068,,32,19,151,*46,1606990483484
NMEA,$GLGSV,2,1,08,75,00,000,33,71,34,202,35,74,36,351,,73,21,047,*6E,1606990483486
NMEA,$GLGSV,2,2,08,65,20,316,,84,36,104,,83,15,042,,85,14,164,*66,1606990483487
NMEA,$GAGSV,1,1,0,*74,1606990483488
NMEA,$PQGSV,1,1,03,193,33,171,,194,60,033,,195,52,126,,0,5*60,1606990483490
NMEA,$PQGSV,1,1,0,*73,1606990483491
NMEA,$GNGSA,A,3,03,04,08,16,22,27,,,,,,,2.0,1.7,0.9,1*31,1606990483506
NMEA,$GNGSA,A,2,71,,,,,,,,,,,,2.0,1.7,0.9,2*38,1606990483506
NMEA,$GNVTG,,T,,M,0.0,N,0.0,K,A*3D,1606990483506
NMEA,$GNRMC,101444.00,A,2255.529090,N,12017.683132,E,0.0,,031220,2.8,W,A*14,1606990483506
NMEA,$GNGGA,101444.00,2255.529090,N,12017.683132,E,1,07,1.7,24.1,M,17.5,M,,*4C,1606990483507
Raw,19988587,19993436000000,,,-1291005709341985024,0.0,4276.935011148453,3.4392721387459537,11.586624057699977,1240,7,0.0,207,47684706855019,10,34.9,670.470947265625,0.22609999775886536,0,0.0,0.0,,,,,0,,3,,
Raw,19988589,19993436000000,,,-1291005709341985024,0.0,4276.935011148453,3.4392721387459537,11.586624057699977,1240,3,0.0,15,382502697545400,7,37.4,245.4938201904297,0.038100000470876694,0,0.0,0.0,,,,,0,,1,,
Raw,19988591,19993436000000,,,-1291005709341985024,0.0,4276.935011148453,3.4392721387459537,11.586624057699977,1240,4,0.0,15,382502702499980,17,28.6,-523.199462890625,0.043800000101327896,0,0.0,0.0,,,,,0,,1,,
Raw,19988592,19993436000000,,,-1291005709341985024,0.0,4276.935011148453,3.4392721387459537,11.586624057699977,1240,8,0.0,15,382502697721293,14,30.9,-715.1344604492188,0.05230000242590904,0,0.0,0.0,,,,,0,,1,,
Raw,19988594,19993436000000,,,-1291005709341985024,0.0,4276.935011148453,3.4392721387459537,11.586624057699977,1240,16,0.0,15,382502709164460,35,22.6,35.917930603027344,0.7249999642372131,0,0.0,0.0,,,,,0,,1,,
Raw,19988595,19993436000000,,,-1291005709341985024,0.0,4276.935011148453,3.4392721387459537,11.586624057699977,1240,22,0.0,15,382502696219009,16,29.4,290.3296813964844,0.053700000047683716,0,0.0,0.0,,,,,0,,1,,
Fix,gps,22.925485,120.294719,41.625000,0.000000,6.432000,1606990485000
NMEA,$GPGSV,3,1,11,03,16,262,37,04,31,316,29,08,13,202,31,16,59,303,23*76,1606990484485
NMEA,$GPGSV,3,2,11,22,14,240,29,18,06,087,,26,51,011,,27,46,185,*7B,1606990484486
NMEA,$GPGSV,3,3,11,29,04,035,,31,42,068,,32,19,151,*46,1606990484489
NMEA,$GLGSV,3,1,09,75,00,000,33,71,34,202,35,74,36,351,,73,21,047,*6E,1606990484490
NMEA,$GLGSV,3,2,09,65,20,316,,84,36,104,,83,15,042,,85,14,164,*66,1606990484492
NMEA,$GLGSV,3,3,09,72,47,272,*5D,1606990484495
NMEA,$GAGSV,1,1,0,*74,1606990484498
NMEA,$PQGSV,1,1,03,193,33,171,,194,60,033,,195,52,126,,0,5*60,1606990484502
NMEA,$PQGSV,1,1,0,*73,1606990484502
NMEA,$GNGSA,A,3,03,04,08,16,22,27,,,,,,,2.0,1.7,0.9,1*31,1606990484505
NMEA,$GNGSA,A,2,71,72,,,,,,,,,,,2.0,1.7,0.9,2*3D,1606990484506
NMEA,$GNVTG,,T,,M,0.0,N,0.0,K,A*3D,1606990484506
NMEA,$GNRMC,101445.00,A,2255.529089,N,12017.683127,E,0.0,,031220,2.8,W,A*19,1606990484506
NMEA,$GNGGA,101445.00,2255.529089,N,12017.683127,E,1,08,1.7,24.2,M,17.5,M,,*4D,1606990484506
NMEA,$GPGSV,3,1,11,03,16,262,38,04,31,316,29,08,13,202,31,16,59,303,24*7E,1606990485482
Raw,19989583,19994426000000,,,-1291005709341068800,0.0,4284.617491066456,3.8938435462168326,11.392970494588837,1241,7,0.0,207,47685695936460,10,34.6,671.019287109375,0.23960000276565552,0,0.0,0.0,,,,,0,,3,,
Raw,19989586,19994426000000,,,-1291005709341068800,0.0,4284.617491066456,3.8938435462168326,11.392970494588837,1241,3,0.0,15,382503686628247,7,37.5,246.10057067871094,0.02160000056028366,0,0.0,0.0,,,,,0,,1,,
Raw,19989588,19994426000000,,,-1291005709341068800,0.0,4284.617491066456,3.8938435462168326,11.392970494588837,1241,4,0.0,15,382503691585351,16,29.0,-522.6761474609375,0.04619999974966049,0,0.0,0.0,,,,,0,,1,,
Raw,19989592,19994426000000,,,-1291005709341068800,0.0,4284.617491066456,3.8938435462168326,11.392970494588837,1241,8,0.0,15,382503686807283,14,30.6,-714.33203125,0.03579999879002571,0,0.0,0.0,,,,,0,,1,,
Raw,19989594,19994426000000,,,-1291005709341068800,0.0,4284.617491066456,3.8938435462168326,11.392970494588837,1241,16,0.0,15,382503698248069,31,23.7,37.868438720703125,0.6784999966621399,0,0.0,0.0,,,,,0,,1,,
Raw,19989596,19994426000000,,,-1291005709341068800,0.0,4284.617491066456,3.8938435462168326,11.392970494588837,1241,22,0.0,15,382503685301663,14,30.5,290.9482727050781,0.034299999475479126,0,0.0,0.0,,,,,0,,1,,
Fix,gps,22.925485,120.294719,41.653870,0.000000,7.504000,1606990486000
NMEA,$GPGSV,3,2,11,22,14,240,31,18,06,087,,26,51,011,,27,46,185,*72,1606990485489
NMEA,$GPGSV,3,3,11,29,04,035,,31,42,068,,32,19,151,*46,1606990485489
NMEA,$GLGSV,3,1,09,75,00,000,33,71,34,202,35,74,36,351,,73,21,047,*6E,1606990485491
NMEA,$GLGSV,3,2,09,65,20,316,,84,36,104,,83,15,042,,85,14,164,*66,1606990485492
NMEA,$GLGSV,3,3,09,72,47,272,*5D,1606990485493
NMEA,$GAGSV,1,1,0,*74,1606990485494
NMEA,$PQGSV,1,1,03,193,33,171,,194,60,033,,195,52,126,,0,5*60,1606990485495
NMEA,$PQGSV,1,1,0,*73,1606990485495
NMEA,$GNGSA,A,3,03,04,08,16,22,27,,,,,,,2.2,2.0,1.0,1*3F,1606990485497
NMEA,$GNGSA,A,2,71,72,,,,,,,,,,,2.2,2.0,1.0,2*33,1606990485498
NMEA,$GNVTG,,T,,M,0.0,N,0.0,K,A*3D,1606990485499
NMEA,$GNRMC,101446.00,A,2255.529087,N,12017.683121,E,0.0,,031220,2.8,W,A*12,1606990485499
NMEA,$GNGGA,101446.00,2255.529087,N,12017.683121,E,1,08,2.0,24.2,M,17.5,M,,*42,1606990485500
Raw,19990588,19995442000000,,,-1291005709340854272,0.0,4322.106949985027,6.154617117846185,12.374474134816243,1242,7,0.0,207,47686711719579,10,34.6,670.5825805664062,0.23360000550746918,0,0.0,0.0,,,,,0,,3,,
Raw,19990593,19995442000000,,,-1291005709340854272,0.0,4322.106949985027,6.154617117846185,12.374474134816243,1242,3,0.0,15,382504702412821,7,37.0,245.57298278808594,0.04560000076889992,0,0.0,0.0,,,,,0,,1,,
Raw,19990595,19995442000000,,,-1291005709340854272,0.0,4322.106949985027,6.154617117846185,12.374474134816243,1242,4,0.0,15,382504707372554,16,29.0,-523.0383911132812,0.04020000249147415,0,0.0,0.0,,,,,0,,1,,
Raw,19990598,19995442000000,,,-1291005709340854272,0.0,4322.106949985027,6.154617117846185,12.374474134816243,1242,8,0.0,15,382504702595127,13,31.1,-715.0842895507812,0.026799999177455902,0,0.0,0.0,,,,,0,,1,,
Raw,19990601,19995442000000,,,-1291005709340854272,0.0,4322.106949985027,6.154617117846185,12.374474134816243,1242,16,0.0,15,382504714033262,21,26.1,36.699825286865234,0.11869999766349792,0,0.0,0.0,,,,,0,,1,,
Raw,19990603,19995442000000,,,-1291005709340854272,0.0,4322.106949985027,6.154617117846185,12.374474134816243,1242,22,0.0,15,382504701086106,14,30.0,290.3299865722656,0.05829999968409538,0,0.0,0.0,,,,,0,,1,,
Fix,gps,22.925485,120.294719,41.667297,0.000000,7.504000,1606990487000
NMEA,$GPGSV,3,1,11,03,16,262,37,04,31,316,29,08,13,202,31,16,59,303,26*73,1606990486487
NMEA,$GPGSV,3,2,11,22,14,240,30,18,06,087,,26,51,011,,27,46,185,*73,1606990486488
NMEA,$GPGSV,3,3,11,29,04,035,,31,42,068,,32,19,151,*46,1606990486489
NMEA,$GLGSV,3,1,09,75,00,000,33,71,34,202,35,74,36,351,,73,21,047,*6E,1606990486489
NMEA,$GLGSV,3,2,09,65,20,316,,84,36,104,,83,15,042,,85,14,164,*66,1606990486490
NMEA,$GLGSV,3,3,09,72,47,272,*5D,1606990486492
NMEA,$GAGSV,1,1,0,*74,1606990486493
NMEA,$PQGSV,1,1,03,193,33,171,,194,60,033,,195,52,126,,0,5*60,1606990486495
NMEA,$PQGSV,1,1,0,*73,1606990486497
NMEA,$GNGSA,A,3,03,04,08,16,22,,,,,,,,2.2,2.0,1.0,1*3A,1606990486504
NMEA,$GNGSA,A,2,71,72,,,,,,,,,,,2.2,2.0,1.0,2*33,1606990486505
NMEA,$GNVTG,,T,,M,0.0,N,0.0,K,A*3D,1606990486506
NMEA,$GNRMC,101447.00,A,2255.529086,N,12017.683116,E,0.0,,031220,2.8,W,A*16,1606990486506
NMEA,$GNGGA,101447.00,2255.529086,N,12017.683116,E,1,07,2.0,24.2,M,17.5,M,,*49,1606990486506
NMEA,$GPGSV,3,1,11,03,16,262,37,04,31,316,28,08,13,202,31,16,59,303,22*76,1606990487484
Raw,19991584,19996434000000,,,-1291005709340056576,0.0,4323.431756347418,4.231421890565552,8.369197319401415,1243,7,0.0,207,47687702919477,11,33.5,670.331298828125,0.22200000286102295,0,0.0,0.0,,,,,0,,3,,
Raw,19991587,19996434000000,,,-1291005709340056576,0.0,4323.431756347418,4.231421890565552,8.369197319401415,1243,3,0.0,15,382505693614094,7,37.4,245.28895568847656,0.032099999487400055,0,0.0,0.0,,,,,0,,1,,
Raw,19991589,19996434000000,,,-1291005709340056576,0.0,4323.431756347418,4.231421890565552,8.369197319401415,1243,4,0.0,15,382505698576368,17,28.2,-523.4066162109375,0.06780000030994415,0,0.0,0.0,,,,,0,,1,,
Raw,19991592,19996434000000,,,-1291005709340056576,0.0,4323.431756347418,4.231421890565552,8.369197319401415,1243,8,0.0,15,382505693799568,14,30.9,-715.4664916992188,0.046300001442432404,0,0.0,0.0,,,,,0,,1,,
Raw,19991595,19996434000000,,,-1291005709340056576,0.0,4323.431756347418,4.231421890565552,8.369197319401415,1243,16,0.0,15,382505705235355,35,22.4,36.517356872558594,0.7789999842643738,0,0.0,0.0,,,,,0,,1,,
Raw,19991597,19996434000000,,,-1291005709340056576,0.0,4323.431756347418,4.231421890565552,8.369197319401415,1243,22,0.0,15,382505692287302,17,28.7,289.9956970214844,0.058800000697374344,0,0.0,0.0,,,,,0,,1,,
Fix,gps,22.925485,120.294719,41.692261,0.000000,7.504000,1606990488000
NMEA,$GPGSV,3,2,11,22,14,240,29,18,06,087,,26,51,011,,27,46,185,*7B,1606990487487
NMEA,$GPGSV,3,3,11,29,04,035,,31,42,068,,32,19,151,*46,1606990487493
NMEA,$GLGSV,3,1,09,75,00,000,33,71,34,202,34,74,36,351,,73,21,047,*6F,1606990487495
NMEA,$GLGSV,3,2,09,65,20,316,,84,36,104,,83,15,042,,85,14,164,*66,1606990487496
NMEA,$GLGSV,3,3,09,72,47,272,*5D,1606990487498
NMEA,$GAGSV,1,1,0,*74,1606990487499
NMEA,$PQGSV,1,1,03,193,33,171,,194,60,033,,195,52,126,,0,5*60,1606990487501
NMEA,$PQGSV,1,1,0,*73,1606990487502
NMEA,$GNGSA,A,3,03,04,08,16,22,,,,,,,,2.2,2.0,1.0,1*3A,1606990487505
NMEA,$GNGSA,A,2,71,72,,,,,,,,,,,2.2,2.0,1.0,2*33,1606990487505
NMEA,$GNVTG,,T,,M,0.0,N,0.0,K,A*3D,1606990487506
NMEA,$GNRMC,101448.00,A,2255.529084,N,12017.683110,E,0.0,,031220,2.8,W,A*1D,1606990487506
NMEA,$GNGGA,101448.00,2255.529084,N,12017.683110,E,1,07,2.0,24.2,M,17.5,M,,*42,1606990487506
NMEA,$GPGSV,3,1,11,03,16,262,37,04,31,316,28,08,13,202,31,16,59,303,24*70,1606990488483
Raw,19992686,19997432000000,,,-1291005709339263744,0.0,4344.504792243242,2.33184485237945,9.06668782196988,1244,7,0.0,207,47688700124545,10,34.4,672.1229858398438,0.24709999561309814,0,0.0,0.0,,,,,0,,3,,
Raw,19992686,19997432000000,,,-1291005709339263744,0.0,4344.504792243242,2.33184485237945,9.06668782196988,1244,3,0.0,15,382506690820590,8,36.8,247.16249084472656,0.029000001028180122,0,0.0,0.0,,,,,0,,1,,
Raw,19992687,19997432000000,,,-1291005709339263744,0.0,4344.504792243242,2.33184485237945,9.06668782196988,1244,4,0.0,15,382506695785488,17,28.3,-521.4689331054688,0.0632999986410141,0,0.0,0.0,,,,,0,,1,,
Raw,19992687,19997432000000,,,-1291005709339263744,0.0,4344.504792243242,2.33184485237945,9.06668782196988,1244,8,0.0,15,382506691009300,13,31.2,-713.6611328125,0.040300000458955765,0,0.0,0.0,,,,,0,,1,,
Raw,19992688,19997432000000,,,-1291005709339263744,0.0,4344.504792243242,2.33184485237945,9.06668782196988,1244,16,0.0,15,382506702442454,27,24.3,38.66767120361328,0.684499979019165,0,0.0,0.0,,,,,0,,1,,
Raw,19992689,19997432000000,,,-1291005709339263744,0.0,4344.504792243242,2.33184485237945,9.06668782196988,1244,22,0.0,15,382506689493676,17,28.9,291.8555908203125,0.05429999902844429,0,0.0,0.0,,,,,0,,1,,
Raw,19992689,19997432000000,,,-1291005709339263744,0.0,4344.504792243242,2.33184485237945,9.06668782196988,1244,31,0.0,15,382506697756056,40,21.2,177.7818603515625,0.8569999933242798,0,0.0,0.0,,,,,0,,1,,
Fix,gps,22.925485,120.294718,41.700439,0.000000,7.504000,1606990489000
NMEA,$GPGSV,3,2,11,22,14,240,29,31,42,068,21,18,06,087,,26,51,011,*79,1606990488484
NMEA,$GPGSV,3,3,11,27,46,185,,29,04,035,,32,19,151,*47,1606990488484
NMEA,$GLGSV,3,1,09,75,00,000,33,71,34,202,34,74,36,351,,73,21,047,*6F,1606990488485
NMEA,$GLGSV,3,2,09,65,20,316,,84,36,104,,83,15,042,,85,14,164,*66,1606990488486
NMEA,$GLGSV,3,3,09,72,47,272,*5D,1606990488486
NMEA,$GAGSV,1,1,0,*74,1606990488487
NMEA,$PQGSV,1,1,03,193,33,171,,194,60,033,,195,52,126,,0,5*60,1606990488488
NMEA,$PQGSV,1,1,0,*73,1606990488489
NMEA,$GNGSA,A,3,03,04,08,16,22,,,,,,,,1.5,1.1,0.9,1*34,1606990488491
NMEA,$GNGSA,A,2,71,72,,,,,,,,,,,1.5,1.1,0.9,2*3D,1606990488492
NMEA,$GNVTG,,T,,M,0.0,N,0.0,K,A*3D,1606990488492
NMEA,$GNRMC,101449.00,A,2255.529084,N,12017.683106,E,0.0,,031220,2.8,W,A*1B,1606990488493
NMEA,$GNGGA,101449.00,2255.529084,N,12017.683106,E,1,07,1.1,24.2,M,17.5,M,,*46,1606990488494
Raw,19993551,19998440000000,,,-1291005709338880256,0.0,4352.799616754055,8.368927719896297,12.859167918852513,1245,7,0.0,207,47689707738941,10,34.3,670.798095703125,0.22759999334812164,0,0.0,0.0,,,,,0,,3,,
Raw,19993551,19998440000000,,,-1291005709338880256,0.0,4352.799616754055,8.368927719896297,12.859167918852513,1245,3,0.0,15,382507698436422,6,38.0,245.7438507080078,0.038200002163648605,0,0.0,0.0,,,,,0,,1,,
Raw,19993551,19998440000000,,,-1291005709338880256,0.0,4352.799616754055,8.368927719896297,12.859167918852513,1245,4,0.0,15,382507703403904,17,28.6,-522.8890380859375,0.04529999941587448,0,0.0,0.0,,,,,0,,1,,
Raw,19993552,19998440000000,,,-1291005709338880256,0.0,4352.799616754055,8.368927719896297,12.859167918852513,1245,8,0.0,15,382507698628339,13,31.4,-715.1082153320312,0.05079999938607216,0,0.0,0.0,,,,,0,,1,,
Raw,19993552,19998440000000,,,-1291005709338880256,0.0,4352.799616754055,8.368927719896297,12.859167918852513,1245,16,0.0,15,382507710059007,27,24.6,36.48881149291992,0.6165000200271606,0,0.0,0.0,,,,,0,,1,,
Raw,19993552,19998440000000,,,-1291005709338880256,0.0,4352.799616754055,8.368927719896297,12.859167918852513,1245,22,0.0,15,382507697109310,17,28.4,290.38116455078125,0.06629999727010727,0,0.0,0.0,,,,,0,,1,,
Raw,19993553,19998440000000,,,-1291005709338880256,0.0,4352.799616754055,8.368927719896297,12.859167918852513,1245,31,0.0,15,382507705371929,35,22.6,174.6515350341797,0.718999981880188,0,0.0,0.0,,,,,0,,1,,
Fix,gps,22.925485,120.294718,41.713318,0.000000,8.576000,1606990490000
NMEA,$GPGSV,3,1,11,03,16,262,38,04,31,316,29,08,13,202,31,16,59,303,25*7F,1606990489478
NMEA,$GPGSV,3,2,11,22,14,240,28,31,42,068,23,18,06,087,,26,51,011,*7A,1606990489479
NMEA,$GPGSV,3,3,11,27,46,185,,29,04,035,,32,19,151,*47,1606990489479
NMEA,$GLGSV,3,1,09,75,00,000,33,71,34,202,34,74,36,351,,73,21,047,*6F,1606990489479
NMEA,$GLGSV,3,2,09,65,20,316,,84,36,104,,83,15,042,,85,14,164,*66,1606990489479
NMEA,$GLGSV,3,3,09,72,47,272,*5D,1606990489480
NMEA,$GAGSV,1,1,0,*74,1606990489480
NMEA,$PQGSV,1,1,03,193,33,171,22,194,60,033,,195,52,126,,0,5*60,1606990489480
NMEA,$PQGSV,1,1,0,*73,1606990489480
NMEA,$GNGSA,A,3,03,04,08,16,22,31,,,,,,,1.5,1.1,0.9,1*36,1606990489481
NMEA,$GNGSA,A,2,71,,,,,,,,,,,,1.5,1.1,0.9,2*38,1606990489482
NMEA,$GNVTG,,T,,M,0.0,N,0.0,K,A*3D,1606990489482
NMEA,$GNRMC,101450.00,A,2255.529086,N,12017.683103,E,0.0,,031220,2.8,W,A*14,1606990489483
NMEA,$GNGGA,101450.00,2255.529086,N,12017.683103,E,1,07,1.1,24.2,M,17.5,M,,*49,1606990489483
Fix,gps,22.925485,120.294718,41.722656,0.000000,8.576000,1606990491000
Raw,19994613,19999429000000,,,-1291005709337952256,0.0,4358.283709734678,3.3972261474895293,11.168221531329667,1246,7,0.0,207,47690695808525,10,34.3,670.3316650390625,0.23960000276565552,0,0.0,0.0,,,,,0,,3,,
Raw,19994615,19999429000000,,,-1291005709337952256,0.0,4358.283709734678,3.3972261474895293,11.168221531329667,1246,3,0.0,15,382508686507409,6,38.3,245.24514770507812,0.020200001075863838,0,0.0,0.0,,,,,0,,1,,
Raw,19994618,19999429000000,,,-1291005709337952256,0.0,4358.283709734678,3.3972261474895293,11.168221531329667,1246,4,0.0,15,382508691477407,19,27.5,-523.3932495117188,0.08009999990463257,0,0.0,0.0,,,,,0,,1,,
Raw,19994620,19999429000000,,,-1291005709337952256,0.0,4358.283709734678,3.3972261474895293,11.168221531329667,1246,8,0.0,15,382508686702495,14,30.1,-715.6805419921875,0.03579999879002571,0,0.0,0.0,,,,,0,,1,,
Raw,19994623,19999429000000,,,-1291005709337952256,0.0,4358.283709734678,3.3972261474895293,11.168221531329667,1246,16,0.0,15,382508698130645,24,25.0,36.417510986328125,0.20640000700950623,0,0.0,0.0,,,,,0,,1,,
Raw,19994625,19999429000000,,,-1291005709337952256,0.0,4358.283709734678,3.3972261474895293,11.168221531329667,1246,22,0.0,15,382508685180135,17,28.5,289.8106689453125,0.04829999804496765,0,0.0,0.0,,,,,0,,1,,
Raw,19994627,19999429000000,,,-1291005709337952256,0.0,4358.283709734678,3.3972261474895293,11.168221531329667,1246,31,0.0,15,382508693443226,31,23.3,174.00453186035156,0.7310000061988831,0,0.0,0.0,,,,,0,,1,,
NMEA,$GPGSV,3,1,11,03,16,262,38,04,31,316,28,08,13,202,30,16,59,303,25*7F,1606990490485
NMEA,$GPGSV,3,2,11,22,14,240,29,31,42,068,23,18,06,087,,26,51,011,*7B,1606990490486
NMEA,$GPGSV,3,3,11,27,46,185,,29,04,035,,32,19,151,*47,1606990490487
NMEA,$GLGSV,3,1,09,75,00,000,33,71,34,202,34,74,36,351,,73,21,047,*6F,1606990490487
NMEA,$GLGSV,3,2,09,65,20,316,,84,36,104,,83,15,042,,85,14,164,*66,1606990490490
NMEA,$GLGSV,3,3,09,72,47,272,*5D,1606990490495
NMEA,$GAGSV,1,1,0,*74,1606990490497
NMEA,$PQGSV,1,1,02,194,60,033,,195,52,126,,0,5*6D,1606990490498
NMEA,$PQGSV,1,1,0,*73,1606990490499
NMEA,$GNGSA,A,3,03,04,08,16,22,31,,,,,,,1.5,1.1,0.9,1*36,1606990490501
NMEA,$GNGSA,A,2,71,,,,,,,,,,,,1.5,1.1,0.9,2*38,1606990490505
NMEA,$GNVTG,,T,,M,0.0,N,0.0,K,A*3D,1606990490506
NMEA,$GNRMC,101451.00,A,2255.529087,N,12017.683100,E,0.0,,031220,2.8,W,A*17,1606990490506
NMEA,$GNGGA,101451.00,2255.529087,N,12017.683100,E,1,07,1.1,24.3,M,17.5,M,,*4B,1606990490506
NMEA,$GPGSV,3,1,11,03,16,262,38,04,31,316,27,08,13,202,31,16,59,303,26*72,1606990491482
Raw,19995583,20000444000000,,,-1291005709337777664,0.0,4368.460271507502,1.0766230576603981,9.58530104108834,1247,7,0.0,207,47691710631771,9,35.0,671.1983032226562,0.23000000417232513,0,0.0,0.0,,,,,0,,3,,
Raw,19995585,20000444000000,,,-1291005709337777664,0.0,4368.460271507502,1.0766230576603981,9.58530104108834,1247,3,0.0,15,382509701332088,6,38.2,246.1392364501953,0.04270000010728836,0,0.0,0.0,,,,,0,,1,,
Raw,19995586,20000444000000,,,-1291005709337777664,0.0,4368.460271507502,1.0766230576603981,9.58530104108834,1247,4,0.0,15,382509706304725,21,26.8,-522.4495239257812,0.10669999569654465,0,0.0,0.0,,,,,0,,1,,
Raw,19995587,20000444000000,,,-1291005709337777664,0.0,4368.460271507502,1.0766230576603981,9.58530104108834,1247,8,0.0,15,382509701530449,14,30.8,-714.780029296875,0.05829999968409538,0,0.0,0.0,,,,,0,,1,,
Raw,19995589,20000444000000,,,-1291005709337777664,0.0,4368.460271507502,1.0766230576603981,9.58530104108834,1247,16,0.0,15,382509712955967,24,25.9,37.60970687866211,0.19740000367164612,0,0.0,0.0,,,,,0,,1,,
Raw,19995590,20000444000000,,,-1291005709337777664,0.0,4368.460271507502,1.0766230576603981,9.58530104108834,1247,22,0.0,15,382509700004649,16,29.5,290.7013244628906,0.059700001031160355,0,0.0,0.0,,,,,0,,1,,
Raw,19995592,20000444000000,,,-1291005709337777664,0.0,4368.460271507502,1.0766230576603981,9.58530104108834,1247,31,0.0,15,382509708268218,27,24.6,175.52688598632812,0.6134999990463257,0,0.0,0.0,,,,,0,,1,,
Fix,gps,22.925485,120.294718,41.728394,0.000000,8.576000,1606990492000
NMEA,$GPGSV,3,2,11,22,14,240,30,31,42,068,25,18,06,087,,26,51,011,*75,1606990491483
NMEA,$GPGSV,3,3,11,27,46,185,,29,04,035,,32,19,151,*47,1606990491486
NMEA,$GLGSV,3,1,09,75,00,000,33,71,34,202,35,74,36,351,,73,21,047,*6E,1606990491487
NMEA,$GLGSV,3,2,09,65,20,316,,84,36,104,,83,15,042,,85,14,164,*66,1606990491488
NMEA,$GLGSV,3,3,09,72,47,272,*5D,1606990491490
NMEA,$GAGSV,1,1,0,*74,1606990491491
NMEA,$PQGSV,1,1,03,193,33,171,,194,60,033,,195,52,126,,0,5*60,1606990491493
NMEA,$PQGSV,1,1,0,*73,1606990491493
NMEA,$GNGSA,A,3,03,04,08,16,22,31,,,,,,,1.5,1.1,0.9,1*36,1606990491496
NMEA,$GNGSA,A,2,71,,,,,,,,,,,,1.5,1.1,0.9,2*38,1606990491500
NMEA,$GNVTG,,T,,M,0.0,N,0.0,K,A*3D,1606990491501
NMEA,$GNRMC,101452.00,A,2255.529089,N,12017.683099,E,0.0,,031220,2.8,W,A*1B,1606990491501
NMEA,$GNGGA,101452.00,2255.529089,N,12017.683099,E,1,07,1.1,24.3,M,17.5,M,,*47,1606990491502
Raw,19996589,20001437000000,,,-1291005709337552640,0.0,4367.303568869829,4.18939816711486,10.464624878317814,1248,7,0.0,207,47692703404444,9,35.0,670.5178833007812,0.21950000524520874,0,0.0,0.0,,,,,0,,3,,
Raw,19996590,20001437000000,,,-1291005709337552640,0.0,4367.303568869829,4.18939816711486,10.464624878317814,1248,3,0.0,15,382510694106192,6,38.1,245.4309539794922,0.03220000118017197,0,0.0,0.0,,,,,0,,1,,
Raw,19996591,20001437000000,,,-1291005709337552640,0.0,4367.303568869829,4.18939816711486,10.464624878317814,1248,4,0.0,15,382510699081330,19,27.6,-523.1700439453125,0.09210000187158585,0,0.0,0.0,,,,,0,,1,,
Raw,19996591,20001437000000,,,-1291005709337552640,0.0,4367.303568869829,4.18939816711486,10.464624878317814,1248,8,0.0,15,382510694307723,13,31.2,-715.5420532226562,0.04480000212788582,0,0.0,0.0,,,,,0,,1,,
Raw,19996591,20001437000000,,,-1291005709337552640,0.0,4367.303568869829,4.18939816711486,10.464624878317814,1248,16,0.0,15,382510705730765,24,25.9,36.64049530029297,0.18690000474452972,0,0.0,0.0,,,,,0,,1,,
Raw,19996592,20001437000000,,,-1291005709337552640,0.0,4367.303568869829,4.18939816711486,10.464624878317814,1248,22,0.0,15,382510692778600,16,29.0,289.8890380859375,0.047700002789497375,0,0.0,0.0,,,,,0,,1,,
Raw,19996592,20001437000000,,,-1291005709337552640,0.0,4367.303568869829,4.18939816711486,10.464624878317814,1248,31,0.0,15,382510701042537,40,21.3,174.7086181640625,0.8629999756813049,0,0.0,0.0,,,,,0,,1,,
Fix,gps,22.925485,120.294718,41.732239,0.000000,8.576000,1606990493000
NMEA,$GPGSV,3,1,11,03,16,262,38,04,31,316,28,08,13,202,31,16,59,303,26*7D,1606990492484
NMEA,$GPGSV,3,2,11,22,14,240,29,31,42,068,21,18,06,087,,26,51,011,*79,1606990492485
NMEA,$GPGSV,3,3,11,27,46,185,,29,04,035,,32,19,151,*47,1606990492487
NMEA,$GLGSV,3,1,09,75,00,000,33,71,34,202,35,74,36,351,,73,21,047,*6E,1606990492488
NMEA,$GLGSV,3,2,09,65,20,316,,84,36,104,,83,15,042,,85,14,164,*66,1606990492489
NMEA,$GLGSV,3,3,09,72,47,272,*5D,1606990492495
NMEA,$GAGSV,1,1,0,*74,1606990492496
NMEA,$PQGSV,1,1,03,193,33,171,,194,60,033,,195,52,126,,0,5*60,1606990492497
NMEA,$PQGSV,1,1,0,*73,1606990492498
NMEA,$GNGSA,A,3,03,04,08,16,22,31,,,,,,,1.5,1.1,0.9,1*36,1606990492503
NMEA,$GNGSA,A,2,71,,,,,,,,,,,,1.5,1.1,0.9,2*38,1606990492508
NMEA,$GNVTG,,T,,M,0.0,N,0.0,K,A*3D,1606990492508
NMEA,$GNRMC,101453.00,A,2255.529090,N,12017.683097,E,0.0,,031220,2.8,W,A*1C,1606990492508
NMEA,$GNGGA,101453.00,2255.529090,N,12017.683097,E,1,07,1.1,24.3,M,17.5,M,,*40,1606990492508
Raw,19997568,20002431000000,,,-1291005709336573696,0.0,4361.198749393225,1.6530625871513243,9.302456167951584,1249,7,0.0,207,47693696423463,9,35.1,671.8283081054688,0.23900000751018524,0,0.0,0.0,,,,,0,,3,,
