# 
# Header Description:
# 
# Version: v2.0.0.1 Platform: 8.0.0 Manufacturer: Sony Model: G8142
# 
# Raw,ElapsedRealtimeMillis,TimeNanos,LeapSecond,TimeUncertaintyNanos,FullBiasNanos,BiasNanos,BiasUncertaintyNanos,DriftNanosPerSecond,DriftUncertaintyNanosPerSecond,HardwareClockDiscontinuityCount,Svid,TimeOffsetNanos,State,ReceivedSvTimeNanos,ReceivedSvTimeUncertaintyNanos,Cn0DbHz,PseudorangeRateMetersPerSecond,PseudorangeRateUncertaintyMetersPerSecond,AccumulatedDeltaRangeState,AccumulatedDeltaRangeMeters,AccumulatedDeltaRangeUncertaintyMeters,CarrierFrequencyHz,CarrierCycles,CarrierPhase,CarrierPhaseUncertainty,MultipathIndicator,SnrInDb,ConstellationType,AgcDb,CarrierFrequencyHz
# 
# Fix,Provider,Latitude,Longitude,Altitude,Speed,Accuracy,(UTC)TimeInMs
# 
# Nav,Svid,Type,Status,MessageId,Sub-messageId,Data(Bytes)
# 
Fix,gps,22.925467,120.294691,51.057495,0.470000,10.720000,1606990884000
NMEA,$GPGSV,3,1,12,03,15,260,18,04,33,314,29,08,16,202,34,09,00,000,21*79,1606990883482
NMEA,$GPGSV,3,2,12,16,59,310,25,22,13,237,25,26,49,014,20,27,49,185,29*77,1606990883482
NMEA,$GPGSV,3,3,12,29,02,035,17,32,16,151,12,18,07,084,,31,41,073,*72,1606990883482
NMEA,$GLGSV,3,1,09,75,00,000,31,65,22,313,31,71,31,201,30,72,46,267,26*6A,1606990883482
NMEA,$GLGSV,3,2,09,74,36,355,,73,19,050,,84,37,099,,83,14,039,*6D,1606990883483
NMEA,$GLGSV,3,3,09,85,17,163,*53,1606990883483
NMEA,$GAGSV,2,1,08,02,07,262,27,03,30,307,22,05,61,236,31,09,29,170,15*66,1606990883484
NMEA,$GAGSV,2,2,08,25,43,302,32,24,42,021,,31,07,059,,33,00,000,*6A,1606990883484
NMEA,$PQGSV,1,1,03,193,32,171,27,194,60,033,21,195,53,125,,0,5*65,1606990883484
NMEA,$PQGSV,4,1,15,02,40,240,20,03,58,202,24,05,16,255,25,10,51,270,28,0,4*6D,1606990883484
NMEA,$PQGSV,4,2,15,12,16,185,30,14,28,281,21,16,80,164,20,21,23,194,31,0,4*67,1606990883484
NMEA,$PQGSV,4,3,15,24,26,305,29,01,52,129,,04,37,115,,07,67,316,,0,4*6C,1606990883485
NMEA,$PQGSV,4,4,15,08,01,172,,26,49,002,,29,13,043,,0,4*57,1606990883485
NMEA,$GNGSA,A,3,03,04,08,16,22,26,27,32,,,,,1.2,0.9,0.8,1*3B,1606990883486
NMEA,$GNGSA,A,2,71,,,,,,,,,,,,1.2,0.9,0.8,2*37,1606990883487
NMEA,$GNGSA,A,3,02,03,05,09,25,,,,,,,,1.2,0.9,0.8,3*3B,1606990883487
NMEA,$PQGSA,A,2,10,21,24,,,,,,,,,,1.2,0.9,0.8,4*3B,1606990883487
NMEA,$GNVTG,188.4,T,188.4,M,0.9,N,1.7,K,A*32,1606990883487
NMEA,$GNRMC,102124.00,A,2255.528021,N,12017.681448,E,0.9,188.4,031220,2.8,W,A*37,1606990883487
NMEA,$GNGGA,102124.00,2255.528021,N,12017.681448,E,1,12,0.9,33.6,M,17.5,M,,*47,1606990883487
Raw,20388561,20393113000000,,,-1291005709323027712,0.0,46.28377064364031,1.3689841372228904,14.526420565797093,1277,11,0.0,207,48084363626556,14,30.0,-131.87078857421875,0.23029999434947968,0,0.0,0.0,,,,,0,,3,,
Raw,20388561,20393113000000,,,-1291005709323027712,0.0,46.28377064364031,1.3689841372228904,14.526420565797093,1277,1,0.0,207,48084361548678,16,29.8,-372.52703857421875,0.2282000035047531,0,0.0,0.0,,,,,0,,3,,
Raw,20388561,20393113000000,,,-1291005709323027712,0.0,46.28377064364031,1.3689841372228904,14.526420565797093,1277,7,0.0,207,48084363988506,13,31.2,692.2426147460938,0.2296999990940094,0,0.0,0.0,,,,,0,,3,,
Raw,20388561,20393113000000,,,-1291005709323027712,0.0,46.28377064364031,1.3689841372228904,14.526420565797093,1277,8,0.0,207,48084367549140,31,23.6,149.19827270507812,0.8769999742507935,0,0.0,0.0,,,,,0,,3,,
Raw,20388562,20393113000000,,,-1291005709323027712,0.0,46.28377064364031,1.3689841372228904,14.526420565797093,1277,3,0.0,15,382902355247390,46,20.8,264.0895690917969,0.8689999580383301,0,0.0,0.0,,,,,0,,1,,
Raw,20388562,20393113000000,,,-1291005709323027712,0.0,46.28377064364031,1.3689841372228904,14.526420565797093,1277,4,0.0,15,382902361222020,16,29.9,-495.9399719238281,0.028200000524520874,0,0.0,0.0,,,,,0,,1,,
Raw,20388562,20393113000000,,,-1291005709323027712,0.0,46.28377064364031,1.3689841372228904,14.526420565797093,1277,8,0.0,15,382902356713231,10,34.2,-708.7809448242188,0.04610000178217888,0,0.0,0.0,,,,,0,,1,,
Raw,20388562,20393113000000,,,-1291005709323027712,0.0,46.28377064364031,1.3689841372228904,14.526420565797093,1277,9,0.0,15,382902350083266,40,21.0,-657.521728515625,0.8614999651908875,0,0.0,0.0,,,,,0,,1,,
Raw,20388562,20393113000000,,,-1291005709323027712,0.0,46.28377064364031,1.3689841372228904,14.526420565797093,1277,16,0.0,15,382902367140367,31,23.9,63.053810119628906,0.6769999861717224,0,0.0,0.0,,,,,0,,1,,
Raw,20388562,20393113000000,,,-1291005709323027712,0.0,46.28377064364031,1.3689841372228904,14.526420565797093,1277,22,0.0,15,382902353872611,24,25.7,292.50689697265625,0.40130001306533813,0,0.0,0.0,,,,,0,,1,,
Raw,20388563,20393113000000,,,-1291005709323027712,0.0,46.28377064364031,1.3689841372228904,14.526420565797093,1277,26,0.0,15,382902364717912,73,17.3,315.25,1.9225000143051147,0,0.0,0.0,,,,,0,,1,,
Raw,20388563,20393113000000,,,-1291005709323027712,0.0,46.28377064364031,1.3689841372228904,14.526420565797093,1277,27,0.0,15,382902365552423,16,29.8,-512.8604736328125,0.42399999499320984,0,0.0,0.0,,,,,0,,1,,
Raw,20388563,20393113000000,,,-1291005709323027712,0.0,46.28377064364031,1.3689841372228904,14.526420565797093,1277,29,0.0,15,382902350754584,70,17.7,636.5609130859375,1.091499924659729,0,0.0,0.0,,,,,0,,1,,
Raw,20388563,20393113000000,,,-1291005709323027712,0.0,46.28377064364031,1.3689841372228904,14.526420565797093,1277,32,0.0,15,382902356133457,527,11.9,690.5567016601562,13.750500679016113,0,0.0,0.0,,,,,0,,1,,
Raw,20388563,20393113000000,,,-1291005709323027712,0.0,46.28377064364031,1.3689841372228904,14.526420565797093,1277,2,0.0,783,382888310993815,106,19.9,0.9505955576896667,5.31350040435791,0,0.0,0.0,,,,,0,,5,,
Raw,20388563,20393113000000,,,-1291005709323027712,0.0,46.28377064364031,1.3689841372228904,14.526420565797093,1277,3,0.0,783,382888314299500,31,25.5,-0.03840789943933487,2.053500175476074,0,0.0,0.0,,,,,0,,5,,
Raw,20388564,20393113000000,,,-1291005709323027712,0.0,46.28377064364031,1.3689841372228904,14.526420565797093,1277,5,0.0,783,382888302752667,79,24.6,4.647356033325195,5.1035003662109375,0,0.0,0.0,,,,,0,,5,,
Raw,20388564,20393113000000,,,-1291005709323027712,0.0,46.28377064364031,1.3689841372228904,14.526420565797093,1277,10,0.0,15,382888311568032,17,28.3,41.5732307434082,0.049800001084804535,0,0.0,0.0,,,,,0,,5,,
Raw,20388564,20393113000000,,,-1291005709323027712,0.0,46.28377064364031,1.3689841372228904,14.526420565797093,1277,12,0.0,15,382888352419465,13,31.1,-615.6303100585938,0.04320000112056732,0,0.0,0.0,,,,,0,,5,,
Raw,20388564,20393113000000,,,-1291005709323027712,0.0,46.28377064364031,1.3689841372228904,14.526420565797093,1277,14,0.0,15,382888354393520,48,21.3,26.098169326782227,2.247499942779541,0,0.0,0.0,,,,,0,,5,,
Raw,20388564,20393113000000,,,-1291005709323027712,0.0,46.28377064364031,1.3689841372228904,14.526420565797093,1277,16,0.0,15,382888316038650,53,19.6,50.4583740234375,0.8704999685287476,0,0.0,0.0,,,,,0,,5,,
Raw,20388564,20393113000000,,,-1291005709323027712,0.0,46.28377064364031,1.3689841372228904,14.526420565797093,1277,21,0.0,15,382888352571452,17,28.9,530.4531860351562,0.05130000039935112,0,0.0,0.0,,,,,0,,5,,
Raw,20388565,20393113000000,,,-1291005709323027712,0.0,46.28377064364031,1.3689841372228904,14.526420565797093,1277,24,0.0,15,382888353882660,14,30.4,-263.9080505371094,0.04530000314116478,0,0.0,0.0,,,,,0,,5,,
Raw,20388565,20393113000000,,,-1291005709323027712,0.0,46.28377064364031,1.3689841372228904,14.526420565797093,1277,2,0.0,7183,382902342564481,21,26.1,-237.1154327392578,0.48350000381469727,0,0.0,0.0,,,,,0,,6,,
Raw,20388565,20393113000000,,,-1291005709323027712,0.0,46.28377064364031,1.3689841372228904,14.526420565797093,1277,3,0.0,7183,382902349572762,35,22.2,-301.89141845703125,0.6420000195503235,0,0.0,0.0,,,,,0,,6,,
Raw,20388566,20393113000000,,,-1291005709323027712,0.0,46.28377064364031,1.3689841372228904,14.526420565797093,1277,5,0.0,7183,382902356327490,13,31.0,179.86558532714844,0.3305000066757202,0,0.0,0.0,,,,,0,,6,,
Raw,20388566,20393113000000,,,-1291005709323027712,0.0,46.28377064364031,1.3689841372228904,14.526420565797093,1277,9,0.0,7183,382902355470057,1022,14.4,526.0858764648438,9.138999938964844,0,0.0,0.0,,,,,0,,6,,
Raw,20388566,20393113000000,,,-1291005709323027712,0.0,46.28377064364031,1.3689841372228904,14.526420565797093,1277,25,0.0,7183,382902352657119,14,30.7,-49.276546478271484,0.3605000078678131,0,0.0,0.0,,,,,0,,6,,
Fix,gps,22.925462,120.294684,52.106323,0.000000,9.648001,1606990885000
NMEA,$GPGSV,3,1,12,03,15,260,21,04,33,314,30,08,16,202,34,09,00,000,21*7B,1606990884479
NMEA,$GPGSV,3,2,12,16,59,310,24,22,13,237,26,26,49,014,17,27,49,185,30*79,1606990884479
NMEA,$GPGSV,3,3,12,29,02,035,18,32,16,151,12,18,07,084,,31,41,073,*7D,1606990884480
NMEA,$GLGSV,3,1,09,75,00,000,30,65,22,313,30,71,31,201,31,72,46,267,24*69,1606990884480
NMEA,$GLGSV,3,2,09,74,36,355,,73,19,050,,84,37,099,,83,14,039,*6D,1606990884480
NMEA,$GLGSV,3,3,09,85,17,163,*53,1606990884480
NMEA,$GAGSV,2,1,08,02,07,262,26,03,30,307,22,05,61,236,31,09,29,170,14*66,1606990884480
NMEA,$GAGSV,2,2,08,25,43,302,31,24,42,021,,31,07,059,,33,00,000,*69,1606990884481
NMEA,$PQGSV,1,1,03,193,32,171,28,194,60,033,22,195,53,125,,0,5*69,1606990884482
NMEA,$PQGSV,4,1,16,02,40,240,20,03,58,202,26,05,16,255,25,10,51,270,28,0,4*6C,1606990884483
NMEA,$PQGSV,4,2,16,12,16,185,31,14,28,281,21,16,80,164,20,21,23,194,29,0,4*6C,1606990884484
NMEA,$PQGSV,4,3,16,24,26,305,30,01,52,129,,04,37,115,,07,67,316,,0,4*67,1606990884484
NMEA,$PQGSV,4,4,16,08,01,172,,09,71,316,,26,49,002,,29,13,043,,0,4*6F,1606990884484
NMEA,$GNGSA,A,3,03,04,08,16,22,26,27,32,,,,,1.2,0.9,0.8,1*3B,1606990884485
NMEA,$GNGSA,A,2,71,,,,,,,,,,,,1.2,0.9,0.8,2*37,1606990884485
NMEA,$GNGSA,A,3,02,03,05,09,25,,,,,,,,1.2,0.9,0.8,3*3B,1606990884485
NMEA,$PQGSA,A,2,10,21,24,,,,,,,,,,1.2,0.9,0.8,4*3B,1606990884486
NMEA,$GNVTG,,T,,M,0.0,N,0.0,K,A*3D,1606990884486
NMEA,$GNRMC,102125.00,A,2255.527717,N,12017.681017,E,0.0,,031220,2.8,W,A*17,1606990884486
NMEA,$GNGGA,102125.00,2255.527717,N,12017.681017,E,1,12,0.9,34.6,M,17.5,M,,*42,1606990884486
Raw,20389931,20394113000000,,,-1291005709323027712,0.0,38.82113014697097,-3.988243136947549,10.328060402153636,1277,11,0.0,207,48085363627010,12,32.1,-131.65309143066406,0.22840000689029694,0,0.0,0.0,,,,,0,,3,,
Raw,20389931,20394113000000,,,-1291005709323027712,0.0,38.82113014697097,-3.988243136947549,10.328060402153636,1277,1,0.0,207,48085361549947,13,31.0,-372.1336975097656,0.22670000791549683,0,0.0,0.0,,,,,0,,3,,
Raw,20389931,20394113000000,,,-1291005709323027712,0.0,38.82113014697097,-3.988243136947549,10.328060402153636,1277,7,0.0,207,48085363986165,13,31.1,692.5424194335938,0.2296999990940094,0,0.0,0.0,,,,,0,,3,,
Raw,20389931,20394113000000,,,-1291005709323027712,0.0,38.82113014697097,-3.988243136947549,10.328060402153636,1277,8,0.0,207,48085367548895,35,22.8,150.36541748046875,0.9369999766349792,0,0.0,0.0,,,,,0,,3,,
Raw,20389931,20394113000000,,,-1291005709323027712,0.0,38.82113014697097,-3.988243136947549,10.328060402153636,1277,3,0.0,15,382903355246604,35,22.8,264.7651062011719,0.7489999532699585,0,0.0,0.0,,,,,0,,1,,
Raw,20389931,20394113000000,,,-1291005709323027712,0.0,38.82113014697097,-3.988243136947549,10.328060402153636,1277,4,0.0,15,382903361223687,17,28.0,-495.6224670410156,0.03480000048875809,0,0.0,0.0,,,,,0,,1,,
Raw,20389932,20394113000000,,,-1291005709323027712,0.0,38.82113014697097,-3.988243136947549,10.328060402153636,1277,8,0.0,15,382903356715600,10,34.4,-708.5675659179688,0.04610000178217888,0,0.0,0.0,,,,,0,,1,,
Raw,20389932,20394113000000,,,-1291005709323027712,0.0,38.82113014697097,-3.988243136947549,10.328060402153636,1277,9,0.0,15,382903350085430,35,22.0,-657.5502319335938,0.8014999628067017,0,0.0,0.0,,,,,0,,1,,
Raw,20389932,20394113000000,,,-1291005709323027712,0.0,38.82113014697097,-3.988243136947549,10.328060402153636,1277,16,0.0,15,382903367140176,40,21.4,62.90157699584961,0.8569999933242798,0,0.0,0.0,,,,,0,,1,,
Raw,20389932,20394113000000,,,-1291005709323027712,0.0,38.82113014697097,-3.988243136947549,10.328060402153636,1277,22,0.0,15,382903353871662,24,25.3,292.7225341796875,0.40130001306533813,0,0.0,0.0,,,,,0,,1,,
Raw,20389932,20394113000000,,,-1291005709323027712,0.0,38.82113014697097,-3.988243136947549,10.328060402153636,1277,26,0.0,15,382903364716741,40,21.2,315.51641845703125,0.8524999618530273,0,0.0,0.0,,,,,0,,1,,
Raw,20389932,20394113000000,,,-1291005709323027712,0.0,38.82113014697097,-3.988243136947549,10.328060402153636,1277,27,0.0,15,382903365554190,17,28.6,-512.4906616210938,0.040800001472234726,0,0.0,0.0,,,,,0,,1,,
Raw,20389932,20394113000000,,,-1291005709323027712,0.0,38.82113014697097,-3.988243136947549,10.328060402153636,1277,29,0.0,15,382903350752488,46,20.2,636.9795532226562,0.9314999580383301,0,0.0,0.0,,,,,0,,1,,
Raw,20389933,20394113000000,,,-1291005709323027712,0.0,38.82113014697097,-3.988243136947549,10.328060402153636,1277,31,0.0,15,382903362280155,1012,15.7,187.77227783203125,3.809500217437744,0,0.0,0.0,,,,,0,,1,,
Raw,20389933,20394113000000,,,-1291005709323027712,0.0,38.82113014697097,-3.988243136947549,10.328060402153636,1277,32,0.0,15,382903356131154,618,11.9,690.5567016601562,15.250500679016113,0,0.0,0.0,,,,,0,,1,,
Raw,20389933,20394113000000,,,-1291005709323027712,0.0,38.82113014697097,-3.988243136947549,10.328060402153636,1277,2,0.0,783,382889310993812,144,19.9,0.9505955576896667,6.81350040435791,0,0.0,0.0,,,,,0,,5,,
Raw,20389933,20394113000000,,,-1291005709323027712,0.0,38.82113014697097,-3.988243136947549,10.328060402153636,1277,3,0.0,783,382889314299500,48,25.5,-0.03840789943933487,3.553500175476074,0,0.0,0.0,,,,,0,,5,,
Raw,20389933,20394113000000,,,-1291005709323027712,0.0,38.82113014697097,-3.988243136947549,10.328060402153636,1277,5,0.0,783,382889302752651,116,24.6,4.647356033325195,6.6035003662109375,0,0.0,0.0,,,,,0,,5,,
Raw,20389933,20394113000000,,,-1291005709323027712,0.0,38.82113014697097,-3.988243136947549,10.328060402153636,1277,10,0.0,15,382889311567889,17,28.2,41.676795959472656,0.049800001084804535,0,0.0,0.0,,,,,0,,5,,
Raw,20389933,20394113000000,,,-1291005709323027712,0.0,38.82113014697097,-3.988243136947549,10.328060402153636,1277,12,0.0,15,382889352421511,13,31.1,-615.42919921875,0.04320000112056732,0,0.0,0.0,,,,,0,,5,,
Raw,20389934,20394113000000,,,-1291005709323027712,0.0,38.82113014697097,-3.988243136947549,10.328060402153636,1277,14,0.0,15,382889354393433,65,21.3,26.098169326782227,3.74750018119812,0,0.0,0.0,,,,,0,,5,,
Raw,20389934,20394113000000,,,-1291005709323027712,0.0,38.82113014697097,-3.988243136947549,10.328060402153636,1277,16,0.0,15,382889316038450,40,21.7,49.60380554199219,0.750499963760376,0,0.0,0.0,,,,,0,,5,,
Raw,20389934,20394113000000,,,-1291005709323027712,0.0,38.82113014697097,-3.988243136947549,10.328060402153636,1277,21,0.0,15,382889352569680,14,30.8,530.6806030273438,0.043800000101327896,0,0.0,0.0,,,,,0,,5,,
Raw,20389934,20394113000000,,,-1291005709323027712,0.0,38.82113014697097,-3.988243136947549,10.328060402153636,1277,24,0.0,15,382889353883535,14,30.7,-263.7075500488281,0.04530000314116478,0,0.0,0.0,,,,,0,,5,,
Raw,20389934,20394113000000,,,-1291005709323027712,0.0,38.82113014697097,-3.988243136947549,10.328060402153636,1277,2,0.0,7183,382903342565272,27,24.5,-237.05833435058594,0.5534999966621399,0,0.0,0.0,,,,,0,,6,,
Raw,20389934,20394113000000,,,-1291005709323027712,0.0,38.82113014697097,-3.988243136947549,10.328060402153636,1277,3,0.0,7183,382903349573770,27,24.3,-301.2444152832031,0.5519999861717224,0,0.0,0.0,,,,,0,,6,,
Raw,20389934,20394113000000,,,-1291005709323027712,0.0,38.82113014697097,-3.988243136947549,10.328060402153636,1277,5,0.0,7183,382903356326876,14,30.6,180.37364196777344,0.049800001084804535,0,0.0,0.0,,,,,0,,6,,
Raw,20389935,20394113000000,,,-1291005709323027712,0.0,38.82113014697097,-3.988243136947549,10.328060402153636,1277,9,0.0,7183,382903355468201,31,23.4,530.053466796875,0.875,0,0.0,0.0,,,,,0,,6,,
Raw,20389935,20394113000000,,,-1291005709323027712,0.0,38.82113014697097,-3.988243136947549,10.328060402153636,1277,25,0.0,7183,382903352657288,14,30.3,-48.49486541748047,0.049800001084804535,0,0.0,0.0,,,,,0,,6,,
Fix,gps,22.925460,120.294680,52.342346,0.000000,9.648001,1606990886000
NMEA,$GPGSV,3,1,12,03,15,260,23,04,33,314,28,08,16,202,34,09,00,000,22*73,1606990885481
NMEA,$GPGSV,3,2,12,16,59,310,21,22,13,237,25,26,49,014,21,27,49,185,29*72,1606990885481
NMEA,$GPGSV,3,3,12,29,02,035,20,31,41,073,16,32,16,151,12,18,07,084,*71,1606990885481
NMEA,$GLGSV,3,1,09,75,00,000,32,65,22,313,31,71,31,201,31,72,46,267,23*6D,1606990885481
NMEA,$GLGSV,3,2,09,74,36,355,,73,19,050,,84,37,099,,83,14,039,*6D,1606990885481
NMEA,$GLGSV,3,3,09,85,17,163,*53,1606990885482
NMEA,$GAGSV,2,1,08,02,07,262,25,03,30,307,24,05,61,236,31,09,29,170,23*67,1606990885483
NMEA,$GAGSV,2,2,08,25,43,302,30,24,42,021,,31,07,059,,33,00,000,*68,1606990885483
NMEA,$PQGSV,1,1,03,193,32,171,29,194,60,033,18,195,53,125,,0,5*61,1606990885484
NMEA,$PQGSV,4,1,16,02,40,240,20,03,58,202,26,05,16,255,25,10,51,270,28,0,4*6C,1606990885484
NMEA,$PQGSV,4,2,16,12,16,185,31,14,28,281,21,16,80,164,22,21,23,194,31,0,4*67,1606990885484
NMEA,$PQGSV,4,3,16,24,26,305,31,01,52,129,,04,37,115,,06,76,157,,0,4*60,1606990885484
NMEA,$PQGSV,4,4,16,07,67,316,,08,01,172,,09,71,316,,26,49,002,,0,4*63,1606990885485
NMEA,$GNGSA,A,3,03,04,08,16,22,26,27,32,,,,,1.1,0.8,0.8,1*39,1606990885486
NMEA,$GNGSA,A,2,71,,,,,,,,,,,,1.1,0.8,0.8,2*35,1606990885486
NMEA,$GNGSA,A,3,02,03,05,09,25,,,,,,,,1.1,0.8,0.8,3*39,1606990885487
NMEA,$PQGSA,A,2,10,21,24,,,,,,,,,,1.1,0.8,0.8,4*39,1606990885487
NMEA,$GNVTG,,T,,M,0.0,N,0.0,K,A*3D,1606990885487
NMEA,$GNRMC,102126.00,A,2255.527600,N,12017.680825,E,0.0,,031220,2.8,W,A*1B,1606990885487
NMEA,$GNGGA,102126.00,2255.527600,N,12017.680825,E,1,12,0.8,34.9,M,17.5,M,,*40,1606990885488
Raw,20390555,20395113000000,,,-1291005709323027712,0.0,42.47354809194803,-3.219550729090002,12.34968688592075,1277,11,0.0,207,48086363627454,14,30.2,-131.41477966308594,0.23029999434947968,0,0.0,0.0,,,,,0,,3,,
Raw,20390555,20395113000000,,,-1291005709323027712,0.0,42.47354809194803,-3.219550729090002,12.34968688592075,1277,1,0.0,207,48086361551199,12,32.0,-371.7932434082031,0.22540001571178436,0,0.0,0.0,,,,,0,,3,,
Raw,20390556,20395113000000,,,-1291005709323027712,0.0,42.47354809194803,-3.219550729090002,12.34968688592075,1277,7,0.0,207,48086363983891,13,31.8,692.799560546875,0.2296999990940094,0,0.0,0.0,,,,,0,,3,,
Raw,20390556,20395113000000,,,-1291005709323027712,0.0,42.47354809194803,-3.219550729090002,12.34968688592075,1277,8,0.0,207,48086367548190,21,26.0,150.08531188964844,0.7369999885559082,0,0.0,0.0,,,,,0,,3,,
Raw,20390556,20395113000000,,,-1291005709323027712,0.0,42.47354809194803,-3.219550729090002,12.34968688592075,1277,3,0.0,15,382904355245718,24,25.0,265.09259033203125,0.4043000042438507,0,0.0,0.0,,,,,0,,1,,
Raw,20390556,20395113000000,,,-1291005709323027712,0.0,42.47354809194803,-3.219550729090002,12.34968688592075,1277,4,0.0,15,382904361225328,13,31.0,-495.33331298828125,0.02670000120997429,0,0.0,0.0,,,,,0,,1,,
Raw,20390556,20395113000000,,,-1291005709323027712,0.0,42.47354809194803,-3.219550729090002,12.34968688592075,1277,8,0.0,15,382904356717971,11,33.7,-708.291259765625,0.04690000042319298,0,0.0,0.0,,,,,0,,1,,
Raw,20390556,20395113000000,,,-1291005709323027712,0.0,42.47354809194803,-3.219550729090002,12.34968688592075,1277,9,0.0,15,382904350087654,46,20.3,-657.5692749023438,0.9314999580383301,0,0.0,0.0,,,,,0,,1,,
Raw,20390557,20395113000000,,,-1291005709323027712,0.0,42.47354809194803,-3.219550729090002,12.34968688592075,1277,16,0.0,15,382904367139932,40,21.2,63.51051330566406,0.8569999933242798,0,0.0,0.0,,,,,0,,1,,
Raw,20390557,20395113000000,,,-1291005709323027712,0.0,42.47354809194803,-3.219550729090002,12.34968688592075,1277,22,0.0,15,382904353870696,19,27.0,292.7478942871094,0.06080000102519989,0,0.0,0.0,,,,,0,,1,,
Raw,20390557,20395113000000,,,-1291005709323027712,0.0,42.47354809194803,-3.219550729090002,12.34968688592075,1277,26,0.0,15,382904364715700,61,18.9,315.33563232421875,1.002500057220459,0,0.0,0.0,,,,,0,,1,,
Raw,20390557,20395113000000,,,-1291005709323027712,0.0,42.47354809194803,-3.219550729090002,12.34968688592075,1277,27,0.0,15,382904365555850,14,30.3,-512.1957397460938,0.0333000011742115,0,0.0,0.0,,,,,0,,1,,
Raw,20390557,20395113000000,,,-1291005709323027712,0.0,42.47354809194803,-3.219550729090002,12.34968688592075,1277,29,0.0,15,382904350750377,53,19.6,636.9795532226562,0.9314999580383301,0,0.0,0.0,,,,,0,,1,,
Raw,20390557,20395113000000,,,-1291005709323027712,0.0,42.47354809194803,-3.219550729090002,12.34968688592075,1277,31,0.0,15,382904362279643,1024,16.1,187.9245147705078,4.559500217437744,0,0.0,0.0,,,,,0,,1,,
Raw,20390557,20395113000000,,,-1291005709323027712,0.0,42.47354809194803,-3.219550729090002,12.34968688592075,1277,32,0.0,15,382904356128850,719,11.9,690.5567016601562,16.75050163269043,0,0.0,0.0,,,,,0,,1,,
Raw,20390558,20395113000000,,,-1291005709323027712,0.0,42.47354809194803,-3.219550729090002,12.34968688592075,1277,2,0.0,783,382890310993802,77,18.0,2.736562728881836,3.19350004196167,0,0.0,0.0,,,,,0,,5,,
Raw,20390558,20395113000000,,,-1291005709323027712,0.0,42.47354809194803,-3.219550729090002,12.34968688592075,1277,3,0.0,783,382890314299532,26,25.8,-13.413957595825195,1.2735000848770142,0,0.0,0.0,,,,,0,,5,,
Raw,20390558,20395113000000,,,-1291005709323027712,0.0,42.47354809194803,-3.219550729090002,12.34968688592075,1277,5,0.0,783,382890302752723,77,18.8,-1.6227335929870605,3.123500108718872,0,0.0,0.0,,,,,0,,5,,
Raw,20390558,20395113000000,,,-1291005709323027712,0.0,42.47354809194803,-3.219550729090002,12.34968688592075,1277,10,0.0,15,382890311567732,17,28.8,42.015625,0.049800001084804535,0,0.0,0.0,,,,,0,,5,,
Raw,20390558,20395113000000,,,-1291005709323027712,0.0,42.47354809194803,-3.219550729090002,12.34968688592075,1277,12,0.0,15,382890352423552,14,30.1,-615.1820068359375,0.043800000101327896,0,0.0,0.0,,,,,0,,5,,
Raw,20390558,20395113000000,,,-1291005709323027712,0.0,42.47354809194803,-3.219550729090002,12.34968688592075,1277,14,0.0,15,382890354393384,132,13.7,25.128368377685547,2.877500057220459,0,0.0,0.0,,,,,0,,5,,
Raw,20390558,20395113000000,,,-1291005709323027712,0.0,42.47354809194803,-3.219550729090002,12.34968688592075,1277,16,0.0,15,382890316038274,53,19.2,50.669620513916016,0.8704999685287476,0,0.0,0.0,,,,,0,,5,,
Raw,20390559,20395113000000,,,-1291005709323027712,0.0,42.47354809194803,-3.219550729090002,12.34968688592075,1277,21,0.0,15,382890352567915,14,30.6,530.873291015625,0.043800000101327896,0,0.0,0.0,,,,,0,,5,,
Raw,20390559,20395113000000,,,-1291005709323027712,0.0,42.47354809194803,-3.219550729090002,12.34968688592075,1277,24,0.0,15,382890353884410,16,29.9,-263.4844970703125,0.04620000347495079,0,0.0,0.0,,,,,0,,5,,
Raw,20390559,20395113000000,,,-1291005709323027712,0.0,42.47354809194803,-3.219550729090002,12.34968688592075,1277,2,0.0,7183,382904342566054,24,25.2,-236.31588745117188,0.40880000591278076,0,0.0,0.0,,,,,0,,6,,
Raw,20390559,20395113000000,,,-1291005709323027712,0.0,42.47354809194803,-3.219550729090002,12.34968688592075,1277,3,0.0,7183,382904349574761,31,23.2,-301.60595703125,0.6019999980926514,0,0.0,0.0,,,,,0,,6,,
Raw,20390559,20395113000000,,,-1291005709323027712,0.0,42.47354809194803,-3.219550729090002,12.34968688592075,1277,5,0.0,7183,382904356326292,13,31.4,180.6668243408203,0.04920000210404396,0,0.0,0.0,,,,,0,,6,,
Raw,20390559,20395113000000,,,-1291005709323027712,0.0,42.47354809194803,-3.219550729090002,12.34968688592075,1277,9,0.0,7183,382904355466435,40,21.6,531.8232421875,0.6949999928474426,0,0.0,0.0,,,,,0,,6,,
Raw,20390559,20395113000000,,,-1291005709323027712,0.0,42.47354809194803,-3.219550729090002,12.34968688592075,1277,25,0.0,7183,382904352657460,13,31.3,-48.19911575317383,0.04920000210404396,0,0.0,0.0,,,,,0,,6,,
Fix,gps,22.925458,120.294677,52.332275,0.000000,9.648001,1606990887000
NMEA,$GPGSV,3,1,12,03,15,260,25,04,33,314,31,08,16,202,34,09,00,000,20*7F,1606990886499
NMEA,$GPGSV,3,2,12,16,59,310,21,22,13,237,27,26,49,014,19,27,49,185,30*73,1606990886500
NMEA,$GPGSV,3,3,12,29,02,035,20,31,41,073,16,32,16,151,12,18,07,084,*71,1606990886501
NMEA,$GLGSV,3,1,09,75,00,000,30,65,22,313,32,71,31,201,32,72,46,267,26*6A,1606990886501
NMEA,$GLGSV,3,2,09,74,36,355,,73,19,050,,84,37,099,,83,14,039,*6D,1606990886502
NMEA,$GLGSV,3,3,09,85,17,163,*53,1606990886503
NMEA,$GAGSV,2,1,08,02,07,262,25,03,30,307,23,05,61,236,31,09,29,170,22*61,1606990886504
NMEA,$GAGSV,2,2,08,25,43,302,31,24,42,021,,31,07,059,,33,00,000,*69,1606990886505
NMEA,$PQGSV,1,1,03,193,32,171,28,194,60,033,20,195,53,125,,0,5*6B,1606990886506
NMEA,$PQGSV,4,1,16,02,40,240,18,03,58,202,26,05,16,255,19,10,51,270,29,0,4*69,1606990886507
NMEA,$PQGSV,4,2,16,12,16,185,30,14,28,281,14,16,80,164,19,21,23,194,31,0,4*68,1606990886508
NMEA,$PQGSV,4,3,16,24,26,305,30,01,52,129,,04,37,115,,06,76,157,,0,4*61,1606990886508
NMEA,$PQGSV,4,4,16,07,67,316,,08,01,172,,09,71,316,,26,49,002,,0,4*63,1606990886509
NMEA,$GNGSA,A,3,03,04,08,16,22,26,27,31,,,,,1.1,0.8,0.8,1*3A,1606990886511
NMEA,$GNGSA,A,2,71,,,,,,,,,,,,1.1,0.8,0.8,2*35,1606990886512
NMEA,$GNGSA,A,3,02,03,05,09,25,,,,,,,,1.1,0.8,0.8,3*39,1606990886513
NMEA,$PQGSA,A,2,10,21,24,,,,,,,,,,1.1,0.8,0.8,4*39,1606990886513
NMEA,$GNVTG,,T,,M,0.0,N,0.0,K,A*3D,1606990886514
NMEA,$GNRMC,102127.00,A,2255.527472,N,12017.680625,E,0.0,,031220,2.8,W,A*13,1606990886514
NMEA,$GNGGA,102127.00,2255.527472,N,12017.680625,E,1,12,0.8,34.9,M,17.5,M,,*48,1606990886515
Raw,20391554,20396113000000,,,-1291005709323027712,0.0,41.243707528337836,-2.4492252162656016,12.509494974875885,1277,11,0.0,207,48087363627918,14,30.7,-131.5206756591797,0.23029999434947968,0,0.0,0.0,,,,,0,,3,,
Raw,20391554,20396113000000,,,-1291005709323027712,0.0,41.243707528337836,-2.4492252162656016,12.509494974875885,1277,1,0.0,207,48087361552454,13,31.3,-371.761962890625,0.22670000791549683,0,0.0,0.0,,,,,0,,3,,
Raw,20391554,20396113000000,,,-1291005709323027712,0.0,41.243707528337836,-2.4492252162656016,12.509494974875885,1277,7,0.0,207,48087363981575,13,31.0,692.7577514648438,0.2296999990940094,0,0.0,0.0,,,,,0,,3,,
Raw,20391554,20396113000000,,,-1291005709323027712,0.0,41.243707528337836,-2.4492252162656016,12.509494974875885,1277,8,0.0,207,48087367547712,24,25.2,150.3229522705078,0.5922999978065491,0,0.0,0.0,,,,,0,,3,,
Raw,20391554,20396113000000,,,-1291005709323027712,0.0,41.243707528337836,-2.4492252162656016,12.509494974875885,1277,3,0.0,15,382905355244818,31,23.8,264.7080078125,0.6889999508857727,0,0.0,0.0,,,,,0,,1,,
Raw,20391554,20396113000000,,,-1291005709323027712,0.0,41.243707528337836,-2.4492252162656016,12.509494974875885,1277,4,0.0,15,382905361226986,14,30.4,-495.3418884277344,0.027300000190734863,0,0.0,0.0,,,,,0,,1,,
Raw,20391555,20396113000000,,,-1291005709323027712,0.0,41.243707528337836,-2.4492252162656016,12.509494974875885,1277,8,0.0,15,382905356720350,10,34.4,-708.3469848632812,0.04610000178217888,0,0.0,0.0,,,,,0,,1,,
Raw,20391555,20396113000000,,,-1291005709323027712,0.0,41.243707528337836,-2.4492252162656016,12.509494974875885,1277,9,0.0,15,382905350089789,40,21.0,-656.151611328125,0.8614999651908875,0,0.0,0.0,,,,,0,,1,,
Raw,20391555,20396113000000,,,-1291005709323027712,0.0,41.243707528337836,-2.4492252162656016,12.509494974875885,1277,16,0.0,15,382905367139769,40,21.4,63.44390869140625,0.8569999933242798,0,0.0,0.0,,,,,0,,1,,
Raw,20391555,20396113000000,,,-1291005709323027712,0.0,41.243707528337836,-2.4492252162656016,12.509494974875885,1277,22,0.0,15,382905353869661,19,27.0,292.8899841308594,0.06080000102519989,0,0.0,0.0,,,,,0,,1,,
Raw,20391555,20396113000000,,,-1291005709323027712,0.0,41.243707528337836,-2.4492252162656016,12.509494974875885,1277,26,0.0,15,382905364714748,70,17.8,315.0502014160156,1.0824999809265137,0,0.0,0.0,,,,,0,,1,,
Raw,20391555,20396113000000,,,-1291005709323027712,0.0,41.243707528337836,-2.4492252162656016,12.509494974875885,1277,27,0.0,15,382905365557588,17,28.9,-512.1881103515625,0.040800001472234726,0,0.0,0.0,,,,,0,,1,,
Raw,20391555,20396113000000,,,-1291005709323027712,0.0,41.243707528337836,-2.4492252162656016,12.509494974875885,1277,29,0.0,15,382905350748125,61,18.9,636.5418701171875,1.0115000009536743,0,0.0,0.0,,,,,0,,1,,
Raw,20391556,20396113000000,,,-1291005709323027712,0.0,41.243707528337836,-2.4492252162656016,12.509494974875885,1277,31,0.0,15,382905362279036,907,16.5,188.1338348388672,5.2195000648498535,0,0.0,0.0,,,,,0,,1,,
Raw,20391556,20396113000000,,,-1291005709323027712,0.0,41.243707528337836,-2.4492252162656016,12.509494974875885,1277,32,0.0,15,382905356126547,830,11.9,690.5567016601562,18.25050163269043,0,0.0,0.0,,,,,0,,1,,
Raw,20391556,20396113000000,,,-1291005709323027712,0.0,41.243707528337836,-2.4492252162656016,12.509494974875885,1277,2,0.0,783,382891310993793,100,18.0,2.736562728881836,4.69350004196167,0,0.0,0.0,,,,,0,,5,,
Raw,20391556,20396113000000,,,-1291005709323027712,0.0,41.243707528337836,-2.4492252162656016,12.509494974875885,1277,3,0.0,783,382891314299577,38,25.8,-13.413957595825195,2.7735002040863037,0,0.0,0.0,,,,,0,,5,,
Raw,20391556,20396113000000,,,-1291005709323027712,0.0,41.243707528337836,-2.4492252162656016,12.509494974875885,1277,5,0.0,783,382891302752729,100,18.8,-1.6227335929870605,4.623500347137451,0,0.0,0.0,,,,,0,,5,,
Raw,20391556,20396113000000,,,-1291005709323027712,0.0,41.243707528337836,-2.4492252162656016,12.509494974875885,1277,10,0.0,15,382891311567595,17,28.4,41.8497314453125,0.049800001084804535,0,0.0,0.0,,,,,0,,5,,
Raw,20391556,20396113000000,,,-1291005709323027712,0.0,41.243707528337836,-2.4492252162656016,12.509494974875885,1277,12,0.0,15,382891352425612,16,29.8,-615.277099609375,0.04470000043511391,0,0.0,0.0,,,,,0,,5,,
Raw,20391557,20396113000000,,,-1291005709323027712,0.0,41.243707528337836,-2.4492252162656016,12.509494974875885,1277,14,0.0,15,382891354393300,151,13.7,25.128368377685547,4.377500057220459,0,0.0,0.0,,,,,0,,5,,
Raw,20391557,20396113000000,,,-1291005709323027712,0.0,41.243707528337836,-2.4492252162656016,12.509494974875885,1277,16,0.0,15,382891316038124,53,19.4,49.642208099365234,0.8704999685287476,0,0.0,0.0,,,,,0,,5,,
Raw,20391557,20396113000000,,,-1291005709323027712,0.0,41.243707528337836,-2.4492252162656016,12.509494974875885,1277,21,0.0,15,382891352566146,16,29.4,530.787353515625,0.04470000043511391,0,0.0,0.0,,,,,0,,5,,
Raw,20391557,20396113000000,,,-1291005709323027712,0.0,41.243707528337836,-2.4492252162656016,12.509494974875885,1277,24,0.0,15,382891353885293,14,30.2,-263.5615539550781,0.04530000314116478,0,0.0,0.0,,,,,0,,5,,
Raw,20391557,20396113000000,,,-1291005709323027712,0.0,41.243707528337836,-2.4492252162656016,12.509494974875885,1277,2,0.0,7183,382905342566855,27,24.9,-236.85855102539062,0.5534999966621399,0,0.0,0.0,,,,,0,,6,,
Raw,20391557,20396113000000,,,-1291005709323027712,0.0,41.243707528337836,-2.4492252162656016,12.509494974875885,1277,3,0.0,7183,382905349575794,35,22.9,-300.7876892089844,0.6420000195503235,0,0.0,0.0,,,,,0,,6,,
Raw,20391557,20396113000000,,,-1291005709323027712,0.0,41.243707528337836,-2.4492252162656016,12.509494974875885,1277,5,0.0,7183,382905356325678,13,31.2,180.38735961914062,0.04920000210404396,0,0.0,0.0,,,,,0,,6,,
Raw,20391558,20396113000000,,,-1291005709323027712,0.0,41.243707528337836,-2.4492252162656016,12.509494974875885,1277,9,0.0,7183,382905355464680,40,21.6,531.775634765625,0.6949999928474426,0,0.0,0.0,,,,,0,,6,,
Raw,20391558,20396113000000,,,-1291005709323027712,0.0,41.243707528337836,-2.4492252162656016,12.509494974875885,1277,25,0.0,7183,382905352657619,14,30.8,-48.82381057739258,0.049800001084804535,0,0.0,0.0,,,,,0,,6,,
Fix,gps,22.925456,120.294679,52.268921,0.000000,9.648001,1606990888000
NMEA,$GPGSV,3,1,12,03,15,260,24,04,33,314,30,08,16,202,34,09,00,000,21*7E,1606990887500
NMEA,$GPGSV,3,2,12,16,59,310,21,22,13,237,27,26,49,014,18,27,49,185,29*7A,1606990887501
NMEA,$GPGSV,3,3,12,29,02,035,19,31,41,073,17,32,16,151,12,18,07,084,*7A,1606990887502
NMEA,$GLGSV,3,1,09,75,00,000,31,65,22,313,31,71,31,201,31,72,46,267,25*68,1606990887502
NMEA,$GLGSV,3,2,09,74,36,355,,73,19,050,,84,37,099,,83,14,039,*6D,1606990887503
NMEA,$GLGSV,3,3,09,85,17,163,*53,1606990887504
NMEA,$GAGSV,2,1,08,02,07,262,25,03,30,307,23,05,61,236,31,09,29,170,22*61,1606990887504
NMEA,$GAGSV,2,2,08,25,43,302,31,24,42,021,,31,07,059,,33,00,000,*69,1606990887510
NMEA,$PQGSV,1,1,03,193,32,171,28,194,60,033,20,195,53,125,,0,5*6B,1606990887511
NMEA,$PQGSV,4,1,16,02,40,240,18,03,58,202,26,05,16,255,19,10,51,270,28,0,4*68,1606990887511
NMEA,$PQGSV,4,2,16,12,16,185,30,14,28,281,14,16,80,164,19,21,23,194,29,0,4*61,1606990887513
NMEA,$PQGSV,4,3,16,24,26,305,30,01,52,129,,04,37,115,,06,76,157,,0,4*61,1606990887514
NMEA,$PQGSV,4,4,16,07,67,316,,08,01,172,,09,71,316,,26,49,002,,0,4*63,1606990887515
NMEA,$GNGSA,A,3,03,04,08,16,22,26,27,31,,,,,1.1,0.8,0.8,1*3A,1606990887517
NMEA,$GNGSA,A,2,71,,,,,,,,,,,,1.1,0.8,0.8,2*35,1606990887519
NMEA,$GNGSA,A,3,02,03,05,09,25,,,,,,,,1.1,0.8,0.8,3*39,1606990887520
NMEA,$PQGSA,A,2,10,21,24,,,,,,,,,,1.1,0.8,0.8,4*39,1606990887521
NMEA,$GNVTG,,T,,M,0.0,N,0.0,K,A*3D,1606990887521
NMEA,$GNRMC,102128.00,A,2255.527349,N,12017.680751,E,0.0,,031220,2.8,W,A*11,1606990887525
NMEA,$GNGGA,102128.00,2255.527349,N,12017.680751,E,1,12,0.8,34.8,M,17.5,M,,*4B,1606990887526
Raw,20392534,20397113000000,,,-1291005709323027712,0.0,37.84980435739271,-2.01768488333275,11.025321864434565,1277,11,0.0,207,48088363628373,14,30.3,-131.18820190429688,0.23029999434947968,0,0.0,0.0,,,,,0,,3,,
Raw,20392534,20397113000000,,,-1291005709323027712,0.0,37.84980435739271,-2.01768488333275,11.025321864434565,1277,1,0.0,207,48088361553643,12,32.4,-371.2862243652344,0.22540001571178436,0,0.0,0.0,,,,,0,,3,,
Raw,20392535,20397113000000,,,-1291005709323027712,0.0,37.84980435739271,-2.01768488333275,11.025321864434565,1277,7,0.0,207,48088363979272,14,30.8,693.1049194335938,0.23029999434947968,0,0.0,0.0,,,,,0,,3,,
Raw,20392535,20397113000000,,,-1291005709323027712,0.0,37.84980435739271,-2.01768488333275,11.025321864434565,1277,8,0.0,207,48088367547211,27,24.5,150.91632080078125,0.8270000219345093,0,0.0,0.0,,,,,0,,3,,
Raw,20392535,20397113000000,,,-1291005709323027712,0.0,37.84980435739271,-2.01768488333275,11.025321864434565,1277,3,0.0,15,382906355243940,31,23.1,265.7736511230469,0.7489999532699585,0,0.0,0.0,,,,,0,,1,,
Raw,20392535,20397113000000,,,-1291005709323027712,0.0,37.84980435739271,-2.01768488333275,11.025321864434565,1277,4,0.0,15,382906361228623,14,30.9,-494.93084716796875,0.027300000190734863,0,0.0,0.0,,,,,0,,1,,
Raw,20392535,20397113000000,,,-1291005709323027712,0.0,37.84980435739271,-2.01768488333275,11.025321864434565,1277,8,0.0,15,382906356722703,11,33.8,-708.0082397460938,0.04690000042319298,0,0.0,0.0,,,,,0,,1,,
Raw,20392535,20397113000000,,,-1291005709323027712,0.0,37.84980435739271,-2.01768488333275,11.025321864434565,1277,9,0.0,15,382906350092050,40,21.7,-656.5797729492188,0.8014999628067017,0,0.0,0.0,,,,,0,,1,,
Raw,20392535,20397113000000,,,-1291005709323027712,0.0,37.84980435739271,-2.01768488333275,11.025321864434565,1277,16,0.0,15,382906367139592,40,21.0,63.49148178100586,0.8569999933242798,0,0.0,0.0,,,,,0,,1,,
Raw,20392536,20397113000000,,,-1291005709323027712,0.0,37.84980435739271,-2.01768488333275,11.025321864434565,1277,22,0.0,15,382906353868671,19,27.8,293.0029602050781,0.06080000102519989,0,0.0,0.0,,,,,0,,1,,
Raw,20392536,20397113000000,,,-1291005709323027712,0.0,37.84980435739271,-2.01768488333275,11.025321864434565,1277,26,0.0,15,382906364713586,46,20.4,315.2309875488281,0.92249995470047,0,0.0,0.0,,,,,0,,1,,
Raw,20392536,20397113000000,,,-1291005709323027712,0.0,37.84980435739271,-2.01768488333275,11.025321864434565,1277,27,0.0,15,382906365559286,19,27.3,-511.7249450683594,0.04880000278353691,0,0.0,0.0,,,,,0,,1,,
Raw,20392536,20397113000000,,,-1291005709323027712,0.0,37.84980435739271,-2.01768488333275,11.025321864434565,1277,29,0.0,15,382906350746067,35,22.3,636.9129028320312,0.8014999628067017,0,0.0,0.0,,,,,0,,1,,
Raw,20392536,20397113000000,,,-1291005709323027712,0.0,37.84980435739271,-2.01768488333275,11.025321864434565,1277,31,0.0,15,382906362278439,1055,16.3,188.2765655517578,6.059500217437744,0,0.0,0.0,,,,,0,,1,,
Raw,20392536,20397113000000,,,-1291005709323027712,0.0,37.84980435739271,-2.01768488333275,11.025321864434565,1277,32,0.0,15,382906356124244,951,11.9,690.5567016601562,19.75050163269043,0,0.0,0.0,,,,,0,,1,,
Raw,20392537,20397113000000,,,-1291005709323027712,0.0,37.84980435739271,-2.01768488333275,11.025321864434565,1277,2,0.0,783,382892310993784,134,18.0,2.736562728881836,6.19350004196167,0,0.0,0.0,,,,,0,,5,,
Raw,20392537,20397113000000,,,-1291005709323027712,0.0,37.84980435739271,-2.01768488333275,11.025321864434565,1277,3,0.0,783,382892314299622,60,25.8,-13.413957595825195,4.273499965667725,0,0.0,0.0,,,,,0,,5,,
Raw,20392537,20397113000000,,,-1291005709323027712,0.0,37.84980435739271,-2.01768488333275,11.025321864434565,1277,5,0.0,783,382892302752734,133,18.8,-1.6227335929870605,6.123500347137451,0,0.0,0.0,,,,,0,,5,,
Raw,20392537,20397113000000,,,-1291005709323027712,0.0,37.84980435739271,-2.01768488333275,11.025321864434565,1277,10,0.0,15,382892311567474,17,28.0,42.19497299194336,0.049800001084804535,0,0.0,0.0,,,,,0,,5,,
Raw,20392537,20397113000000,,,-1291005709323027712,0.0,37.84980435739271,-2.01768488333275,11.025321864434565,1277,12,0.0,15,382892352427667,14,30.4,-614.9747924804688,0.043800000101327896,0,0.0,0.0,,,,,0,,5,,
Raw,20392537,20397113000000,,,-1291005709323027712,0.0,37.84980435739271,-2.01768488333275,11.025321864434565,1277,14,0.0,15,382892354393189,110,14.2,26.72229766845703,2.0275001525878906,0,0.0,0.0,,,,,0,,5,,
Raw,20392537,20397113000000,,,-1291005709323027712,0.0,37.84980435739271,-2.01768488333275,11.025321864434565,1277,16,0.0,15,382892316038007,80,16.7,50.035892486572266,1.1004999876022339,0,0.0,0.0,,,,,0,,5,,
Raw,20392538,20397113000000,,,-1291005709323027712,0.0,37.84980435739271,-2.01768488333275,11.025321864434565,1277,21,0.0,15,382892352564372,13,31.9,531.1053466796875,0.04320000112056732,0,0.0,0.0,,,,,0,,5,,
Raw,20392538,20397113000000,,,-1291005709323027712,0.0,37.84980435739271,-2.01768488333275,11.025321864434565,1277,24,0.0,15,382892353886162,16,29.1,-263.2498474121094,0.04620000347495079,0,0.0,0.0,,,,,0,,5,,
Raw,20392538,20397113000000,,,-1291005709323027712,0.0,37.84980435739271,-2.01768488333275,11.025321864434565,1277,2,0.0,7183,382906342567655,27,24.3,-236.4684295654297,0.5534999966621399,0,0.0,0.0,,,,,0,,6,,
Raw,20392538,20397113000000,,,-1291005709323027712,0.0,37.84980435739271,-2.01768488333275,11.025321864434565,1277,3,0.0,7183,382906349576811,40,21.4,-301.2063293457031,0.6919999718666077,0,0.0,0.0,,,,,0,,6,,
Raw,20392538,20397113000000,,,-1291005709323027712,0.0,37.84980435739271,-2.01768488333275,11.025321864434565,1277,5,0.0,7183,382906356325089,14,30.1,179.8778076171875,0.049800001084804535,0,0.0,0.0,,,,,0,,6,,
Raw,20392538,20397113000000,,,-1291005709323027712,0.0,37.84980435739271,-2.01768488333275,11.025321864434565,1277,9,0.0,7183,382906355462864,53,19.1,531.185791015625,0.8149999976158142,0,0.0,0.0,,,,,0,,6,,
Raw,20392538,20397113000000,,,-1291005709323027712,0.0,37.84980435739271,-2.01768488333275,11.025321864434565,1277,25,0.0,7183,382906352657784,13,31.6,-49.33889389038086,0.04920000210404396,0,0.0,0.0,,,,,0,,6,,
Fix,gps,22.925454,120.294680,52.866150,0.000000,9.648001,1606990889000
NMEA,$GPGSV,3,1,12,03,15,260,23,04,33,314,31,08,16,202,34,09,00,000,22*7B,1606990888480
NMEA,$GPGSV,3,2,12,16,59,310,21,22,13,237,28,26,49,014,20,27,49,185,27*70,1606990888480
NMEA,$GPGSV,3,3,12,29,02,035,22,31,41,073,16,32,16,151,12,18,07,084,*73,1606990888482
NMEA,$GLGSV,3,1,09,75,00,000,30,65,22,313,32,71,31,201,31,72,46,267,25*6A,1606990888482
NMEA,$GLGSV,3,2,09,74,36,355,,73,19,050,,84,37,099,,83,14,039,*6D,1606990888482
NMEA,$GLGSV,3,3,09,85,17,163,*53,1606990888482
NMEA,$GAGSV,2,1,08,02,07,262,24,03,30,307,21,05,61,236,30,09,29,170,19*6B,1606990888483
NMEA,$GAGSV,2,2,08,25,43,302,32,24,42,021,,31,07,059,,33,00,000,*6A,1606990888483
NMEA,$PQGSV,1,1,03,193,32,171,26,194,60,033,18,195,53,125,,0,5*6E,1606990888483
NMEA,$PQGSV,4,1,16,02,40,240,18,03,58,202,26,05,16,255,19,10,51,270,28,0,4*68,1606990888484
NMEA,$PQGSV,4,2,16,12,16,185,30,14,28,281,14,16,80,164,17,21,23,194,32,0,4*65,1606990888484
NMEA,$PQGSV,4,3,16,24,26,305,29,01,52,129,,04,37,115,,06,76,157,,0,4*69,1606990888484
NMEA,$PQGSV,4,4,16,07,67,316,,08,01,172,,09,71,316,,26,49,002,,0,4*63,1606990888484
NMEA,$GNGSA,A,3,03,04,08,16,22,26,27,31,,,,,1.1,0.8,0.8,1*3A,1606990888485
NMEA,$GNGSA,A,2,71,,,,,,,,,,,,1.1,0.8,0.8,2*35,1606990888486
NMEA,$GNGSA,A,3,02,03,05,09,25,,,,,,,,1.1,0.8,0.8,3*39,1606990888486
NMEA,$PQGSA,A,2,10,21,24,,,,,,,,,,1.1,0.8,0.8,4*39,1606990888486
NMEA,$GNVTG,,T,,M,0.0,N,0.0,K,A*3D,1606990888486
NMEA,$GNRMC,102129.00,A,2255.527236,N,12017.680771,E,0.0,,031220,2.8,W,A*1B,1606990888488
NMEA,$GNGGA,102129.00,2255.527236,N,12017.680771,E,1,12,0.8,35.4,M,17.5,M,,*4C,1606990888488
NMEA,$GPGSV,3,1,12,03,15,260,26,04,33,314,32,08,16,202,33,09,00,000,23*7B,1606990889483
Raw,20393959,20398113000000,,,-1291005709323027712,0.0,39.78984022978693,-0.8378843454497208,12.14796760546175,1277,11,0.0,207,48089363628759,12,32.3,-131.1927490234375,0.22840000689029694,0,0.0,0.0,,,,,0,,3,,
Raw,20393960,20398113000000,,,-1291005709323027712,0.0,39.78984022978693,-0.8378843454497208,12.14796760546175,1277,1,0.0,207,48089361554912,12,32.1,-371.1466369628906,0.22540001571178436,0,0.0,0.0,,,,,0,,3,,
Raw,20393960,20398113000000,,,-1291005709323027712,0.0,39.78984022978693,-0.8378843454497208,12.14796760546175,1277,7,0.0,207,48089363976962,16,29.1,693.2147827148438,0.23119999468326569,0,0.0,0.0,,,,,0,,3,,
Raw,20393960,20398113000000,,,-1291005709323027712,0.0,39.78984022978693,-0.8378843454497208,12.14796760546175,1277,8,0.0,207,48089367546693,46,20.3,150.906982421875,1.056999921798706,0,0.0,0.0,,,,,0,,3,,
Raw,20393960,20398113000000,,,-1291005709323027712,0.0,39.78984022978693,-0.8378843454497208,12.14796760546175,1277,3,0.0,15,382907355243071,24,25.5,265.4751892089844,0.4043000042438507,0,0.0,0.0,,,,,0,,1,,
Raw,20393960,20398113000000,,,-1291005709323027712,0.0,39.78984022978693,-0.8378843454497208,12.14796760546175,1277,4,0.0,15,382907361230274,13,31.9,-494.8344421386719,0.02670000120997429,0,0.0,0.0,,,,,0,,1,,
Raw,20393960,20398113000000,,,-1291005709323027712,0.0,39.78984022978693,-0.8378843454497208,12.14796760546175,1277,8,0.0,15,382907356725058,12,32.8,-708.005615234375,0.0479000024497509,0,0.0,0.0,,,,,0,,1,,
Raw,20393960,20398113000000,,,-1291005709323027712,0.0,39.78984022978693,-0.8378843454497208,12.14796760546175,1277,9,0.0,15,382907350094175,31,23.2,-657.0174560546875,0.7414999604225159,0,0.0,0.0,,,,,0,,1,,
Raw,20393961,20398113000000,,,-1291005709323027712,0.0,39.78984022978693,-0.8378843454497208,12.14796760546175,1277,16,0.0,15,382907367139344,35,22.1,64.29071807861328,0.796999990940094,0,0.0,0.0,,,,,0,,1,,
Raw,20393961,20398113000000,,,-1291005709323027712,0.0,39.78984022978693,-0.8378843454497208,12.14796760546175,1277,22,0.0,15,382907353867683,19,27.8,293.23321533203125,0.06080000102519989,0,0.0,0.0,,,,,0,,1,,
Raw,20393961,20398113000000,,,-1291005709323027712,0.0,39.78984022978693,-0.8378843454497208,12.14796760546175,1277,26,0.0,15,382907364712517,70,17.4,314.5459289550781,1.1725000143051147,0,0.0,0.0,,,,,0,,1,,
Raw,20393961,20398113000000,,,-1291005709323027712,0.0,39.78984022978693,-0.8378843454497208,12.14796760546175,1277,27,0.0,15,382907365561008,40,21.7,-511.6901550292969,0.793999969959259,0,0.0,0.0,,,,,0,,1,,
Raw,20393961,20398113000000,,,-1291005709323027712,0.0,39.78984022978693,-0.8378843454497208,12.14796760546175,1277,29,0.0,15,382907350743953,40,21.2,637.379150390625,0.8614999651908875,0,0.0,0.0,,,,,0,,1,,
Raw,20393961,20398113000000,,,-1291005709323027712,0.0,39.78984022978693,-0.8378843454497208,12.14796760546175,1277,31,0.0,15,382907362277781,1075,16.3,188.35267639160156,6.809500217437744,0,0.0,0.0,,,,,0,,1,,
Raw,20393962,20398113000000,,,-1291005709323027712,0.0,39.78984022978693,-0.8378843454497208,12.14796760546175,1277,32,0.0,15,382907356121940,1082,11.9,690.5567016601562,21.25050163269043,0,0.0,0.0,,,,,0,,1,,
Raw,20393962,20398113000000,,,-1291005709323027712,0.0,39.78984022978693,-0.8378843454497208,12.14796760546175,1277,2,0.0,783,382893310993708,48,21.7,8.71859359741211,2.253499984741211,0,0.0,0.0,,,,,0,,5,,
Raw,20393962,20398113000000,,,-1291005709323027712,0.0,39.78984022978693,-0.8378843454497208,12.14796760546175,1277,3,0.0,783,382893314299565,31,25.4,-1.9395989179611206,2.053500175476074,0,0.0,0.0,,,,,0,,5,,
Raw,20393962,20398113000000,,,-1291005709323027712,0.0,39.78984022978693,-0.8378843454497208,12.14796760546175,1277,5,0.0,783,382893302752622,48,21.6,0.3264671564102173,2.253499984741211,0,0.0,0.0,,,,,0,,5,,
Raw,20393962,20398113000000,,,-1291005709323027712,0.0,39.78984022978693,-0.8378843454497208,12.14796760546175,1277,10,0.0,15,382893311567311,21,26.8,42.17988967895508,0.12770000100135803,0,0.0,0.0,,,,,0,,5,,
Raw,20393962,20398113000000,,,-1291005709323027712,0.0,39.78984022978693,-0.8378843454497208,12.14796760546175,1277,12,0.0,15,382893352429721,16,29.9,-614.9779052734375,0.04470000043511391,0,0.0,0.0,,,,,0,,5,,
Raw,20393962,20398113000000,,,-1291005709323027712,0.0,39.78984022978693,-0.8378843454497208,12.14796760546175,1277,14,0.0,15,382893354393132,46,20.1,25.137971878051758,0.8075000047683716,0,0.0,0.0,,,,,0,,5,,
Raw,20393963,20398113000000,,,-1291005709323027712,0.0,39.78984022978693,-0.8378843454497208,12.14796760546175,1277,16,0.0,15,382893316037748,70,17.8,50.24713134765625,0.9404999613761902,0,0.0,0.0,,,,,0,,5,,
Raw,20393963,20398113000000,,,-1291005709323027712,0.0,39.78984022978693,-0.8378843454497208,12.14796760546175,1277,21,0.0,15,382893352562609,11,33.8,531.1055297851562,0.04090000316500664,0,0.0,0.0,,,,,0,,5,,
Raw,20393963,20398113000000,,,-1291005709323027712,0.0,39.78984022978693,-0.8378843454497208,12.14796760546175,1277,24,0.0,15,382893353887057,17,28.7,-262.56597900390625,0.4360000193119049,0,0.0,0.0,,,,,0,,5,,
Raw,20393963,20398113000000,,,-1291005709323027712,0.0,39.78984022978693,-0.8378843454497208,12.14796760546175,1277,2,0.0,7183,382907342568434,24,25.9,-235.4976348876953,0.40880000591278076,0,0.0,0.0,,,,,0,,6,,
Raw,20393963,20398113000000,,,-1291005709323027712,0.0,39.78984022978693,-0.8378843454497208,12.14796760546175,1277,3,0.0,7183,382907349577776,40,21.4,-300.99700927734375,0.6919999718666077,0,0.0,0.0,,,,,0,,6,,
Raw,20393963,20398113000000,,,-1291005709323027712,0.0,39.78984022978693,-0.8378843454497208,12.14796760546175,1277,5,0.0,7183,382907356324474,19,27.3,181.63180541992188,0.06530000269412994,0,0.0,0.0,,,,,0,,6,,
Raw,20393963,20398113000000,,,-1291005709323027712,0.0,39.78984022978693,-0.8378843454497208,12.14796760546175,1277,9,0.0,7183,382907355461048,61,18.7,531.8707885742188,0.875,0,0.0,0.0,,,,,0,,6,,
Raw,20393964,20398113000000,,,-1291005709323027712,0.0,39.78984022978693,-0.8378843454497208,12.14796760546175,1277,25,0.0,7183,382907352657940,13,31.6,-47.168792724609375,0.04920000210404396,0,0.0,0.0,,,,,0,,6,,
Fix,gps,22.925450,120.294679,53.066711,0.400000,9.648001,1606990890000
NMEA,$GPGSV,3,2,12,16,59,310,22,22,13,237,28,26,49,014,17,27,49,185,22*72,1606990889483
NMEA,$GPGSV,3,3,12,29,02,035,21,31,41,073,16,32,16,151,12,18,07,084,*70,1606990889483
NMEA,$GLGSV,3,1,09,75,00,000,32,65,22,313,32,71,31,201,29,72,46,267,20*64,1606990889483
NMEA,$GLGSV,3,2,09,74,36,355,,73,19,050,,84,37,099,,83,14,039,*6D,1606990889483
NMEA,$GLGSV,3,3,09,85,17,163,*53,1606990889483
NMEA,$GAGSV,2,1,08,02,07,262,26,03,30,307,21,05,61,236,27,09,29,170,19*6F,1606990889486
NMEA,$GAGSV,2,2,08,25,43,302,32,24,42,021,,31,07,059,,33,00,000,*6A,1606990889488
NMEA,$PQGSV,1,1,03,193,32,171,20,194,60,033,16,195,53,125,,0,5*66,1606990889488
NMEA,$PQGSV,4,1,16,02,40,240,22,03,58,202,25,05,16,255,22,10,51,270,27,0,4*65,1606990889488
NMEA,$PQGSV,4,2,16,12,16,185,30,14,28,281,20,16,80,164,18,21,23,194,34,0,4*6B,1606990889489
NMEA,$PQGSV,4,3,16,24,26,305,29,01,52,129,,04,37,115,,06,76,157,,0,4*69,1606990889490
NMEA,$PQGSV,4,4,16,07,67,316,,08,01,172,,09,71,316,,26,49,002,,0,4*63,1606990889490
NMEA,$GNGSA,A,3,03,04,08,16,22,26,27,31,,,,,1.1,0.8,0.8,1*3A,1606990889491
NMEA,$GNGSA,A,2,71,,,,,,,,,,,,1.1,0.8,0.8,2*35,1606990889491
NMEA,$GNGSA,A,3,02,03,05,09,25,,,,,,,,1.1,0.8,0.8,3*39,1606990889492
NMEA,$PQGSA,A,2,10,21,24,,,,,,,,,,1.1,0.8,0.8,4*39,1606990889492
NMEA,$GNVTG,208.1,T,208.1,M,0.8,N,1.4,K,A*30,1606990889492
NMEA,$GNRMC,102130.00,A,2255.527019,N,12017.680711,E,0.8,208.1,031220,2.8,W,A*37,1606990889492
NMEA,$GNGGA,102130.00,2255.527019,N,12017.680711,E,1,12,0.8,35.6,M,17.5,M,,*4F,1606990889492
Raw,20394540,20399113000000,,,-1291005709323027712,0.0,40.77577978023328,0.24123280586257595,13.5713750551739,1277,11,0.0,207,48090363629187,13,31.4,-130.2740478515625,0.2296999990940094,0,0.0,0.0,,,,,0,,3,,
Raw,20394541,20399113000000,,,-1291005709323027712,0.0,40.77577978023328,0.24123280586257595,13.5713750551739,1277,1,0.0,207,48090361556156,13,31.9,-370.0717468261719,0.22670000791549683,0,0.0,0.0,,,,,0,,3,,
Raw,20394541,20399113000000,,,-1291005709323027712,0.0,40.77577978023328,0.24123280586257595,13.5713750551739,1277,7,0.0,207,48090363974659,13,31.0,694.2228393554688,0.2296999990940094,0,0.0,0.0,,,,,0,,3,,
Raw,20394541,20399113000000,,,-1291005709323027712,0.0,40.77577978023328,0.24123280586257595,13.5713750551739,1277,8,0.0,207,48090367546128,31,23.6,151.6819610595703,0.8769999742507935,0,0.0,0.0,,,,,0,,3,,
Raw,20394541,20399113000000,,,-1291005709323027712,0.0,40.77577978023328,0.24123280586257595,13.5713750551739,1277,3,0.0,15,382908355242140,19,27.7,266.4588623046875,0.06379999965429306,0,0.0,0.0,,,,,0,,1,,
Raw,20394541,20399113000000,,,-1291005709323027712,0.0,40.77577978023328,0.24123280586257595,13.5713750551739,1277,4,0.0,15,382908361231940,12,32.8,-493.84783935546875,0.02540000155568123,0,0.0,0.0,,,,,0,,1,,
Raw,20394541,20399113000000,,,-1291005709323027712,0.0,40.77577978023328,0.24123280586257595,13.5713750551739,1277,8,0.0,15,382908356727415,11,33.1,-707.0166015625,0.04690000042319298,0,0.0,0.0,,,,,0,,1,,
Raw,20394542,20399113000000,,,-1291005709323027712,0.0,40.77577978023328,0.24123280586257595,13.5713750551739,1277,9,0.0,15,382908350096364,35,22.5,-656.3609008789062,0.7414999604225159,0,0.0,0.0,,,,,0,,1,,
Raw,20394542,20399113000000,,,-1291005709323027712,0.0,40.77577978023328,0.24123280586257595,13.5713750551739,1277,16,0.0,15,382908367139147,31,23.6,64.50955200195312,0.6769999861717224,0,0.0,0.0,,,,,0,,1,,
Raw,20394542,20399113000000,,,-1291005709323027712,0.0,40.77577978023328,0.24123280586257595,13.5713750551739,1277,22,0.0,15,382908353866717,16,29.5,294.1766052246094,0.04620000347495079,0,0.0,0.0,,,,,0,,1,,
Raw,20394542,20399113000000,,,-1291005709323027712,0.0,40.77577978023328,0.24123280586257595,13.5713750551739,1277,26,0.0,15,382908364711507,70,17.4,315.8970031738281,1.1725000143051147,0,0.0,0.0,,,,,0,,1,,
Raw,20394542,20399113000000,,,-1291005709323027712,0.0,40.77577978023328,0.24123280586257595,13.5713750551739,1277,27,0.0,15,382908365562686,53,19.3,-509.72064208984375,1.0040000677108765,0,0.0,0.0,,,,,0,,1,,
Raw,20394542,20399113000000,,,-1291005709323027712,0.0,40.77577978023328,0.24123280586257595,13.5713750551739,1277,29,0.0,15,382908350741832,40,21.6,638.3876953125,0.8014999628067017,0,0.0,0.0,,,,,0,,1,,
Raw,20394542,20399113000000,,,-1291005709323027712,0.0,40.77577978023328,0.24123280586257595,13.5713750551739,1277,31,0.0,15,382908362277145,1097,16.2,188.34315490722656,7.559500217437744,0,0.0,0.0,,,,,0,,1,,
Raw,20394543,20399113000000,,,-1291005709323027712,0.0,40.77577978023328,0.24123280586257595,13.5713750551739,1277,32,0.0,15,382908356119637,1223,11.9,690.5567016601562,22.75050163269043,0,0.0,0.0,,,,,0,,1,,
Raw,20394543,20399113000000,,,-1291005709323027712,0.0,40.77577978023328,0.24123280586257595,13.5713750551739,1277,2,0.0,783,382894310993679,65,21.7,8.71859359741211,3.75350022315979,0,0.0,0.0,,,,,0,,5,,
Raw,20394543,20399113000000,,,-1291005709323027712,0.0,40.77577978023328,0.24123280586257595,13.5713750551739,1277,3,0.0,783,382894314299571,48,25.4,-1.9395989179611206,3.553500175476074,0,0.0,0.0,,,,,0,,5,,
Raw,20394543,20399113000000,,,-1291005709323027712,0.0,40.77577978023328,0.24123280586257595,13.5713750551739,1277,5,0.0,783,382894302752621,65,21.6,0.3264671564102173,3.75350022315979,0,0.0,0.0,,,,,0,,5,,
Raw,20394543,20399113000000,,,-1291005709323027712,0.0,40.77577978023328,0.24123280586257595,13.5713750551739,1277,10,0.0,15,382894311567173,19,27.2,43.129051208496094,0.05780000239610672,0,0.0,0.0,,,,,0,,5,,
Raw,20394543,20399113000000,,,-1291005709323027712,0.0,40.77577978023328,0.24123280586257595,13.5713750551739,1277,12,0.0,15,382894352431772,16,29.9,-614.0309448242188,0.04470000043511391,0,0.0,0.0,,,,,0,,5,,
Raw,20394544,20399113000000,,,-1291005709323027712,0.0,40.77577978023328,0.24123280586257595,13.5713750551739,1277,14,0.0,15,382894354393056,46,20.9,27.192792892456055,0.7475000023841858,0,0.0,0.0,,,,,0,,5,,
Raw,20394544,20399113000000,,,-1291005709323027712,0.0,40.77577978023328,0.24123280586257595,13.5713750551739,1277,16,0.0,15,382894316037619,61,18.4,50.42957305908203,0.9404999613761902,0,0.0,0.0,,,,,0,,5,,
Raw,20394544,20399113000000,,,-1291005709323027712,0.0,40.77577978023328,0.24123280586257595,13.5713750551739,1277,21,0.0,15,382894352560836,11,33.7,532.0499267578125,0.04090000316500664,0,0.0,0.0,,,,,0,,5,,
Raw,20394544,20399113000000,,,-1291005709323027712,0.0,40.77577978023328,0.24123280586257595,13.5713750551739,1277,24,0.0,15,382894353887931,17,28.5,-262.3192138671875,0.052799999713897705,0,0.0,0.0,,,,,0,,5,,
Raw,20394544,20399113000000,,,-1291005709323027712,0.0,40.77577978023328,0.24123280586257595,13.5713750551739,1277,2,0.0,7183,382908342569239,35,22.4,-236.18299865722656,0.643500030040741,0,0.0,0.0,,,,,0,,6,,
Raw,20394544,20399113000000,,,-1291005709323027712,0.0,40.77577978023328,0.24123280586257595,13.5713750551739,1277,3,0.0,7183,382908349578762,31,23.1,-298.8371887207031,0.6019999980926514,0,0.0,0.0,,,,,0,,6,,
Raw,20394544,20399113000000,,,-1291005709323027712,0.0,40.77577978023328,0.24123280586257595,13.5713750551739,1277,5,0.0,7183,382908356323885,17,28.1,180.40545654296875,0.05730000138282776,0,0.0,0.0,,,,,0,,6,,
Raw,20394545,20399113000000,,,-1291005709323027712,0.0,40.77577978023328,0.24123280586257595,13.5713750551739,1277,9,0.0,7183,382908355459274,69,18.7,531.8707885742188,2.375,0,0.0,0.0,,,,,0,,6,,
Raw,20394545,20399113000000,,,-1291005709323027712,0.0,40.77577978023328,0.24123280586257595,13.5713750551739,1277,25,0.0,7183,382908352658108,13,31.2,-48.94271469116211,0.04920000210404396,0,0.0,0.0,,,,,0,,6,,
Fix,gps,22.925447,120.294680,53.710449,0.310000,9.648001,1606990891000
NMEA,$GPGSV,3,1,12,03,15,260,28,04,33,314,33,08,16,202,33,09,00,000,23*74,1606990890481
NMEA,$GPGSV,3,2,12,16,59,310,24,22,13,237,30,26,49,014,17,27,49,185,19*75,1606990890481
NMEA,$GPGSV,3,3,12,29,02,035,22,31,41,073,16,32,16,151,12,18,07,084,*73,1606990890481
NMEA,$GLGSV,3,1,09,75,00,000,31,65,22,313,32,71,31,201,31,72,46,267,24*6A,1606990890481
NMEA,$GLGSV,3,2,09,74,36,355,,73,19,050,,84,37,099,,83,14,039,*6D,1606990890482
NMEA,$GLGSV,3,3,09,85,17,163,*53,1606990890482
NMEA,$GAGSV,2,1,08,02,07,262,22,03,30,307,23,05,61,236,28,09,29,170,19*66,1606990890482
NMEA,$GAGSV,2,2,08,25,43,302,31,24,42,021,,31,07,059,,33,00,000,*69,1606990890482
NMEA,$PQGSV,1,1,03,193,32,171,21,194,60,033,19,195,53,125,,0,5*68,1606990890482
NMEA,$PQGSV,4,1,16,02,40,240,22,03,58,202,25,05,16,255,22,10,51,270,27,0,4*65,1606990890482
NMEA,$PQGSV,4,2,16,12,16,185,30,14,28,281,21,16,80,164,18,21,23,194,34,0,4*6A,1606990890482
NMEA,$PQGSV,4,3,16,24,26,305,29,01,52,129,,04,37,115,,06,76,157,,0,4*69,1606990890483
NMEA,$PQGSV,4,4,16,07,67,316,,08,01,172,,09,71,316,,26,49,002,,0,4*63,1606990890483
NMEA,$GNGSA,A,3,03,04,08,16,22,26,27,31,,,,,1.1,0.8,0.8,1*3A,1606990890484
NMEA,$GNGSA,A,2,71,,,,,,,,,,,,1.1,0.8,0.8,2*35,1606990890484
NMEA,$GNGSA,A,3,02,03,05,09,25,,,,,,,,1.1,0.8,0.8,3*39,1606990890484
NMEA,$PQGSA,A,2,10,21,24,,,,,,,,,,1.1,0.8,0.8,4*39,1606990890484
NMEA,$GNVTG,167.9,T,167.9,M,0.6,N,1.1,K,A*3B,1606990890484
NMEA,$GNRMC,102131.00,A,2255.526800,N,12017.680782,E,0.6,167.9,031220,2.8,W,A*31,1606990890485
NMEA,$GNGGA,102131.00,2255.526800,N,12017.680782,E,1,12,0.8,36.2,M,17.5,M,,*42,1606990890485
Raw,20395536,20400113000000,,,-1291005709323027712,0.0,43.07693234295584,1.3496811307678276,16.681968019076415,1277,11,0.0,207,48091363629653,13,31.6,-130.0568389892578,0.2296999990940094,0,0.0,0.0,,,,,0,,3,,
Raw,20395537,20400113000000,,,-1291005709323027712,0.0,43.07693234295584,1.3496811307678276,16.681968019076415,1277,1,0.0,207,48091361557381,14,30.9,-369.7367248535156,0.2273000031709671,0,0.0,0.0,,,,,0,,3,,
Raw,20395537,20400113000000,,,-1291005709323027712,0.0,43.07693234295584,1.3496811307678276,16.681968019076415,1277,7,0.0,207,48091363972344,14,30.9,694.4677734375,0.23029999434947968,0,0.0,0.0,,,,,0,,3,,
Raw,20395537,20400113000000,,,-1291005709323027712,0.0,43.07693234295584,1.3496811307678276,16.681968019076415,1277,8,0.0,207,48091367545688,17,28.6,152.43496704101562,0.24379999935626984,0,0.0,0.0,,,,,0,,3,,
Raw,20395537,20400113000000,,,-1291005709323027712,0.0,43.07693234295584,1.3496811307678276,16.681968019076415,1277,3,0.0,15,382909355241191,46,20.2,266.8298034667969,0.9389999508857727,0,0.0,0.0,,,,,0,,1,,
Raw,20395537,20400113000000,,,-1291005709323027712,0.0,43.07693234295584,1.3496811307678276,16.681968019076415,1277,4,0.0,15,382909361233612,19,27.7,-493.560302734375,0.04280000180006027,0,0.0,0.0,,,,,0,,1,,
Raw,20395538,20400113000000,,,-1291005709323027712,0.0,43.07693234295584,1.3496811307678276,16.681968019076415,1277,8,0.0,15,382909356729766,12,32.4,-706.7792358398438,0.0479000024497509,0,0.0,0.0,,,,,0,,1,,
Raw,20395538,20400113000000,,,-1291005709323027712,0.0,43.07693234295584,1.3496811307678276,16.681968019076415,1277,9,0.0,15,382909350098596,35,22.8,-655.2286987304688,0.7414999604225159,0,0.0,0.0,,,,,0,,1,,
Raw,20395538,20400113000000,,,-1291005709323027712,0.0,43.07693234295584,1.3496811307678276,16.681968019076415,1277,16,0.0,15,382909367138831,27,24.3,65.40393829345703,0.6769999861717224,0,0.0,0.0,,,,,0,,1,,
Raw,20395538,20400113000000,,,-1291005709323027712,0.0,43.07693234295584,1.3496811307678276,16.681968019076415,1277,22,0.0,15,382909353865659,27,24.6,294.1940002441406,0.6360000371932983,0,0.0,0.0,,,,,0,,1,,
Raw,20395538,20400113000000,,,-1291005709323027712,0.0,43.07693234295584,1.3496811307678276,16.681968019076415,1277,26,0.0,15,382909364710493,46,20.1,315.9541015625,0.92249995470047,0,0.0,0.0,,,,,0,,1,,
Raw,20395539,20400113000000,,,-1291005709323027712,0.0,43.07693234295584,1.3496811307678276,16.681968019076415,1277,27,0.0,15,382909365564376,13,31.4,-510.32965087890625,0.03270000219345093,0,0.0,0.0,,,,,0,,1,,
Raw,20395539,20400113000000,,,-1291005709323027712,0.0,43.07693234295584,1.3496811307678276,16.681968019076415,1277,29,0.0,15,382909350739642,40,21.2,637.7787475585938,0.8614999651908875,0,0.0,0.0,,,,,0,,1,,
Raw,20395539,20400113000000,,,-1291005709323027712,0.0,43.07693234295584,1.3496811307678276,16.681968019076415,1277,31,0.0,15,382909362276520,1121,15.8,188.4763641357422,8.309500694274902,0,0.0,0.0,,,,,0,,1,,
Raw,20395539,20400113000000,,,-1291005709323027712,0.0,43.07693234295584,1.3496811307678276,16.681968019076415,1277,32,0.0,15,382909356117333,1374,11.9,690.5567016601562,24.25050163269043,0,0.0,0.0,,,,,0,,1,,
Raw,20395539,20400113000000,,,-1291005709323027712,0.0,43.07693234295584,1.3496811307678276,16.681968019076415,1277,2,0.0,783,382895310993650,93,21.7,8.71859359741211,5.253499984741211,0,0.0,0.0,,,,,0,,5,,
Raw,20395539,20400113000000,,,-1291005709323027712,0.0,43.07693234295584,1.3496811307678276,16.681968019076415,1277,3,0.0,783,382895314299600,26,25.9,-4.455316543579102,1.2735000848770142,0,0.0,0.0,,,,,0,,5,,
Raw,20395539,20400113000000,,,-1291005709323027712,0.0,43.07693234295584,1.3496811307678276,16.681968019076415,1277,5,0.0,783,382895302752620,93,21.6,0.3264671564102173,5.253499984741211,0,0.0,0.0,,,,,0,,5,,
