# 
# Header Description:
# 
# Version: v2.0.0.1 Platform: 8.0.0 Manufacturer: Sony Model: G8142
# 
# Raw,ElapsedRealtimeMillis,TimeNanos,LeapSecond,TimeUncertaintyNanos,FullBiasNanos,BiasNanos,BiasUncertaintyNanos,DriftNanosPerSecond,DriftUncertaintyNanosPerSecond,HardwareClockDiscontinuityCount,Svid,TimeOffsetNanos,State,ReceivedSvTimeNanos,ReceivedSvTimeUncertaintyNanos,Cn0DbHz,PseudorangeRateMetersPerSecond,PseudorangeRateUncertaintyMetersPerSecond,AccumulatedDeltaRangeState,AccumulatedDeltaRangeMeters,AccumulatedDeltaRangeUncertaintyMeters,CarrierFrequencyHz,CarrierCycles,CarrierPhase,CarrierPhaseUncertainty,MultipathIndicator,SnrInDb,ConstellationType,AgcDb,CarrierFrequencyHz
# 
# Fix,Provider,Latitude,Longitude,Altitude,Speed,Accuracy,(UTC)TimeInMs
# 
# Nav,Svid,Type,Status,MessageId,Sub-messageId,Data(Bytes)
# 
Fix,gps,22.925453,120.294672,51.498657,0.000000,4.288000,1606991241000
NMEA,$GPGSV,3,1,12,03,14,257,26,04,35,313,27,08,18,203,32,09,01,322,26*72,1606991240479
NMEA,$GPGSV,3,2,12,16,58,316,29,22,11,236,33,26,47,016,15,27,52,185,37*77,1606991240479
NMEA,$GPGSV,3,3,12,32,14,153,12,18,07,081,,29,00,000,,31,40,075,*72,1606991240480
NMEA,$GLGSV,3,1,09,74,00,000,15,75,00,000,26,65,23,310,28,71,28,199,34*6F,1606991240480
NMEA,$GLGSV,3,2,09,72,45,261,28,73,18,053,,84,39,095,,83,12,036,*6A,1606991240480
NMEA,$GLGSV,3,3,09,85,20,161,*55,1606991240480
NMEA,$GAGSV,1,1,0,*74,1606991240480
NMEA,$PQGSV,1,1,03,193,31,171,24,194,59,035,16,195,54,123,17,0,5*6A,1606991240481
NMEA,$PQGSV,1,1,0,*73,1606991240481
NMEA,$GNGSA,A,3,03,04,08,16,22,26,27,,,,,,1.2,0.9,0.8,1*3A,1606991240482
Raw,20745539,20750650000000,,,-1291005709229385728,0.0,4215.82069247961,0.7849843894562042,10.14187609730823,1461,1,0.0,207,48441805320781,17,28.0,-322.93914794921875,0.30489999055862427,0,0.0,0.0,,,,,0,,3,,
Raw,20745540,20750650000000,,,-1291005709229385728,0.0,4215.82069247961,0.7849843894562042,10.14187609730823,1461,7,0.0,207,48441806509645,17,28.6,709.718017578125,0.30640000104904175,0,0.0,0.0,,,,,0,,3,,
Raw,20745540,20750650000000,,,-1291005709229385728,0.0,4215.82069247961,0.7849843894562042,10.14187609730823,1461,8,0.0,207,48441810695809,27,24.9,203.0456085205078,0.8165000081062317,0,0.0,0.0,,,,,0,,3,,
Raw,20745540,20750650000000,,,-1291005709229385728,0.0,4215.82069247961,0.7849843894562042,10.14187609730823,1461,3,0.0,15,383259798279090,27,24.6,281.5870666503906,0.6285000443458557,0,0.0,0.0,,,,,0,,1,,
Raw,20745540,20750650000000,,,-1291005709229385728,0.0,4215.82069247961,0.7849843894562042,10.14187609730823,1461,4,0.0,15,383259805153388,16,29.1,-466.6883850097656,0.08190000057220459,0,0.0,0.0,,,,,0,,1,,
Raw,20745540,20750650000000,,,-1291005709229385728,0.0,4215.82069247961,0.7849843894562042,10.14187609730823,1461,8,0.0,15,383259800909579,17,28.0,-698.22265625,0.1273999959230423,0,0.0,0.0,,,,,0,,1,,
Raw,20745540,20750650000000,,,-1291005709229385728,0.0,4215.82069247961,0.7849843894562042,10.14187609730823,1461,9,0.0,15,383259794219163,27,24.4,-648.3685913085938,0.67249995470047,0,0.0,0.0,,,,,0,,1,,
Raw,20745540,20750650000000,,,-1291005709229385728,0.0,4215.82069247961,0.7849843894562042,10.14187609730823,1461,16,0.0,15,383259810408284,17,28.8,86.97403717041016,0.11240000277757645,0,0.0,0.0,,,,,0,,1,,
Raw,20745541,20750650000000,,,-1291005709229385728,0.0,4215.82069247961,0.7849843894562042,10.14187609730823,1461,22,0.0,15,383259796879784,12,32.5,294.4521789550781,0.07249999791383743,0,0.0,0.0,,,,,0,,1,,
Raw,20745541,20750650000000,,,-1291005709229385728,0.0,4215.82069247961,0.7849843894562042,10.14187609730823,1461,27,0.0,15,383259809500753,9,35.8,-478.23577880859375,0.04800000041723251,0,0.0,0.0,,,,,0,,1,,
NMEA,$GNGSA,A,2,65,71,72,,,,,,,,,,1.2,0.9,0.8,2*31,1606991240482
NMEA,$GNVTG,,T,,M,0.0,N,0.0,K,A*3D,1606991240482
NMEA,$GNRMC,102721.00,A,2255.527158,N,12017.680304,E,0.0,,031220,2.8,W,A*18,1606991240482
NMEA,$GNGGA,102721.00,2255.527158,N,12017.680304,E,1,10,0.9,34.0,M,17.5,M,,*49,1606991240482
Fix,gps,22.925451,120.294674,51.524658,0.000000,4.288000,1606991242000
NMEA,$GPGSV,3,1,12,03,14,257,25,04,35,313,29,08,18,203,28,09,01,322,24*76,1606991241478
NMEA,$GPGSV,3,2,12,16,58,316,29,22,11,236,33,27,52,185,36,18,07,081,*75,1606991241478
NMEA,$GPGSV,3,3,12,26,47,016,,29,00,000,,31,40,075,,32,14,153,*76,1606991241479
NMEA,$GLGSV,3,1,09,75,00,000,26,65,23,310,28,71,28,199,29,72,45,261,25*62,1606991241479
NMEA,$GLGSV,3,2,09,74,00,000,,73,18,053,,84,39,095,,83,12,036,*62,1606991241479
NMEA,$GLGSV,3,3,09,85,20,161,*55,1606991241479
NMEA,$GAGSV,1,1,0,*74,1606991241480
NMEA,$PQGSV,1,1,02,194,59,035,,195,54,123,,0,5*62,1606991241480
NMEA,$PQGSV,1,1,0,*73,1606991241480
NMEA,$GNGSA,A,3,03,04,08,16,22,26,27,,,,,,1.5,1.2,0.8,1*37,1606991241481
NMEA,$GNGSA,A,2,65,71,72,,,,,,,,,,1.5,1.2,0.8,2*3C,1606991241481
NMEA,$GNVTG,,T,,M,0.0,N,0.0,K,A*3D,1606991241481
NMEA,$GNRMC,102722.00,A,2255.527052,N,12017.680421,E,0.0,,031220,2.8,W,A*10,1606991241481
NMEA,$GNGGA,102722.00,2255.527052,N,12017.680421,E,1,10,1.2,34.1,M,17.5,M,,*4A,1606991241482
Fix,gps,22.925450,120.294675,51.525085,0.000000,4.288000,1606991243000
NMEA,$GPGSA,A,1,,,,,,,,,,,,,1.5,1.2,0.8,1*22,1606991242474
NMEA,$GPVTG,,T,,M,0.0,N,0.0,K,A*23,1606991242474
NMEA,$GPRMC,102723.00,A,2255.526999,N,12017.680479,E,0.0,,031220,2.8,W,A*0D,1606991242474
NMEA,$GPGGA,102723.00,2255.526999,N,12017.680479,E,1,00,1.2,34.1,M,17.5,M,,*56,1606991242474
Raw,20747553,20752554000000,,,-1291005709227812352,0.0,4193.5257613658905,-4.769163154808318,11.368284246097916,1462,1,0.0,207,48443707749127,31,23.7,-320.8823547363281,0.8619999885559082,0,0.0,0.0,,,,,0,,3,,
Raw,20747554,20752554000000,,,-1291005709227812352,0.0,4193.5257613658905,-4.769163154808318,11.368284246097916,1462,7,0.0,207,48443708931523,31,23.5,710.9554443359375,0.8634999394416809,0,0.0,0.0,,,,,0,,3,,
Raw,20747554,20752554000000,,,-1291005709227812352,0.0,4193.5257613658905,-4.769163154808318,11.368284246097916,1462,8,0.0,207,48443713120889,24,25.4,204.79942321777344,0.39890000224113464,0,0.0,0.0,,,,,0,,3,,
Raw,20747555,20752554000000,,,-1291005709227812352,0.0,4193.5257613658905,-4.769163154808318,11.368284246097916,1462,3,0.0,15,383261700703596,12,32.6,282.3027038574219,0.05140000209212303,0,0.0,0.0,,,,,0,,1,,
Raw,20747555,20752554000000,,,-1291005709227812352,0.0,4193.5257613658905,-4.769163154808318,11.368284246097916,1462,4,0.0,15,383261707582756,21,26.8,-465.6889343261719,0.10819999873638153,0,0.0,0.0,,,,,0,,1,,
Raw,20747556,20752554000000,,,-1291005709227812352,0.0,4193.5257613658905,-4.769163154808318,11.368284246097916,1462,8,0.0,15,383261703340317,31,23.0,-697.0076904296875,0.715999960899353,0,0.0,0.0,,,,,0,,1,,
Raw,20747556,20752554000000,,,-1291005709227812352,0.0,4193.5257613658905,-4.769163154808318,11.368284246097916,1462,9,0.0,15,383261696649568,27,24.6,-647.1602172851562,0.6255000233650208,0,0.0,0.0,,,,,0,,1,,
Raw,20747557,20752554000000,,,-1291005709227812352,0.0,4193.5257613658905,-4.769163154808318,11.368284246097916,1462,16,0.0,15,383261712834027,16,29.8,87.86048126220703,0.047700002789497375,0,0.0,0.0,,,,,0,,1,,
Raw,20747557,20752554000000,,,-1291005709227812352,0.0,4193.5257613658905,-4.769163154808318,11.368284246097916,1462,22,0.0,15,383261699304237,11,33.1,295.0942077636719,0.04750000312924385,0,0.0,0.0,,,,,0,,1,,
Raw,20747557,20752554000000,,,-1291005709227812352,0.0,4193.5257613658905,-4.769163154808318,11.368284246097916,1462,27,0.0,15,383261711930137,7,37.5,-477.2091369628906,0.029100000858306885,0,0.0,0.0,,,,,0,,1,,
Fix,gps,22.925450,120.294675,51.823914,0.000000,4.288000,1606991244000
NMEA,$GPGSV,3,1,12,03,14,257,33,04,35,313,27,08,18,203,23,09,01,322,25*75,1606991243476
NMEA,$GPGSV,3,2,12,16,58,316,30,22,11,236,33,27,52,185,38,18,07,081,*73,1606991243477
NMEA,$GPGSV,3,3,12,26,47,016,,29,00,000,,31,40,075,,32,14,153,*76,1606991243478
NMEA,$GLGSV,3,1,09,75,00,000,26,65,23,310,24,71,28,199,24,72,45,261,25*63,1606991243478
NMEA,$GLGSV,3,2,09,74,00,000,,73,18,053,,84,39,095,,83,12,036,*62,1606991243478
NMEA,$GLGSV,3,3,09,85,20,161,*55,1606991243480
NMEA,$GAGSV,1,1,0,*74,1606991243480
NMEA,$PQGSV,1,1,03,193,31,171,24,194,59,035,,195,54,123,,0,5*6B,1606991243480
NMEA,$PQGSV,1,1,0,*73,1606991243480
NMEA,$GNGSA,A,3,03,04,08,16,22,27,,,,,,,1.5,1.2,0.8,1*33,1606991243481
NMEA,$GNGSA,A,2,65,71,72,,,,,,,,,,1.5,1.2,0.8,2*3C,1606991243482
NMEA,$GNVTG,,T,,M,0.0,N,0.0,K,A*3D,1606991243482
NMEA,$GNRMC,102724.00,A,2255.527021,N,12017.680475,E,0.0,,031220,2.8,W,A*13,1606991243483
NMEA,$GNGGA,102724.00,2255.527021,N,12017.680475,E,1,09,1.2,34.4,M,17.5,M,,*44,1606991243483
Raw,20748557,20753547000000,,,-1291005709227136256,0.0,4203.000571578741,1.6982703085922377,15.80979373804466,1463,1,0.0,207,48444700074107,21,26.6,-322.83837890625,0.32770001888275146,0,0.0,0.0,,,,,0,,3,,
Raw,20748558,20753547000000,,,-1291005709227136256,0.0,4203.000571578741,1.6982703085922377,15.80979373804466,1463,7,0.0,207,48444701252892,31,23.3,709.4609985351562,0.8829999566078186,0,0.0,0.0,,,,,0,,3,,
Raw,20748558,20753547000000,,,-1291005709227136256,0.0,4203.000571578741,1.6982703085922377,15.80979373804466,1463,8,0.0,207,48444705444249,19,27.4,203.55108642578125,0.2711000144481659,0,0.0,0.0,,,,,0,,3,,
Raw,20748558,20753547000000,,,-1291005709227136256,0.0,4203.000571578741,1.6982703085922377,15.80979373804466,1463,3,0.0,15,383262693026524,31,23.8,281.8154296875,0.6710000038146973,0,0.0,0.0,,,,,0,,1,,
Raw,20748559,20753547000000,,,-1291005709227136256,0.0,4203.000571578741,1.6982703085922377,15.80979373804466,1463,4,0.0,15,383262699908327,16,29.2,-466.702880859375,0.05820000171661377,0,0.0,0.0,,,,,0,,1,,
Raw,20748559,20753547000000,,,-1291005709227136256,0.0,4203.000571578741,1.6982703085922377,15.80979373804466,1463,8,0.0,15,383262695666602,35,22.4,-698.7393798828125,0.793999969959259,0,0.0,0.0,,,,,0,,1,,
Raw,20748560,20753547000000,,,-1291005709227136256,0.0,4203.000571578741,1.6982703085922377,15.80979373804466,1463,9,0.0,15,383262688975822,27,24.6,-648.9775390625,0.6134999990463257,0,0.0,0.0,,,,,0,,1,,
Raw,20748561,20753547000000,,,-1291005709227136256,0.0,4203.000571578741,1.6982703085922377,15.80979373804466,1463,16,0.0,15,383262705157749,19,27.5,87.04647827148438,0.07110000401735306,0,0.0,0.0,,,,,0,,1,,
Raw,20748562,20753547000000,,,-1291005709227136256,0.0,4203.000571578741,1.6982703085922377,15.80979373804466,1463,22,0.0,15,383262691627266,11,33.7,294.0242919921875,0.03550000116229057,0,0.0,0.0,,,,,0,,1,,
Raw,20748562,20753547000000,,,-1291005709227136256,0.0,4203.000571578741,1.6982703085922377,15.80979373804466,1463,27,0.0,15,383262704255715,7,37.9,-478.2529296875,0.01860000006854534,0,0.0,0.0,,,,,0,,1,,
Fix,gps,22.925451,120.294674,52.164368,0.000000,4.288000,1606991245000
NMEA,$GPGSV,3,1,12,03,14,257,24,04,35,313,29,08,18,203,22,09,01,322,25*7C,1606991244477
NMEA,$GPGSV,3,2,12,16,58,316,28,22,11,236,34,27,52,185,38,18,07,081,*7D,1606991244478
NMEA,$GPGSV,3,3,12,26,47,016,,29,00,000,,31,40,075,,32,14,153,*76,1606991244478
NMEA,$GLGSV,3,1,09,75,00,000,26,65,23,310,27,71,28,199,23,72,45,261,27*65,1606991244478
NMEA,$GLGSV,3,2,09,74,00,000,,73,18,053,,84,39,095,,83,12,036,*62,1606991244478
NMEA,$GLGSV,3,3,09,85,20,161,*55,1606991244479
NMEA,$GAGSV,1,1,0,*74,1606991244483
NMEA,$PQGSV,1,1,03,193,31,171,22,195,54,123,22,194,59,035,,0,5*6D,1606991244483
NMEA,$PQGSV,1,1,0,*73,1606991244483
NMEA,$GNGSA,A,3,03,04,08,16,22,27,,,,,,,1.5,1.2,0.8,1*33,1606991244484
NMEA,$GNGSA,A,2,65,71,72,,,,,,,,,,1.5,1.2,0.8,2*3C,1606991244485
NMEA,$GNVTG,,T,,M,0.0,N,0.0,K,A*3D,1606991244485
NMEA,$GNRMC,102725.00,A,2255.527089,N,12017.680418,E,0.0,,031220,2.8,W,A*1B,1606991244485
NMEA,$GNGGA,102725.00,2255.527089,N,12017.680418,E,1,09,1.2,34.7,M,17.5,M,,*4F,1606991244485
Fix,gps,22.925453,120.294676,52.126526,0.000000,4.288000,1606991246000
Raw,20749587,20754440000000,,,-1291005709226282240,0.0,4202.590323984623,-1.8727061588970588,12.59731999596405,1464,1,0.0,207,48445592221015,31,23.6,-322.2760314941406,0.8694999814033508,0,0.0,0.0,,,,,0,,3,,
Raw,20749587,20754440000000,,,-1291005709226282240,0.0,4202.590323984623,-1.8727061588970588,12.59731999596405,1464,7,0.0,207,48445593397295,31,23.6,709.4236450195312,0.8709999918937683,0,0.0,0.0,,,,,0,,3,,
Raw,20749587,20754440000000,,,-1291005709226282240,0.0,4202.590323984623,-1.8727061588970588,12.59731999596405,1464,8,0.0,207,48445597589865,11,33.1,203.66607666015625,0.2687000036239624,0,0.0,0.0,,,,,0,,3,,
Raw,20749588,20754440000000,,,-1291005709226282240,0.0,4202.590323984623,-1.8727061588970588,12.59731999596405,1464,3,0.0,15,383263585172092,16,29.9,281.2398681640625,0.08190000057220459,0,0.0,0.0,,,,,0,,1,,
Raw,20749588,20754440000000,,,-1291005709226282240,0.0,4202.590323984623,-1.8727061588970588,12.59731999596405,1464,4,0.0,15,383263592056038,19,27.1,-466.6759338378906,0.18170000612735748,0,0.0,0.0,,,,,0,,1,,
Raw,20749589,20754440000000,,,-1291005709226282240,0.0,4202.590323984623,-1.8727061588970588,12.59731999596405,1464,8,0.0,15,383263587815035,24,25.0,-698.36865234375,1.1710000038146973,0,0.0,0.0,,,,,0,,1,,
Raw,20749589,20754440000000,,,-1291005709226282240,0.0,4202.590323984623,-1.8727061588970588,12.59731999596405,1464,9,0.0,15,383263581124132,19,27.3,-649.2378540039062,0.19520001113414764,0,0.0,0.0,,,,,0,,1,,
Raw,20749590,20754440000000,,,-1291005709226282240,0.0,4202.590323984623,-1.8727061588970588,12.59731999596405,1464,16,0.0,15,383263597303856,17,28.4,86.85513305664062,0.12290000170469284,0,0.0,0.0,,,,,0,,1,,
Raw,20749590,20754440000000,,,-1291005709226282240,0.0,4202.590323984623,-1.8727061588970588,12.59731999596405,1464,22,0.0,15,383263583772739,11,33.7,294.1146240234375,0.047700002789497375,0,0.0,0.0,,,,,0,,1,,
Raw,20749590,20754440000000,,,-1291005709226282240,0.0,4202.590323984623,-1.8727061588970588,12.59731999596405,1464,27,0.0,15,383263596403485,7,37.9,-478.2552490234375,0.051500000059604645,0,0.0,0.0,,,,,0,,1,,
NMEA,$GPGSV,3,1,12,03,14,257,30,04,35,313,27,08,18,203,25,09,01,322,27*72,1606991245482
NMEA,$GPGSV,3,2,12,16,58,316,28,22,11,236,34,27,52,185,38,18,07,081,*7D,1606991245482
NMEA,$GPGSV,3,3,12,26,47,016,,29,00,000,,31,40,075,,32,14,153,*76,1606991245483
NMEA,$GLGSV,3,1,09,75,00,000,26,65,23,310,24,71,28,199,24,72,45,261,33*64,1606991245483
NMEA,$GLGSV,3,2,09,74,00,000,,73,18,053,,84,39,095,,83,12,036,*62,1606991245483
NMEA,$GLGSV,3,3,09,85,20,161,*55,1606991245483
NMEA,$GAGSV,1,1,0,*74,1606991245483
NMEA,$PQGSV,1,1,01,194,59,035,,0,5*6D,1606991245484
NMEA,$PQGSV,1,1,0,*73,1606991245486
NMEA,$GNGSA,A,3,03,04,08,16,22,27,,,,,,,1.9,1.6,0.9,1*3A,1606991245488
NMEA,$GNGSA,A,2,65,71,72,,,,,,,,,,1.9,1.6,0.9,2*35,1606991245488
NMEA,$GNVTG,,T,,M,0.0,N,0.0,K,A*3D,1606991245489
NMEA,$GNRMC,102726.00,A,2255.527154,N,12017.680542,E,0.0,,031220,2.8,W,A*17,1606991245489
NMEA,$GNGGA,102726.00,2255.527154,N,12017.680542,E,1,09,1.6,34.7,M,17.5,M,,*47,1606991245489
Fix,gps,22.925453,120.294677,52.126465,0.000000,4.288000,1606991247000
NMEA,$GPGSA,A,1,,,,,,,,,,,,,1.9,1.6,0.9,1*2B,1606991246478
NMEA,$GPVTG,,T,,M,0.0,N,0.0,K,A*23,1606991246479
NMEA,$GPRMC,102727.00,A,2255.527187,N,12017.680603,E,0.0,,031220,2.8,W,A*00,1606991246480
NMEA,$GPGGA,102727.00,2255.527187,N,12017.680603,E,1,00,1.6,34.7,M,17.5,M,,*59,1606991246480
NMEA,$GPGSV,3,1,12,03,14,257,23,04,35,313,26,08,18,203,26,09,01,322,24*71,1606991247476
Raw,20751549,20756544000000,,,-1291005709224833536,0.0,4220.251459628344,2.0218606933666954,13.467309646197682,1465,7,0.0,207,48447695943503,27,24.7,710.5818481445312,0.8240000009536743,0,0.0,0.0,,,,,0,,3,,
Raw,20751550,20756544000000,,,-1291005709224833536,0.0,4220.251459628344,2.0218606933666954,13.467309646197682,1465,8,0.0,207,48447700139544,13,31.9,204.76783752441406,0.25380000472068787,0,0.0,0.0,,,,,0,,3,,
Raw,20751550,20756544000000,,,-1291005709224833536,0.0,4220.251459628344,2.0218606933666954,13.467309646197682,1465,3,0.0,15,383265687721099,35,22.6,282.3482360839844,0.722000002861023,0,0.0,0.0,,,,,0,,1,,
Raw,20751551,20756544000000,,,-1291005709224833536,0.0,4220.251459628344,2.0218606933666954,13.467309646197682,1465,4,0.0,15,383265694610274,21,26.0,-465.8974914550781,0.11869999766349792,0,0.0,0.0,,,,,0,,1,,
Raw,20751551,20756544000000,,,-1291005709224833536,0.0,4220.251459628344,2.0218606933666954,13.467309646197682,1465,8,0.0,15,383265690371049,24,25.6,-697.6203002929688,0.19439999759197235,0,0.0,0.0,,,,,0,,1,,
Raw,20751552,20756544000000,,,-1291005709224833536,0.0,4220.251459628344,2.0218606933666954,13.467309646197682,1465,9,0.0,15,383265683679812,27,24.4,-648.1497802734375,0.6559999585151672,0,0.0,0.0,,,,,0,,1,,
Raw,20751552,20756544000000,,,-1291005709224833536,0.0,4220.251459628344,2.0218606933666954,13.467309646197682,1465,16,0.0,15,383265699854291,21,26.5,87.64293670654297,0.12620000541210175,0,0.0,0.0,,,,,0,,1,,
Raw,20751553,20756544000000,,,-1291005709224833536,0.0,4220.251459628344,2.0218606933666954,13.467309646197682,1465,22,0.0,15,383265686321742,13,31.8,294.77789306640625,0.03280000016093254,0,0.0,0.0,,,,,0,,1,,
Raw,20751553,20756544000000,,,-1291005709224833536,0.0,4220.251459628344,2.0218606933666954,13.467309646197682,1465,27,0.0,15,383265698957902,6,38.1,-477.2738952636719,0.038200002163648605,0,0.0,0.0,,,,,0,,1,,
NMEA,$GPGSV,3,2,12,16,58,316,27,22,11,236,32,27,52,185,38,18,07,081,*74,1606991247476
NMEA,$GPGSV,3,3,12,26,47,016,,29,00,000,,31,40,075,,32,14,153,*76,1606991247477
Fix,gps,22.925454,120.294678,52.260437,0.000000,5.360000,1606991248000
NMEA,$GLGSV,2,1,08,75,00,000,26,71,28,199,25,72,45,261,32,74,00,000,*61,1606991247477
NMEA,$GLGSV,2,2,08,73,18,053,,84,39,095,,83,12,036,,85,20,161,*68,1606991247477
NMEA,$GAGSV,1,1,0,*74,1606991247478
NMEA,$PQGSV,1,1,03,193,31,171,21,194,59,035,,195,54,123,,0,5*6E,1606991247478
NMEA,$PQGSV,1,1,0,*73,1606991247479
NMEA,$GNGSA,A,3,03,04,08,16,22,27,,,,,,,1.9,1.6,0.9,1*3A,1606991247481
NMEA,$GNGSA,A,2,71,72,,,,,,,,,,,1.9,1.6,0.9,2*36,1606991247481
NMEA,$GNVTG,,T,,M,0.0,N,0.0,K,A*3D,1606991247481
NMEA,$GNRMC,102728.00,A,2255.527215,N,12017.680702,E,0.0,,031220,2.8,W,A*19,1606991247481
Raw,20752545,20757557000000,,,-1291005709224792576,0.0,4252.971149981022,-0.1981119704877033,13.352673391728686,1466,7,0.0,207,48448708899799,24,25.9,709.2883911132812,0.391400009393692,0,0.0,0.0,,,,,0,,3,,
Raw,20752545,20757557000000,,,-1291005709224792576,0.0,4252.971149981022,-0.1981119704877033,13.352673391728686,1466,8,0.0,207,48448713097591,14,30.8,203.78369140625,0.24629999697208405,0,0.0,0.0,,,,,0,,3,,
Raw,20752546,20757557000000,,,-1291005709224792576,0.0,4252.971149981022,-0.1981119704877033,13.352673391728686,1466,4,0.0,15,383266707570637,24,25.4,-466.8689880371094,0.1898999959230423,0,0.0,0.0,,,,,0,,1,,
Raw,20752546,20757557000000,,,-1291005709224792576,0.0,4252.971149981022,-0.1981119704877033,13.352673391728686,1466,8,0.0,15,383266703332112,31,23.3,-698.6822509765625,0.715999960899353,0,0.0,0.0,,,,,0,,1,,
Raw,20752547,20757557000000,,,-1291005709224792576,0.0,4252.971149981022,-0.1981119704877033,13.352673391728686,1466,9,0.0,15,383266696640660,27,24.7,-648.1307373046875,0.6255000233650208,0,0.0,0.0,,,,,0,,1,,
Raw,20752547,20757557000000,,,-1291005709224792576,0.0,4252.971149981022,-0.1981119704877033,13.352673391728686,1466,16,0.0,15,383266712812783,21,26.5,86.59081268310547,0.11569999903440475,0,0.0,0.0,,,,,0,,1,,
Raw,20752548,20757557000000,,,-1291005709224792576,0.0,4252.971149981022,-0.1981119704877033,13.352673391728686,1466,22,0.0,15,383266699279480,13,31.0,293.58123779296875,0.05230000242590904,0,0.0,0.0,,,,,0,,1,,
Raw,20752548,20757557000000,,,-1291005709224792576,0.0,4252.971149981022,-0.1981119704877033,13.352673391728686,1466,27,0.0,15,383266711918251,6,38.3,-478.30487060546875,0.027700001373887062,0,0.0,0.0,,,,,0,,1,,
NMEA,$GNGGA,102728.00,2255.527215,N,12017.680702,E,1,08,1.6,34.8,M,17.5,M,,*47,1606991247481
Fix,gps,22.925454,120.294680,52.225098,0.000000,5.360000,1606991249000
NMEA,$GPGSV,3,1,11,04,35,313,25,08,18,203,23,09,01,322,25,16,58,316,27*79,1606991248477
NMEA,$GPGSV,3,2,11,22,11,236,31,27,52,185,38,18,07,081,,26,47,016,*7F,1606991248477
NMEA,$GPGSV,3,3,11,29,00,000,,31,40,075,,32,14,153,*45,1606991248477
NMEA,$GLGSV,3,1,09,75,00,000,26,71,28,199,26,72,45,261,31,74,00,000,*61,1606991248479
NMEA,$GLGSV,3,2,09,73,18,053,,65,23,310,,84,39,095,,83,12,036,*61,1606991248479
NMEA,$GLGSV,3,3,09,85,20,161,*55,1606991248480
NMEA,$GAGSV,1,1,0,*74,1606991248480
NMEA,$PQGSV,1,1,03,193,31,171,23,195,54,123,21,194,59,035,,0,5*6F,1606991248480
NMEA,$PQGSV,1,1,0,*73,1606991248480
NMEA,$GNGSA,A,3,04,08,16,22,27,,,,,,,,1.9,1.6,0.9,1*39,1606991248481
NMEA,$GNGSA,A,2,65,71,72,,,,,,,,,,1.9,1.6,0.9,2*35,1606991248481
NMEA,$GNVTG,,T,,M,0.0,N,0.0,K,A*3D,1606991248481
NMEA,$GNRMC,102729.00,A,2255.527229,N,12017.680774,E,0.0,,031220,2.8,W,A*16,1606991248482
NMEA,$GNGGA,102729.00,2255.527229,N,12017.680774,E,1,08,1.6,34.8,M,17.5,M,,*48,1606991248482
NMEA,$GPGSV,3,1,12,04,35,313,25,08,18,203,24,09,01,322,21,16,58,316,26*78,1606991249477
Raw,20753550,20758554000000,,,-1291005709224386560,0.0,4257.204942405224,-4.201789803365666,13.604169170787817,1467,7,0.0,207,48449705491846,17,28.1,709.7598266601562,0.2483000010251999,0,0.0,0.0,,,,,0,,3,,
Raw,20753551,20758554000000,,,-1291005709224386560,0.0,4257.204942405224,-4.201789803365666,13.604169170787817,1467,8,0.0,207,48449709691485,13,31.4,204.3797149658203,0.23730000853538513,0,0.0,0.0,,,,,0,,3,,
Raw,20753551,20758554000000,,,-1291005709224386560,0.0,4257.204942405224,-4.201789803365666,13.604169170787817,1467,4,0.0,15,383267704166792,27,24.7,-466.4097900390625,0.6075000166893005,0,0.0,0.0,,,,,0,,1,,
Raw,20753551,20758554000000,,,-1291005709224386560,0.0,4257.204942405224,-4.201789803365666,13.604169170787817,1467,8,0.0,15,383267699928940,27,24.1,-698.4539184570312,0.6800000071525574,0,0.0,0.0,,,,,0,,1,,
Raw,20753552,20758554000000,,,-1291005709224386560,0.0,4257.204942405224,-4.201789803365666,13.604169170787817,1467,9,0.0,15,383267693237384,40,21.4,-648.1782836914062,0.8510000109672546,0,0.0,0.0,,,,,0,,1,,
Raw,20753552,20758554000000,,,-1291005709224386560,0.0,4257.204942405224,-4.201789803365666,13.604169170787817,1467,16,0.0,15,383267709406945,24,25.7,87.06446075439453,0.19290000200271606,0,0.0,0.0,,,,,0,,1,,
Raw,20753553,20758554000000,,,-1291005709224386560,0.0,4257.204942405224,-4.201789803365666,13.604169170787817,1467,22,0.0,15,383267695873018,13,31.0,294.002197265625,0.046300001442432404,0,0.0,0.0,,,,,0,,1,,
Raw,20753553,20758554000000,,,-1291005709224386560,0.0,4257.204942405224,-4.201789803365666,13.604169170787817,1467,27,0.0,15,383267708514329,7,37.6,-477.78759765625,0.02460000105202198,0,0.0,0.0,,,,,0,,1,,
Fix,gps,22.925454,120.294680,52.282776,0.000000,6.432000,1606991250000
NMEA,$GPGSV,3,2,12,22,11,236,31,27,52,185,38,03,14,257,,18,07,081,*7A,1606991249477
NMEA,$GPGSV,3,3,12,26,47,016,,29,00,000,,31,40,075,,32,14,153,*76,1606991249477
NMEA,$GLGSV,3,1,09,75,00,000,26,71,28,199,28,72,45,261,31,74,00,000,*6F,1606991249478
NMEA,$GLGSV,3,2,09,73,18,053,,65,23,310,,84,39,095,,83,12,036,*61,1606991249478
NMEA,$GLGSV,3,3,09,85,20,161,*55,1606991249478
NMEA,$GAGSV,1,1,0,*74,1606991249479
NMEA,$PQGSV,1,1,02,193,31,171,22,194,59,035,,0,5*60,1606991249479
NMEA,$PQGSV,1,1,0,*73,1606991249480
NMEA,$GNGSA,A,3,03,04,08,16,22,27,,,,,,,1.9,1.6,0.9,1*3A,1606991249481
NMEA,$GNGSA,A,2,65,71,72,,,,,,,,,,1.9,1.6,0.9,2*35,1606991249482
NMEA,$GNVTG,,T,,M,0.0,N,0.0,K,A*3D,1606991249482
NMEA,$GNRMC,102730.00,A,2255.527235,N,12017.680790,E,0.0,,031220,2.8,W,A*19,1606991249482
NMEA,$GNGGA,102730.00,2255.527235,N,12017.680790,E,1,09,1.6,34.8,M,17.5,M,,*46,1606991249482
NMEA,$GPGSV,3,1,12,04,35,313,26,08,18,203,24,09,01,322,29,16,58,316,28*7D,1606991250483
Raw,20754589,20759543000000,,,-1291005709223673856,0.0,4269.586876034737,-2.1062065686288354,13.889012579489073,1468,7,0.0,207,48450693776742,27,24.5,712.5526733398438,0.8210000395774841,0,0.0,0.0,,,,,0,,3,,
Raw,20754589,20759543000000,,,-1291005709223673856,0.0,4269.586876034737,-2.1062065686288354,13.889012579489073,1468,8,0.0,207,48450697977824,13,31.4,207.66758728027344,0.2493000030517578,0,0.0,0.0,,,,,0,,3,,
Raw,20754590,20759543000000,,,-1291005709223673856,0.0,4269.586876034737,-2.1062065686288354,13.889012579489073,1468,4,0.0,15,383268692455281,24,25.5,-463.38177490234375,0.19740000367164612,0,0.0,0.0,,,,,0,,1,,
Raw,20754590,20759543000000,,,-1291005709223673856,0.0,4269.586876034737,-2.1062065686288354,13.889012579489073,1468,8,0.0,15,383268688218348,31,23.6,-695.4852905273438,0.6634999513626099,0,0.0,0.0,,,,,0,,1,,
Raw,20754590,20759543000000,,,-1291005709223673856,0.0,4269.586876034737,-2.1062065686288354,13.889012579489073,1468,9,0.0,15,383268681526512,17,28.9,-645.5023803710938,0.0723000019788742,0,0.0,0.0,,,,,0,,1,,
Raw,20754591,20759543000000,,,-1291005709223673856,0.0,4269.586876034737,-2.1062065686288354,13.889012579489073,1468,16,0.0,15,383268697693736,17,28.0,90.68022155761719,0.06629999727010727,0,0.0,0.0,,,,,0,,1,,
Raw,20754592,20759543000000,,,-1291005709223673856,0.0,4269.586876034737,-2.1062065686288354,13.889012579489073,1468,22,0.0,15,383268684159127,13,31.3,297.3675231933594,0.02979999966919422,0,0.0,0.0,,,,,0,,1,,
Raw,20754592,20759543000000,,,-1291005709223673856,0.0,4269.586876034737,-2.1062065686288354,13.889012579489073,1468,27,0.0,15,383268696802987,7,37.6,-474.2256164550781,0.03660000115633011,0,0.0,0.0,,,,,0,,1,,
Fix,gps,22.925454,120.294680,52.294922,0.000000,6.432000,1606991251000
NMEA,$GPGSV,3,2,12,22,11,236,31,27,52,185,38,03,14,257,,18,07,081,*7A,1606991250484
NMEA,$GPGSV,3,3,12,26,47,016,,29,00,000,,31,40,075,,32,14,153,*76,1606991250485
NMEA,$GLGSV,3,1,09,75,00,000,26,71,28,199,25,72,45,261,31,74,00,000,*62,1606991250487
NMEA,$GLGSV,3,2,09,73,18,053,,65,23,310,,84,39,095,,83,12,036,*61,1606991250492
NMEA,$GLGSV,3,3,09,85,20,161,*55,1606991250495
NMEA,$GAGSV,1,1,0,*74,1606991250496
NMEA,$PQGSV,1,1,03,193,31,171,23,194,59,035,,195,54,123,,0,5*6C,1606991250497
NMEA,$PQGSV,1,1,0,*73,1606991250499
NMEA,$GNGSA,A,3,03,04,08,16,22,27,,,,,,,1.9,1.6,0.9,1*3A,1606991250501
NMEA,$GNGSA,A,2,65,71,72,,,,,,,,,,1.9,1.6,0.9,2*35,1606991250502
NMEA,$GNVTG,,T,,M,0.0,N,0.0,K,A*3D,1606991250503
NMEA,$GNRMC,102731.00,A,2255.527236,N,12017.680796,E,0.0,,031220,2.8,W,A*1D,1606991250504
NMEA,$GNGGA,102731.00,2255.527236,N,12017.680796,E,1,09,1.6,34.8,M,17.5,M,,*42,1606991250505
Fix,gps,22.925454,120.294680,52.294495,0.000000,6.432000,1606991252000
Raw,20755581,20760554000000,,,-1291005709223632896,0.0,4272.851161658764,9.488104454901853,15.379571778502994,1469,7,0.0,207,48451704733291,21,26.1,711.5197143554688,0.3037000000476837,0,0.0,0.0,,,,,0,,3,,
Raw,20755584,20760554000000,,,-1291005709223632896,0.0,4272.851161658764,9.488104454901853,15.379571778502994,1469,8,0.0,207,48451708936186,13,31.3,206.02789306640625,0.23580001294612885,0,0.0,0.0,,,,,0,,3,,
Raw,20755586,20760554000000,,,-1291005709223632896,0.0,4272.851161658764,9.488104454901853,15.379571778502994,1469,4,0.0,15,383269703415931,24,25.3,-464.85076904296875,0.18389999866485596,0,0.0,0.0,,,,,0,,1,,
Raw,20755588,20760554000000,,,-1291005709223632896,0.0,4272.851161658764,9.488104454901853,15.379571778502994,1469,8,0.0,15,383269699179769,24,25.9,-696.7316284179688,0.2079000025987625,0,0.0,0.0,,,,,0,,1,,
Raw,20755591,20760554000000,,,-1291005709223632896,0.0,4272.851161658764,9.488104454901853,15.379571778502994,1469,9,0.0,15,383269692487737,19,27.6,-646.82080078125,0.08160000294446945,0,0.0,0.0,,,,,0,,1,,
Raw,20755593,20760554000000,,,-1291005709223632896,0.0,4272.851161658764,9.488104454901853,15.379571778502994,1469,16,0.0,15,383269708652471,19,27.3,88.57158660888672,0.07559999823570251,0,0.0,0.0,,,,,0,,1,,
Raw,20755596,20760554000000,,,-1291005709223632896,0.0,4272.851161658764,9.488104454901853,15.379571778502994,1469,22,0.0,15,383269695117183,12,32.9,295.4676513671875,0.04390000179409981,0,0.0,0.0,,,,,0,,1,,
Raw,20755598,20760554000000,,,-1291005709223632896,0.0,4272.851161658764,9.488104454901853,15.379571778502994,1469,26,0.0,15,383269705931986,40,21.8,324.0225524902344,0.7789999842643738,0,0.0,0.0,,,,,0,,1,,
Raw,20755601,20760554000000,,,-1291005709223632896,0.0,4272.851161658764,9.488104454901853,15.379571778502994,1469,27,0.0,15,383269707763659,6,38.7,-476.18206787109375,0.021700000390410423,0,0.0,0.0,,,,,0,,1,,
NMEA,$GPGSV,3,1,12,04,35,313,25,08,18,203,26,09,01,322,28,16,58,316,27*72,1606991251483
NMEA,$GPGSV,3,2,12,22,11,236,33,26,47,016,22,27,52,185,39,03,14,257,*7E,1606991251484
NMEA,$GPGSV,3,3,12,18,07,081,,29,00,000,,31,40,075,,32,14,153,*71,1606991251484
NMEA,$GLGSV,3,1,09,75,00,000,26,71,28,199,26,72,45,261,31,74,00,000,*61,1606991251485
NMEA,$GLGSV,3,2,09,73,18,053,,65,23,310,,84,39,095,,83,12,036,*61,1606991251487
NMEA,$GLGSV,3,3,09,85,20,161,*55,1606991251487
NMEA,$GAGSV,1,1,0,*74,1606991251489
NMEA,$PQGSV,1,1,03,193,31,171,25,194,59,035,,195,54,123,,0,5*6A,1606991251490
NMEA,$PQGSV,1,1,0,*73,1606991251491
NMEA,$GNGSA,A,3,03,04,08,16,22,27,,,,,,,1.5,1.2,0.9,1*32,1606991251493
NMEA,$GNGSA,A,2,65,71,72,,,,,,,,,,1.5,1.2,0.9,2*3D,1606991251494
NMEA,$GNVTG,,T,,M,0.0,N,0.0,K,A*3D,1606991251495
NMEA,$GNRMC,102732.00,A,2255.527235,N,12017.680799,E,0.0,,031220,2.8,W,A*12,1606991251496
NMEA,$GNGGA,102732.00,2255.527235,N,12017.680799,E,1,09,1.2,34.8,M,17.5,M,,*49,1606991251497
Fix,gps,22.925454,120.294680,52.286682,0.000000,6.432000,1606991253000
Raw,20756649,20761546000000,,,-1291005709222843904,0.0,4272.654186934233,2.550236555921655,13.46188584494424,1470,7,0.0,207,48452695941853,21,26.5,710.7767944335938,0.32019999623298645,0,0.0,0.0,,,,,0,,3,,
Raw,20756652,20761546000000,,,-1291005709222843904,0.0,4272.654186934233,2.550236555921655,13.46188584494424,1470,8,0.0,207,48452700146309,13,31.0,205.62425231933594,0.25380000472068787,0,0.0,0.0,,,,,0,,3,,
Raw,20756655,20761546000000,,,-1291005709222843904,0.0,4272.654186934233,2.550236555921655,13.46188584494424,1470,4,0.0,15,383270694628340,24,25.6,-465.2767639160156,0.20040000975131989,0,0.0,0.0,,,,,0,,1,,
Raw,20756658,20761546000000,,,-1291005709222843904,0.0,4272.654186934233,2.550236555921655,13.46188584494424,1470,8,0.0,15,383270690392939,27,24.3,-697.473876953125,0.6664999723434448,0,0.0,0.0,,,,,0,,1,,
Raw,20756661,20761546000000,,,-1291005709222843904,0.0,4272.654186934233,2.550236555921655,13.46188584494424,1470,9,0.0,15,383270683700765,14,30.3,-647.3812866210938,0.031300000846385956,0,0.0,0.0,,,,,0,,1,,
Raw,20756665,20761546000000,,,-1291005709222843904,0.0,4272.654186934233,2.550236555921655,13.46188584494424,1470,16,0.0,15,383270699862996,19,27.0,88.09139251708984,0.09210000187158585,0,0.0,0.0,,,,,0,,1,,
Raw,20756670,20761546000000,,,-1291005709222843904,0.0,4272.654186934233,2.550236555921655,13.46188584494424,1470,22,0.0,15,383270686327078,11,33.8,294.99725341796875,0.02800000086426735,0,0.0,0.0,,,,,0,,1,,
Raw,20756673,20761546000000,,,-1291005709222843904,0.0,4272.654186934233,2.550236555921655,13.46188584494424,1470,27,0.0,15,383270698976079,6,38.2,-476.6255187988281,0.038200002163648605,0,0.0,0.0,,,,,0,,1,,
NMEA,$GPGSV,3,1,10,04,35,313,26,08,18,203,24,09,01,322,30,16,58,316,27*78,1606991252484
NMEA,$GPGSV,3,2,10,22,11,236,34,27,52,185,38,18,07,081,,29,00,000,*70,1606991252486
NMEA,$GPGSV,3,3,10,31,40,075,,32,14,153,*7F,1606991252488
NMEA,$GLGSV,3,1,09,75,00,000,26,71,28,199,27,72,45,261,31,74,00,000,*60,1606991252488
NMEA,$GLGSV,3,2,09,73,18,053,,65,23,310,,84,39,095,,83,12,036,*61,1606991252489
NMEA,$GLGSV,3,3,09,85,20,161,*55,1606991252492
NMEA,$GAGSV,1,1,0,*74,1606991252493
NMEA,$PQGSV,1,1,03,193,31,171,24,194,59,035,,195,54,123,,0,5*6B,1606991252494
NMEA,$PQGSV,1,1,0,*73,1606991252495
NMEA,$GNGSA,A,3,04,08,16,22,27,,,,,,,,1.5,1.2,0.9,1*31,1606991252497
NMEA,$GNGSA,A,2,65,71,72,,,,,,,,,,1.5,1.2,0.9,2*3D,1606991252498
NMEA,$GNVTG,,T,,M,0.0,N,0.0,K,A*3D,1606991252499
NMEA,$GNRMC,102733.00,A,2255.527234,N,12017.680802,E,0.0,,031220,2.8,W,A*1F,1606991252501
NMEA,$GNGGA,102733.00,2255.527234,N,12017.680802,E,1,08,1.2,34.8,M,17.5,M,,*45,1606991252502
Raw,20758008,20762559000000,,,-1291005709222756864,0.0,4293.680191040039,0.19187472330855454,13.588478320534092,1471,7,0.0,207,48453708852477,27,24.8,713.3092651367188,0.8134999871253967,0,0.0,0.0,,,,,0,,3,,
Raw,20758010,20762559000000,,,-1291005709222756864,0.0,4293.680191040039,0.19187472330855454,13.588478320534092,1471,8,0.0,207,48453713058606,13,31.5,208.51638793945312,0.24330000579357147,0,0.0,0.0,,,,,0,,3,,
Raw,20758013,20762559000000,,,-1291005709222756864,0.0,4293.680191040039,0.19187472330855454,13.588478320534092,1471,4,0.0,15,383271707542855,24,25.0,-461.830810546875,0.1898999959230423,0,0.0,0.0,,,,,0,,1,,
Raw,20758015,20762559000000,,,-1291005709222756864,0.0,4293.680191040039,0.19187472330855454,13.588478320534092,1471,8,0.0,15,383271703308247,31,23.9,-694.8097534179688,0.6559999585151672,0,0.0,0.0,,,,,0,,1,,
Raw,20758018,20762559000000,,,-1291005709222756864,0.0,4293.680191040039,0.19187472330855454,13.588478320534092,1471,9,0.0,15,383271696615903,19,27.1,-645.2562866210938,0.08760000020265579,0,0.0,0.0,,,,,0,,1,,
Raw,20758021,20762559000000,,,-1291005709222756864,0.0,4293.680191040039,0.19187472330855454,13.588478320534092,1471,16,0.0,15,383271712775665,19,27.7,90.89801788330078,0.08160000294446945,0,0.0,0.0,,,,,0,,1,,
Raw,20758023,20762559000000,,,-1291005709222756864,0.0,4293.680191040039,0.19187472330855454,13.588478320534092,1471,22,0.0,15,383271699239034,12,32.8,297.57171630859375,0.04990000277757645,0,0.0,0.0,,,,,0,,1,,
Raw,20758026,20762559000000,,,-1291005709222756864,0.0,4293.680191040039,0.19187472330855454,13.588478320534092,1471,27,0.0,15,383271711890664,7,37.1,-474.0519714355469,0.029100000858306885,0,0.0,0.0,,,,,0,,1,,
Fix,gps,22.925454,120.294680,52.287537,0.000000,7.504000,1606991254000
NMEA,$GPGSV,3,1,12,04,35,313,25,08,18,203,24,09,01,322,27,16,58,316,28*70,1606991253479
NMEA,$GPGSV,3,2,12,22,11,236,33,27,52,185,37,03,14,257,,18,07,081,*77,1606991253480
NMEA,$GPGSV,3,3,12,26,47,016,,29,00,000,,31,40,075,,32,14,153,*76,1606991253481
NMEA,$GLGSV,3,1,09,75,00,000,26,71,28,199,25,72,45,261,32,74,00,000,*61,1606991253481
NMEA,$GLGSV,3,2,09,73,18,053,,65,23,310,,84,39,095,,83,12,036,*61,1606991253483
NMEA,$GLGSV,3,3,09,85,20,161,*55,1606991253483
NMEA,$GAGSV,1,1,0,*74,1606991253483
NMEA,$PQGSV,1,1,03,193,31,171,23,194,59,035,,195,54,123,,0,5*6C,1606991253483
NMEA,$PQGSV,1,1,0,*73,1606991253484
NMEA,$GNGSA,A,3,03,04,08,16,22,26,27,,,,,,1.7,1.4,0.9,1*32,1606991253485
NMEA,$GNGSA,A,2,71,72,,,,,,,,,,,1.7,1.4,0.9,2*3A,1606991253485
NMEA,$GNVTG,,T,,M,0.0,N,0.0,K,A*3D,1606991253486
NMEA,$GNRMC,102734.00,A,2255.527233,N,12017.680804,E,0.0,,031220,2.8,W,A*19,1606991253486
NMEA,$GNGGA,102734.00,2255.527233,N,12017.680804,E,1,09,1.4,34.8,M,17.5,M,,*44,1606991253486
Raw,20758562,20763556000000,,,-1291005709222543104,0.0,4304.5287020504475,9.100001254624631,15.396172427676651,1472,7,0.0,207,48454705636199,19,27.6,711.4368896484375,0.2711000144481659,0,0.0,0.0,,,,,0,,3,,
Raw,20758563,20763556000000,,,-1291005709222543104,0.0,4304.5287020504475,9.100001254624631,15.396172427676651,1472,8,0.0,207,48454709844119,14,30.9,206.5921173095703,0.2402999997138977,0,0.0,0.0,,,,,0,,3,,
Raw,20758563,20763556000000,,,-1291005709222543104,0.0,4304.5287020504475,9.100001254624631,15.396172427676651,1472,4,0.0,15,383272704330642,27,24.0,-464.3546142578125,0.6574999690055847,0,0.0,0.0,,,,,0,,1,,
Raw,20758564,20763556000000,,,-1291005709222543104,0.0,4304.5287020504475,9.100001254624631,15.396172427676651,1472,8,0.0,15,383272700096744,35,22.4,-695.789794921875,0.8014999628067017,0,0.0,0.0,,,,,0,,1,,
Raw,20758564,20763556000000,,,-1291005709222543104,0.0,4304.5287020504475,9.100001254624631,15.396172427676651,1472,9,0.0,15,383272693404328,19,27.6,-646.6937866210938,0.08309999853372574,0,0.0,0.0,,,,,0,,1,,
Raw,20758565,20763556000000,,,-1291005709222543104,0.0,4304.5287020504475,9.100001254624631,15.396172427676651,1472,16,0.0,15,383272709561598,21,26.4,88.90229034423828,0.1111999973654747,0,0.0,0.0,,,,,0,,1,,
Raw,20758565,20763556000000,,,-1291005709222543104,0.0,4304.5287020504475,9.100001254624631,15.396172427676651,1472,22,0.0,15,383272696024307,11,33.1,295.5803527832031,0.0430000014603138,0,0.0,0.0,,,,,0,,1,,
Raw,20758566,20763556000000,,,-1291005709222543104,0.0,4304.5287020504475,9.100001254624631,15.396172427676651,1472,27,0.0,15,383272708678482,8,36.6,-475.75628662109375,0.026000000536441803,0,0.0,0.0,,,,,0,,1,,
Fix,gps,22.925454,120.294680,52.282593,0.000000,7.504000,1606991255000
NMEA,$GPGSV,3,1,12,04,35,313,24,08,18,203,22,09,01,322,28,16,58,316,26*76,1606991254484
NMEA,$GPGSV,3,2,12,22,11,236,33,27,52,185,37,03,14,257,,18,07,081,*77,1606991254484
NMEA,$GPGSV,3,3,12,26,47,016,,29,00,000,,31,40,075,,32,14,153,*76,1606991254493
NMEA,$GLGSV,3,1,09,75,00,000,26,71,28,199,28,72,45,261,31,74,00,000,*6F,1606991254496
NMEA,$GLGSV,3,2,09,73,18,053,,65,23,310,,84,39,095,,83,12,036,*61,1606991254498
NMEA,$GLGSV,3,3,09,85,20,161,*55,1606991254501
NMEA,$GAGSV,1,1,0,*74,1606991254502
NMEA,$PQGSV,1,1,03,193,31,171,25,194,59,035,,195,54,123,,0,5*6A,1606991254502
NMEA,$PQGSV,1,1,0,*73,1606991254503
NMEA,$GNGSA,A,3,04,08,16,22,26,27,,,,,,,1.7,1.4,0.9,1*31,1606991254506
NMEA,$GNGSA,A,2,71,72,,,,,,,,,,,1.7,1.4,0.9,2*3A,1606991254508
NMEA,$GNVTG,,T,,M,0.0,N,0.0,K,A*3D,1606991254509
NMEA,$GNRMC,102735.00,A,2255.527231,N,12017.680805,E,0.0,,031220,2.8,W,A*1B,1606991254510
NMEA,$GNGGA,102735.00,2255.527231,N,12017.680805,E,1,08,1.4,34.8,M,17.5,M,,*47,1606991254510
Raw,20759593,20764544000000,,,-1291005709221813504,0.0,4314.963705837727,2.275180245479265,13.597088008564848,1473,1,0.0,207,48455691763029,35,22.6,-320.0311584472656,0.9279999732971191,0,0.0,0.0,,,,,0,,3,,
Raw,20759594,20764544000000,,,-1291005709221813504,0.0,4314.963705837727,2.275180245479265,13.597088008564848,1473,7,0.0,207,48455692904220,21,26.0,711.5057983398438,0.3156999945640564,0,0.0,0.0,,,,,0,,3,,
Raw,20759594,20764544000000,,,-1291005709221813504,0.0,4314.963705837727,2.275180245479265,13.597088008564848,1473,8,0.0,207,48455697113840,14,30.9,206.65234375,0.2522999942302704,0,0.0,0.0,,,,,0,,3,,
Raw,20759595,20764544000000,,,-1291005709221813504,0.0,4314.963705837727,2.275180245479265,13.597088008564848,1473,4,0.0,15,383273691602461,27,24.4,-464.5259094238281,0.6679999828338623,0,0.0,0.0,,,,,0,,1,,
Raw,20759595,20764544000000,,,-1291005709221813504,0.0,4314.963705837727,2.275180245479265,13.597088008564848,1473,8,0.0,15,383273687369329,27,24.2,-695.39013671875,0.6620000004768372,0,0.0,0.0,,,,,0,,1,,
Raw,20759596,20764544000000,,,-1291005709221813504,0.0,4314.963705837727,2.275180245479265,13.597088008564848,1473,9,0.0,15,383273680676826,17,28.0,-646.7763671875,0.07079999893903732,0,0.0,0.0,,,,,0,,1,,
Raw,20759596,20764544000000,,,-1291005709221813504,0.0,4314.963705837727,2.275180245479265,13.597088008564848,1473,16,0.0,15,383273696831726,21,26.0,88.92232513427734,0.1216999962925911,0,0.0,0.0,,,,,0,,1,,
Raw,20759597,20764544000000,,,-1291005709221813504,0.0,4314.963705837727,2.275180245479265,13.597088008564848,1473,22,0.0,15,383273683293695,12,32.9,295.51544189453125,0.02590000070631504,0,0.0,0.0,,,,,0,,1,,
Raw,20759597,20764544000000,,,-1291005709221813504,0.0,4314.963705837727,2.275180245479265,13.597088008564848,1473,27,0.0,15,383273695950406,7,37.7,-475.7088623046875,0.035100001841783524,0,0.0,0.0,,,,,0,,1,,
Fix,gps,22.925454,120.294680,52.281311,0.000000,7.504000,1606991256000
NMEA,$GPGSV,3,1,12,04,35,313,24,08,18,203,24,09,01,322,28,16,58,316,26*70,1606991255483
NMEA,$GPGSV,3,2,12,22,11,236,33,27,52,185,38,03,14,257,,18,07,081,*78,1606991255485
NMEA,$GPGSV,3,3,12,26,47,016,,29,00,000,,31,40,075,,32,14,153,*76,1606991255486
NMEA,$GLGSV,3,1,09,75,00,000,26,65,23,310,23,71,28,199,26,72,45,261,31*63,1606991255488
NMEA,$GLGSV,3,2,09,74,00,000,,73,18,053,,84,39,095,,83,12,036,*62,1606991255488
NMEA,$GLGSV,3,3,09,85,20,161,*55,1606991255492
NMEA,$GAGSV,1,1,0,*74,1606991255493
NMEA,$PQGSV,1,1,03,193,31,171,24,194,59,035,,195,54,123,,0,5*6B,1606991255493
NMEA,$PQGSV,1,1,0,*73,1606991255494
NMEA,$GNGSA,A,3,04,08,16,22,26,27,,,,,,,1.6,1.3,0.9,1*37,1606991255498
NMEA,$GNGSA,A,2,71,72,,,,,,,,,,,1.6,1.3,0.9,2*3C,1606991255498
NMEA,$GNVTG,,T,,M,0.0,N,0.0,K,A*3D,1606991255499
NMEA,$GNRMC,102736.00,A,2255.527230,N,12017.680805,E,0.0,,031220,2.8,W,A*19,1606991255500
NMEA,$GNGGA,102736.00,2255.527230,N,12017.680805,E,1,08,1.3,34.8,M,17.5,M,,*42,1606991255500
Raw,20760585,20765557000000,,,-1291005709220830720,0.0,4315.052181482315,2.0228563823944534,13.7046590063864,1474,1,0.0,207,48456703781598,46,20.3,-320.3959655761719,1.0360000133514404,0,0.0,0.0,,,,,0,,3,,
Raw,20760585,20765557000000,,,-1291005709220830720,0.0,4315.052181482315,2.0228563823944534,13.7046590063864,1474,7,0.0,207,48456704919260,27,24.4,712.020263671875,0.8075000047683716,0,0.0,0.0,,,,,0,,3,,
Raw,20760585,20765557000000,,,-1291005709220830720,0.0,4315.052181482315,2.0228563823944534,13.7046590063864,1474,8,0.0,207,48456709130632,14,30.9,206.93429565429688,0.2402999997138977,0,0.0,0.0,,,,,0,,3,,
Raw,20760585,20765557000000,,,-1291005709220830720,0.0,4315.052181482315,2.0228563823944534,13.7046590063864,1474,4,0.0,15,383274703621515,27,24.1,-463.7171325683594,0.6559999585151672,0,0.0,0.0,,,,,0,,1,,
Raw,20760586,20765557000000,,,-1291005709220830720,0.0,4315.052181482315,2.0228563823944534,13.7046590063864,1474,8,0.0,15,383274699389263,31,23.0,-695.9895629882812,0.7400000095367432,0,0.0,0.0,,,,,0,,1,,
Raw,20760586,20765557000000,,,-1291005709220830720,0.0,4315.052181482315,2.0228563823944534,13.7046590063864,1474,9,0.0,15,383274692696469,19,27.7,-646.66259765625,0.08160000294446945,0,0.0,0.0,,,,,0,,1,,
Raw,20760586,20765557000000,,,-1291005709220830720,0.0,4315.052181482315,2.0228563823944534,13.7046590063864,1474,16,0.0,15,383274708848912,21,26.8,89.05503845214844,0.10969999432563782,0,0.0,0.0,,,,,0,,1,,
Raw,20760586,20765557000000,,,-1291005709220830720,0.0,4315.052181482315,2.0228563823944534,13.7046590063864,1474,22,0.0,15,383274695310195,12,32.8,295.618408203125,0.04390000179409981,0,0.0,0.0,,,,,0,,1,,
Raw,20760586,20765557000000,,,-1291005709220830720,0.0,4315.052181482315,2.0228563823944534,13.7046590063864,1474,27,0.0,15,383274707969505,7,37.9,-475.52691650390625,0.023099999874830246,0,0.0,0.0,,,,,0,,1,,
Fix,gps,22.925454,120.294680,52.280518,0.000000,7.504000,1606991257000
NMEA,$GPGSV,3,1,12,04,35,313,24,08,18,203,23,09,01,322,28,16,58,316,27*76,1606991256485
NMEA,$GPGSV,3,2,12,22,11,236,33,27,52,185,38,03,14,257,,18,07,081,*78,1606991256486
NMEA,$GPGSV,3,3,12,26,47,016,,29,00,000,,31,40,075,,32,14,153,*76,1606991256486
NMEA,$GLGSV,3,1,09,75,00,000,26,65,23,310,20,71,28,199,24,72,45,261,31*62,1606991256487
NMEA,$GLGSV,3,2,09,74,00,000,,73,18,053,,84,39,095,,83,12,036,*62,1606991256488
NMEA,$GLGSV,3,3,09,85,20,161,*55,1606991256489
NMEA,$GAGSV,1,1,0,*74,1606991256492
NMEA,$PQGSV,1,1,03,193,31,171,22,194,59,035,,195,54,123,,0,5*6D,1606991256494
NMEA,$PQGSV,1,1,0,*73,1606991256500
NMEA,$GNGSA,A,3,04,08,16,22,26,27,,,,,,,1.6,1.3,0.9,1*37,1606991256506
NMEA,$GNGSA,A,2,65,71,72,,,,,,,,,,1.6,1.3,0.9,2*3F,1606991256508
NMEA,$GNVTG,,T,,M,0.0,N,0.0,K,A*3D,1606991256508
NMEA,$GNRMC,102737.00,A,2255.527230,N,12017.680805,E,0.0,,031220,2.8,W,A*18,1606991256508
NMEA,$GNGGA,102737.00,2255.527230,N,12017.680805,E,1,09,1.3,34.8,M,17.5,M,,*42,1606991256508
Raw,20761574,20766548000000,,,-1291005709220825088,0.0,4305.171780288219,2.313488824127105,13.643632494218647,1475,7,0.0,207,48457695911240,24,25.0,712.8170776367188,0.4018999934196472,0,0.0,0.0,,,,,0,,3,,
Raw,20761574,20766548000000,,,-1291005709220825088,0.0,4305.171780288219,2.313488824127105,13.643632494218647,1475,8,0.0,207,48457700124217,14,30.3,208.19631958007812,0.25679999589920044,0,0.0,0.0,,,,,0,,3,,
Raw,20761575,20766548000000,,,-1291005709220825088,0.0,4305.171780288219,2.313488824127105,13.643632494218647,1475,4,0.0,15,383275694617417,24,25.3,-463.0848388671875,0.20040000975131989,0,0.0,0.0,,,,,0,,1,,
Raw,20761575,20766548000000,,,-1291005709220825088,0.0,4305.171780288219,2.313488824127105,13.643632494218647,1475,8,0.0,15,383275690385760,31,23.6,-694.76220703125,0.6664999723434448,0,0.0,0.0,,,,,0,,1,,
Raw,20761576,20766548000000,,,-1291005709220825088,0.0,4305.171780288219,2.313488824127105,13.643632494218647,1475,9,0.0,15,383275683692904,14,30.9,-645.5349731445312,0.031300000846385956,0,0.0,0.0,,,,,0,,1,,
Raw,20761576,20766548000000,,,-1291005709220825088,0.0,4305.171780288219,2.313488824127105,13.643632494218647,1475,16,0.0,15,383275699842942,27,24.7,89.72346496582031,0.6300000548362732,0,0.0,0.0,,,,,0,,1,,
Raw,20761577,20766548000000,,,-1291005709220825088,0.0,4305.171780288219,2.313488824127105,13.643632494218647,1475,22,0.0,15,383275686303490,12,32.4,296.72491455078125,0.030400000512599945,0,0.0,0.0,,,,,0,,1,,
Raw,20761577,20766548000000,,,-1291005709220825088,0.0,4305.171780288219,2.313488824127105,13.643632494218647,1475,27,0.0,15,383275698965362,7,37.3,-474.33837890625,0.03959999978542328,0,0.0,0.0,,,,,0,,1,,
Raw,20761578,20766548000000,,,-1291005709220825088,0.0,4305.171780288219,2.313488824127105,13.643632494218647,1475,31,0.0,15,383275694834704,40,21.3,204.77500915527344,0.8524999618530273,0,0.0,0.0,,,,,0,,1,,
Fix,gps,22.925454,120.294680,52.279053,0.000000,6.432000,1606991258000
NMEA,$GPGSV,3,1,12,04,35,313,25,08,18,203,24,09,01,322,31,16,58,316,25*7A,1606991257476
NMEA,$GPGSV,3,2,12,22,11,236,32,27,52,185,37,31,40,075,21,03,14,257,*76,1606991257477
NMEA,$GPGSV,3,3,12,18,07,081,,26,47,016,,29,00,000,,32,14,153,*75,1606991257477
NMEA,$GLGSV,2,1,08,75,00,000,26,71,28,199,25,72,45,261,30,74,00,000,*63,1606991257477
NMEA,$GLGSV,2,2,08,73,18,053,,84,39,095,,83,12,036,,85,20,161,*68,1606991257480
NMEA,$GAGSV,1,1,0,*74,1606991257481
NMEA,$PQGSV,1,1,03,193,31,171,25,194,59,035,,195,54,123,,0,5*6A,1606991257481
NMEA,$PQGSV,1,1,0,*73,1606991257481
NMEA,$GNGSA,A,3,04,08,16,22,26,27,,,,,,,1.3,1.0,0.9,1*31,1606991257482
NMEA,$GNGSA,A,2,71,72,,,,,,,,,,,1.3,1.0,0.9,2*3A,1606991257483
NMEA,$GNVTG,,T,,M,0.0,N,0.0,K,A*3D,1606991257484
NMEA,$GNRMC,102738.00,A,2255.527229,N,12017.680806,E,0.0,,031220,2.8,W,A*1C,1606991257484
NMEA,$GNGGA,102738.00,2255.527229,N,12017.680806,E,1,08,1.0,34.8,M,17.5,M,,*44,1606991257484
Raw,20762593,20767561000000,,,-1291005709220679936,0.0,4291.5805242955685,5.835117050637235,13.791861324192828,1476,1,0.0,207,48458707632840,40,21.2,-319.77862548828125,0.9819999933242798,0,0.0,0.0,,,,,0,,3,,
Raw,20762596,20767561000000,,,-1291005709220679936,0.0,4291.5805242955685,5.835117050637235,13.791861324192828,1476,7,0.0,207,48458708763627,40,21.7,712.2164306640625,0.9834999442100525,0,0.0,0.0,,,,,0,,3,,
Raw,20762598,20767561000000,,,-1291005709220679936,0.0,4291.5805242955685,5.835117050637235,13.791861324192828,1476,8,0.0,207,48458712978233,16,29.3,207.8143310546875,0.24770000576972961,0,0.0,0.0,,,,,0,,3,,
Raw,20762600,20767561000000,,,-1291005709220679936,0.0,4291.5805242955685,5.835117050637235,13.791861324192828,1476,4,0.0,15,383276707473651,24,25.4,-463.5368347167969,0.1898999959230423,0,0.0,0.0,,,,,0,,1,,
Raw,20762603,20767561000000,,,-1291005709220679936,0.0,4291.5805242955685,5.835117050637235,13.791861324192828,1476,8,0.0,15,383276703242884,24,25.3,-695.9990844726562,0.6060000061988831,0,0.0,0.0,,,,,0,,1,,
Raw,20762606,20767561000000,,,-1291005709220679936,0.0,4291.5805242955685,5.835117050637235,13.791861324192828,1476,9,0.0,15,383276696549795,21,26.8,-646.0296630859375,0.1216999962925911,0,0.0,0.0,,,,,0,,1,,
Raw,20762609,20767561000000,,,-1291005709220679936,0.0,4291.5805242955685,5.835117050637235,13.791861324192828,1476,16,0.0,15,383276712697319,24,25.3,89.76445770263672,0.19740000367164612,0,0.0,0.0,,,,,0,,1,,
Raw,20762612,20767561000000,,,-1291005709220679936,0.0,4291.5805242955685,5.835117050637235,13.791861324192828,1476,22,0.0,15,383276699157182,12,32.9,296.1165466308594,0.04990000277757645,0,0.0,0.0,,,,,0,,1,,
Raw,20762615,20767561000000,,,-1291005709220679936,0.0,4291.5805242955685,5.835117050637235,13.791861324192828,1476,27,0.0,15,383276711821634,7,37.8,-474.8023681640625,0.029100000858306885,0,0.0,0.0,,,,,0,,1,,
Raw,20762617,20767561000000,,,-1291005709220679936,0.0,4291.5805242955685,5.835117050637235,13.791861324192828,1476,31,0.0,15,383276707688674,40,21.1,203.6427764892578,0.8420000076293945,0,0.0,0.0,,,,,0,,1,,
Fix,gps,22.925454,120.294680,52.278076,0.000000,6.432000,1606991259000
NMEA,$GPGSV,3,1,12,04,35,313,25,08,18,203,25,09,01,322,27,16,58,316,25*7C,1606991258482
NMEA,$GPGSV,3,2,12,22,11,236,33,27,52,185,38,31,40,075,21,03,14,257,*78,1606991258490
NMEA,$GPGSV,3,3,12,18,07,081,,26,47,016,,29,00,000,,32,14,153,*75,1606991258491
NMEA,$GLGSV,3,1,09,75,00,000,26,65,23,310,21,71,28,199,22,72,45,261,29*6C,1606991258492
NMEA,$GLGSV,3,2,09,74,00,000,,73,18,053,,84,39,095,,83,12,036,*62,1606991258494
NMEA,$GLGSV,3,3,09,85,20,161,*55,1606991258496
NMEA,$GAGSV,1,1,0,*74,1606991258497
NMEA,$PQGSV,1,1,03,193,31,171,22,194,59,035,,195,54,123,,0,5*6D,1606991258498
NMEA,$PQGSV,1,1,0,*73,1606991258499
NMEA,$GNGSA,A,3,04,08,16,22,27,31,,,,,,,1.3,1.0,0.9,1*37,1606991258501
NMEA,$GNGSA,A,2,65,71,72,,,,,,,,,,1.3,1.0,0.9,2*39,1606991258502
NMEA,$GNVTG,,T,,M,0.0,N,0.0,K,A*3D,1606991258502
NMEA,$GNRMC,102739.00,A,2255.527229,N,12017.680806,E,0.0,,031220,2.8,W,A*1D,1606991258503
NMEA,$GNGGA,102739.00,2255.527229,N,12017.680806,E,1,09,1.0,34.8,M,17.5,M,,*44,1606991258504
Raw,20763560,20768554000000,,,-1291005709219921920,0.0,4284.130875021219,4.065360126954048,14.593021982185757,1477,7,0.0,207,48459701003536,40,21.7,712.8422241210938,1.003000020980835,0,0.0,0.0,,,,,0,,3,,
Raw,20763561,20768554000000,,,-1291005709219921920,0.0,4284.130875021219,4.065360126954048,14.593021982185757,1477,8,0.0,207,48459705219892,16,29.5,207.62741088867188,0.23720000684261322,0,0.0,0.0,,,,,0,,3,,
Raw,20763561,20768554000000,,,-1291005709219921920,0.0,4284.130875021219,4.065360126954048,14.593021982185757,1477,4,0.0,15,383277699717524,27,24.7,-463.8027648925781,0.6300000548362732,0,0.0,0.0,,,,,0,,1,,
Raw,20763562,20768554000000,,,-1291005709219921920,0.0,4284.130875021219,4.065360126954048,14.593021982185757,1477,8,0.0,15,383277695487426,21,26.3,-696.0827026367188,0.12020000070333481,0,0.0,0.0,,,,,0,,1,,
Raw,20763562,20768554000000,,,-1291005709219921920,0.0,4284.130875021219,4.065360126954048,14.593021982185757,1477,9,0.0,15,383277688794273,21,26.3,-646.2643432617188,0.10969999432563782,0,0.0,0.0,,,,,0,,1,,
Raw,20763563,20768554000000,,,-1291005709219921920,0.0,4284.130875021219,4.065360126954048,14.593021982185757,1477,16,0.0,15,383277704939290,24,25.1,89.82190704345703,0.18540000915527344,0,0.0,0.0,,,,,0,,1,,
Raw,20763563,20768554000000,,,-1291005709219921920,0.0,4284.130875021219,4.065360126954048,14.593021982185757,1477,22,0.0,15,383277691398486,13,31.3,295.89556884765625,0.040300000458955765,0,0.0,0.0,,,,,0,,1,,
Raw,20763564,20768554000000,,,-1291005709219921920,0.0,4284.130875021219,4.065360126954048,14.593021982185757,1477,27,0.0,15,383277704065518,7,37.5,-474.9703369140625,0.01860000006854534,0,0.0,0.0,,,,,0,,1,,
Fix,gps,22.925454,120.294680,52.282227,0.000000,6.432000,1606991260000
NMEA,$GPGSV,3,1,11,04,35,313,25,08,18,203,26,09,01,322,26,16,58,316,25*7D,1606991259481
NMEA,$GPGSV,3,2,11,22,11,236,31,27,52,185,38,03,14,257,,18,07,081,*79,1606991259482
NMEA,$GPGSV,3,3,11,26,47,016,,29,00,000,,32,14,153,*41,1606991259483
NMEA,$GLGSV,2,1,08,75,00,000,26,71,28,199,22,72,45,261,30,74,00,000,*64,1606991259483
NMEA,$GLGSV,2,2,08,73,18,053,,84,39,095,,83,12,036,,85,20,161,*68,1606991259485
NMEA,$GAGSV,1,1,0,*74,1606991259487
NMEA,$PQGSV,1,1,03,193,31,171,23,194,59,035,,195,54,123,,0,5*6C,1606991259488
NMEA,$PQGSV,1,1,0,*73,1606991259492
NMEA,$GNGSA,A,3,04,08,16,22,27,,,,,,,,1.3,1.0,0.9,1*35,1606991259497
NMEA,$GNGSA,A,2,71,72,,,,,,,,,,,1.3,1.0,0.9,2*3A,1606991259498
NMEA,$GNVTG,,T,,M,0.0,N,0.0,K,A*3D,1606991259499
NMEA,$GNRMC,102740.00,A,2255.527228,N,12017.680804,E,0.0,,031220,2.8,W,A*10,1606991259499
NMEA,$GNGGA,102740.00,2255.527228,N,12017.680804,E,1,07,1.0,34.8,M,17.5,M,,*47,1606991259500
Raw,20764594,20769547000000,,,-1291005709219105280,0.0,4283.817950636148,4.869771089305162,11.306413943148653,1478,7,0.0,207,48460693184059,27,24.4,712.6647338867188,0.8210000395774841,0,0.0,0.0,,,,,0,,3,,
Raw,20764597,20769547000000,,,-1291005709219105280,0.0,4283.817950636148,4.869771089305162,11.306413943148653,1478,8,0.0,207,48460697402163,16,29.0,208.39486694335938,0.25519999861717224,0,0.0,0.0,,,,,0,,3,,
Raw,20764599,20769547000000,,,-1291005709219105280,0.0,4283.817950636148,4.869771089305162,11.306413943148653,1478,4,0.0,15,383278691902126,27,24.3,-463.22235107421875,0.6679999828338623,0,0.0,0.0,,,,,0,,1,,
Raw,20764601,20769547000000,,,-1291005709219105280,0.0,4283.817950636148,4.869771089305162,11.306413943148653,1478,8,0.0,15,383278687672788,24,25.7,-695.3401489257812,0.1898999959230423,0,0.0,0.0,,,,,0,,1,,
Raw,20764605,20769547000000,,,-1291005709219105280,0.0,4283.817950636148,4.869771089305162,11.306413943148653,1478,9,0.0,15,383278680979315,19,27.3,-645.7078247070312,0.09360000491142273,0,0.0,0.0,,,,,0,,1,,
Raw,20764608,20769547000000,,,-1291005709219105280,0.0,4283.817950636148,4.869771089305162,11.306413943148653,1478,16,0.0,15,383278697122056,27,24.6,89.71395111083984,0.6270000338554382,0,0.0,0.0,,,,,0,,1,,
Raw,20764611,20769547000000,,,-1291005709219105280,0.0,4283.817950636148,4.869771089305162,11.306413943148653,1478,22,0.0,15,383278683580547,12,32.7,296.5351867675781,0.02590000070631504,0,0.0,0.0,,,,,0,,1,,
Raw,20764613,20769547000000,,,-1291005709219105280,0.0,4283.817950636148,4.869771089305162,11.306413943148653,1478,27,0.0,15,383278696250166,7,37.2,-474.25067138671875,0.03660000115633011,0,0.0,0.0,,,,,0,,1,,
Raw,20764615,20769547000000,,,-1291005709219105280,0.0,4283.817950636148,4.869771089305162,11.306413943148653,1478,31,0.0,15,383278692112590,24,25.2,204.83348083496094,0.19740000367164612,0,0.0,0.0,,,,,0,,1,,
Fix,gps,22.925453,120.294679,52.487366,0.000000,7.504000,1606991261000
NMEA,$GPGSV,3,1,11,04,35,313,24,08,18,203,26,09,01,322,27,16,58,316,25*7D,1606991260483
NMEA,$GPGSV,3,2,11,22,11,236,33,27,52,185,37,31,40,075,25,18,07,081,*71,1606991260484
NMEA,$GPGSV,3,3,11,26,47,016,,29,00,000,,32,14,153,*41,1606991260486
NMEA,$GLGSV,3,1,09,75,00,000,26,71,28,199,24,72,45,261,29,74,00,000,*6A,1606991260487
NMEA,$GLGSV,3,2,09,73,18,053,,65,23,310,,84,39,095,,83,12,036,*61,1606991260489
NMEA,$GLGSV,3,3,09,85,20,161,*55,1606991260489
NMEA,$GAGSV,1,1,0,*74,1606991260491
NMEA,$PQGSV,1,1,03,193,31,171,22,194,59,035,,195,54,123,,0,5*6D,1606991260495
NMEA,$PQGSV,1,1,0,*73,1606991260496
NMEA,$GNGSA,A,3,04,08,16,22,27,31,,,,,,,1.3,1.0,0.9,1*37,1606991260498
NMEA,$GNGSA,A,2,65,71,72,,,,,,,,,,1.3,1.0,0.9,2*39,1606991260499
NMEA,$GNVTG,,T,,M,0.0,N,0.0,K,A*3D,1606991260499
NMEA,$GNRMC,102741.00,A,2255.527198,N,12017.680729,E,0.0,,031220,2.8,W,A*19,1606991260500
NMEA,$GNGGA,102741.00,2255.527198,N,12017.680729,E,1,09,1.0,35.0,M,17.5,M,,*49,1606991260501
NMEA,$GPGSV,3,1,12,03,14,257,24,04,35,313,27,08,18,203,26,09,01,322,26*75,1606991261486
Fix,gps,22.925453,120.294678,52.490723,0.000000,7.504000,1606991262000
Raw,20766087,20770560000000,,,-1291005709218140928,0.0,4319.431725889444,6.1962913162747535,11.558878371757153,1479,1,0.0,207,48461704097258,35,22.5,-317.8050231933594,0.9174999594688416,0,0.0,0.0,,,,,0,,3,,
Raw,20766091,20770560000000,,,-1291005709218140928,0.0,4319.431725889444,6.1962913162747535,11.558878371757153,1479,7,0.0,207,48461705217782,31,23.4,712.4219360351562,0.8589999675750732,0,0.0,0.0,,,,,0,,3,,
Raw,20766093,20770560000000,,,-1291005709218140928,0.0,4319.431725889444,6.1962913162747535,11.558878371757153,1479,8,0.0,207,48461709437603,13,31.3,208.4638214111328,0.23730000853538513,0,0.0,0.0,,,,,0,,3,,
Raw,20766096,20770560000000,,,-1291005709218140928,0.0,4319.431725889444,6.1962913162747535,11.558878371757153,1479,3,0.0,15,383279697015768,27,24.1,283.8705749511719,0.6769999861717224,0,0.0,0.0,,,,,0,,1,,
Raw,20766098,20770560000000,,,-1291005709218140928,0.0,4319.431725889444,6.1962913162747535,11.558878371757153,1479,4,0.0,15,383279703939735,21,26.8,-462.77734375,0.1021999940276146,0,0.0,0.0,,,,,0,,1,,
Raw,20766101,20770560000000,,,-1291005709218140928,0.0,4319.431725889444,6.1962913162747535,11.558878371757153,1479,8,0.0,15,383279699711253,24,25.6,-695.8468627929688,0.5900000333786011,0,0.0,0.0,,,,,0,,1,,
Raw,20766103,20770560000000,,,-1291005709218140928,0.0,4319.431725889444,6.1962913162747535,11.558878371757153,1479,9,0.0,15,383279693017688,24,25.9,-644.933837890625,0.581000030040741,0,0.0,0.0,,,,,0,,1,,
Raw,20766105,20770560000000,,,-1291005709218140928,0.0,4319.431725889444,6.1962913162747535,11.558878371757153,1479,16,0.0,15,383279709157879,24,25.8,90.20206451416016,0.19290000200271606,0,0.0,0.0,,,,,0,,1,,
Raw,20766108,20770560000000,,,-1291005709218140928,0.0,4319.431725889444,6.1962913162747535,11.558878371757153,1479,22,0.0,15,383279695615641,12,32.7,296.3074951171875,0.04390000179409981,0,0.0,0.0,,,,,0,,1,,
Raw,20766111,20770560000000,,,-1291005709218140928,0.0,4319.431725889444,6.1962913162747535,11.558878371757153,1479,27,0.0,15,383279708287868,8,36.4,-474.242431640625,0.026000000536441803,0,0.0,0.0,,,,,0,,1,,
Raw,20766113,20770560000000,,,-1291005709218140928,0.0,4319.431725889444,6.1962913162747535,11.558878371757153,1479,31,0.0,15,383279704148090,35,22.7,204.59423828125,0.7174999713897705,0,0.0,0.0,,,,,0,,1,,
NMEA,$GPGSV,3,2,12,16,58,316,26,22,11,236,33,27,52,185,36,31,40,075,23*78,1606991261487
NMEA,$GPGSV,3,3,12,18,07,081,,26,47,016,,29,00,000,,32,14,153,*75,1606991261488
NMEA,$GLGSV,3,1,09,75,00,000,26,65,23,310,23,71,28,199,23,72,45,261,31*66,1606991261494
NMEA,$GLGSV,3,2,09,74,00,000,,73,18,053,,84,39,095,,83,12,036,*62,1606991261494
NMEA,$GLGSV,3,3,09,85,20,161,*55,1606991261495
NMEA,$GAGSV,1,1,0,*74,1606991261496
NMEA,$PQGSV,1,1,03,193,31,171,22,194,59,035,,195,54,123,,0,5*6D,1606991261497
NMEA,$PQGSV,1,1,0,*73,1606991261498
NMEA,$GNGSA,A,3,04,08,16,22,27,31,,,,,,,1.3,1.0,0.9,1*37,1606991261502
NMEA,$GNGSA,A,2,65,71,72,,,,,,,,,,1.3,1.0,0.9,2*39,1606991261503
NMEA,$GNVTG,,T,,M,0.0,N,0.0,K,A*3D,1606991261504
NMEA,$GNRMC,102742.00,A,2255.527183,N,12017.680691,E,0.0,,031220,2.8,W,A*12,1606991261505
NMEA,$GNGGA,102742.00,2255.527183,N,12017.680691,E,1,09,1.0,35.0,M,17.5,M,,*42,1606991261505
Raw,20766559,20771553000000,,,-1291005709217475072,0.0,4332.027863711119,5.756411093635959,13.392079455087632,1480,7,0.0,207,48462697549521,35,22.8,712.4686279296875,0.9369999766349792,0,0.0,0.0,,,,,0,,3,,
Raw,20766559,20771553000000,,,-1291005709217475072,0.0,4332.027863711119,5.756411093635959,13.392079455087632,1480,8,0.0,207,48462701770928,13,31.8,208.4638214111328,0.25530001521110535,0,0.0,0.0,,,,,0,,3,,
Raw,20766560,20771553000000,,,-1291005709217475072,0.0,4332.027863711119,5.756411093635959,13.392079455087632,1480,3,0.0,15,383280689348808,35,22.5,284.2321472167969,0.7249999642372131,0,0.0,0.0,,,,,0,,1,,
Raw,20766561,20771553000000,,,-1291005709217475072,0.0,4332.027863711119,5.756411093635959,13.392079455087632,1480,4,0.0,15,383280696275266,24,25.3,-462.99798583984375,0.20340000092983246,0,0.0,0.0,,,,,0,,1,,
Raw,20766561,20771553000000,,,-1291005709217475072,0.0,4332.027863711119,5.756411093635959,13.392079455087632,1480,8,0.0,15,383280692047558,21,26.7,-695.5744018554688,0.11569999903440475,0,0.0,0.0,,,,,0,,1,,
Raw,20766561,20771553000000,,,-1291005709217475072,0.0,4332.027863711119,5.756411093635959,13.392079455087632,1480,9,0.0,15,383280685353770,24,25.5,-645.7665405273438,0.18690000474452972,0,0.0,0.0,,,,,0,,1,,
Raw,20766562,20771553000000,,,-1291005709217475072,0.0,4332.027863711119,5.756411093635959,13.392079455087632,1480,16,0.0,15,383280701491531,27,24.6,89.91375732421875,0.6330000162124634,0,0.0,0.0,,,,,0,,1,,
Raw,20766562,20771553000000,,,-1291005709217475072,0.0,4332.027863711119,5.756411093635959,13.392079455087632,1480,22,0.0,15,383280687948645,12,32.7,296.3113708496094,0.03189999982714653,0,0.0,0.0,,,,,0,,1,,
Raw,20766563,20771553000000,,,-1291005709217475072,0.0,4332.027863711119,5.756411093635959,13.392079455087632,1480,27,0.0,15,383280700623412,8,36.7,-474.2489318847656,0.04400000348687172,0,0.0,0.0,,,,,0,,1,,
Fix,gps,22.925453,120.294678,52.495300,0.000000,7.504000,1606991263000
NMEA,$GPGSV,3,1,11,03,14,257,23,04,35,313,25,08,18,203,27,09,01,322,26*72,1606991262482
