# 
# Header Description:
# 
# Version: v2.0.0.1 Platform: 8.0.0 Manufacturer: Sony Model: G8142
# 
# Raw,ElapsedRealtimeMillis,TimeNanos,LeapSecond,TimeUncertaintyNanos,FullBiasNanos,BiasNanos,BiasUncertaintyNanos,DriftNanosPerSecond,DriftUncertaintyNanosPerSecond,HardwareClockDiscontinuityCount,Svid,TimeOffsetNanos,State,ReceivedSvTimeNanos,ReceivedSvTimeUncertaintyNanos,Cn0DbHz,PseudorangeRateMetersPerSecond,PseudorangeRateUncertaintyMetersPerSecond,AccumulatedDeltaRangeState,AccumulatedDeltaRangeMeters,AccumulatedDeltaRangeUncertaintyMeters,CarrierFrequencyHz,CarrierCycles,CarrierPhase,CarrierPhaseUncertainty,MultipathIndicator,SnrInDb,ConstellationType,AgcDb,CarrierFrequencyHz
# 
# Fix,Provider,Latitude,Longitude,Altitude,Speed,Accuracy,(UTC)TimeInMs
# 
# Nav,Svid,Type,Status,MessageId,Sub-messageId,Data(Bytes)
# 
Raw,21254593,21259587000000,,,-1291005709087790848,0.0,4225.0435799360275,-0.4330170662103418,8.631278258971296,1708,1,0.0,207,48950601212062,27,24.7,-250.05738830566406,0.8330000042915344,0,0.0,0.0,,,,,0,,3,,
Raw,21254593,21259587000000,,,-1291005709087790848,0.0,4225.0435799360275,-0.4330170662103418,8.631278258971296,1708,21,0.0,207,48950600987009,31,23.7,-727.3505859375,0.8814999461174011,0,0.0,0.0,,,,,0,,3,,
Raw,21254593,21259587000000,,,-1291005709087790848,0.0,4225.0435799360275,-0.4330170662103418,8.631278258971296,1708,7,0.0,207,48950600693522,12,32.9,727.2363891601562,0.2785000205039978,0,0.0,0.0,,,,,0,,3,,
Raw,21254594,21259587000000,,,-1291005709087790848,0.0,4225.0435799360275,-0.4330170662103418,8.631278258971296,1708,8,0.0,207,48950605692694,16,29.9,276.0168151855469,0.28189998865127563,0,0.0,0.0,,,,,0,,3,,
Raw,21254594,21259587000000,,,-1291005709087790848,0.0,4225.0435799360275,-0.4330170662103418,8.631278258971296,1708,3,0.0,15,383768593188963,21,26.3,300.55242919921875,0.2702000141143799,0,0.0,0.0,,,,,0,,1,,
Raw,21254594,21259587000000,,,-1291005709087790848,0.0,4225.0435799360275,-0.4330170662103418,8.631278258971296,1708,4,0.0,15,383768601312540,11,33.8,-421.822998046875,0.0747000053524971,0,0.0,0.0,,,,,0,,1,,
Raw,21254594,21259587000000,,,-1291005709087790848,0.0,4225.0435799360275,-0.4330170662103418,8.631278258971296,1708,8,0.0,15,383768597483509,9,35.6,-679.2609252929688,0.06000000238418579,0,0.0,0.0,,,,,0,,1,,
Raw,21254594,21259587000000,,,-1291005709087790848,0.0,4225.0435799360275,-0.4330170662103418,8.631278258971296,1708,9,0.0,15,383768590710578,27,24.0,-631.537109375,0.6664999723434448,0,0.0,0.0,,,,,0,,1,,
Raw,21254595,21259587000000,,,-1291005709087790848,0.0,4225.0435799360275,-0.4330170662103418,8.631278258971296,1708,16,0.0,15,383768605638571,17,28.9,117.96818542480469,0.10490000247955322,0,0.0,0.0,,,,,0,,1,,
Raw,21254595,21259587000000,,,-1291005709087790848,0.0,4225.0435799360275,-0.4330170662103418,8.631278258971296,1708,22,0.0,15,383768591785449,9,35.8,292.7315368652344,0.050999999046325684,0,0.0,0.0,,,,,0,,1,,
Raw,21254595,21259587000000,,,-1291005709087790848,0.0,4225.0435799360275,-0.4330170662103418,8.631278258971296,1708,27,0.0,15,383768605672891,13,31.1,-425.512451171875,0.06260000169277191,0,0.0,0.0,,,,,0,,1,,
Fix,gps,22.925461,120.294679,53.063782,0.000000,6.432000,1606991751000
NMEA,$GPGSV,3,1,11,03,12,253,26,04,39,310,34,08,23,203,36,09,04,322,24*75,1606991750476
NMEA,$GPGSV,3,2,11,16,57,324,29,22,10,232,36,27,57,185,31,18,08,077,*7C,1606991750476
NMEA,$GPGSV,3,3,11,26,45,021,,31,39,081,,32,10,153,*49,1606991750477
NMEA,$GLGSV,3,1,09,75,00,000,30,65,25,306,25,85,25,158,24,71,24,198,33*69,1606991750477
NMEA,$GLGSV,3,2,09,72,43,255,30,74,36,005,,73,17,057,,84,41,088,*64,1606991750477
NMEA,$GLGSV,3,3,09,83,09,032,*5F,1606991750477
NMEA,$GAGSV,1,1,0,*74,1606991750477
NMEA,$PQGSV,1,1,03,193,30,171,,194,59,035,,195,56,122,,0,5*6F,1606991750478
NMEA,$PQGSV,1,1,0,*73,1606991750479
NMEA,$GNGSA,A,3,03,04,08,09,16,22,27,,,,,,1.7,1.5,0.9,1*3E,1606991750481
NMEA,$GNGSA,A,2,65,71,72,,,,,,,,,,1.7,1.5,0.9,2*38,1606991750481
NMEA,$GNVTG,,T,,M,0.0,N,0.0,K,A*3D,1606991750481
NMEA,$GNRMC,103551.00,A,2255.527639,N,12017.680733,E,0.0,,031220,2.8,W,A*1C,1606991750481
NMEA,$GNGGA,103551.00,2255.527639,N,12017.680733,E,1,10,1.5,35.6,M,17.5,M,,*47,1606991750481
Fix,gps,22.925461,120.294679,53.063477,0.000000,6.432000,1606991752000
NMEA,$GPGSA,A,1,,,,,,,,,,,,,1.7,1.5,0.9,1*26,1606991751474
NMEA,$GPVTG,,T,,M,0.0,N,0.0,K,A*23,1606991751474
NMEA,$GPRMC,103552.00,A,2255.527647,N,12017.680751,E,0.0,,031220,2.8,W,A*0C,1606991751474
NMEA,$GPGGA,103552.00,2255.527647,N,12017.680751,E,1,00,1.5,35.6,M,17.5,M,,*56,1606991751474
Raw,21256559,21260879000000,,,-1291005709087456256,0.0,4317.265003919601,-1.187804322896195,14.511696774535185,1709,1,0.0,207,48951892878057,21,26.3,-248.80064392089844,0.3156999945640564,0,0.0,0.0,,,,,0,,3,,
Raw,21256559,21260879000000,,,-1291005709087456256,0.0,4317.265003919601,-1.187804322896195,14.511696774535185,1709,21,0.0,207,48951892655073,21,26.3,-725.3179321289062,0.3156999945640564,0,0.0,0.0,,,,,0,,3,,
Raw,21256560,21260879000000,,,-1291005709087456256,0.0,4317.265003919601,-1.187804322896195,14.511696774535185,1709,7,0.0,207,48951892355383,9,35.6,728.6011962890625,0.2330000102519989,0,0.0,0.0,,,,,0,,3,,
Raw,21256560,21260879000000,,,-1291005709087456256,0.0,4317.265003919601,-1.187804322896195,14.511696774535185,1709,8,0.0,207,48951897356543,12,32.6,277.486328125,0.24689999222755432,0,0.0,0.0,,,,,0,,3,,
Raw,21256560,21260879000000,,,-1291005709087456256,0.0,4317.265003919601,-1.187804322896195,14.511696774535185,1709,3,0.0,15,383769884852700,31,23.7,300.8542785644531,0.6574999690055847,0,0.0,0.0,,,,,0,,1,,
Raw,21256560,21260879000000,,,-1291005709087456256,0.0,4317.265003919601,-1.187804322896195,14.511696774535185,1709,4,0.0,15,383769892979449,11,33.3,-420.412109375,0.03700000047683716,0,0.0,0.0,,,,,0,,1,,
Raw,21256560,21260879000000,,,-1291005709087456256,0.0,4317.265003919601,-1.187804322896195,14.511696774535185,1709,8,0.0,15,383769889151487,7,37.2,-677.860107421875,0.026100000366568565,0,0.0,0.0,,,,,0,,1,,
Raw,21256560,21260879000000,,,-1291005709087456256,0.0,4317.265003919601,-1.187804322896195,14.511696774535185,1709,9,0.0,15,383769882378346,35,22.7,-630.3002319335938,0.7444999814033508,0,0.0,0.0,,,,,0,,1,,
Raw,21256561,21260879000000,,,-1291005709087456256,0.0,4317.265003919601,-1.187804322896195,14.511696774535185,1709,16,0.0,15,383769897303065,19,27.7,119.28622436523438,0.08910000324249268,0,0.0,0.0,,,,,0,,1,,
Raw,21256561,21260879000000,,,-1291005709087456256,0.0,4317.265003919601,-1.187804322896195,14.511696774535185,1709,22,0.0,15,383769883449236,9,35.7,294.0361633300781,0.019500000402331352,0,0.0,0.0,,,,,0,,1,,
Raw,21256561,21260879000000,,,-1291005709087456256,0.0,4317.265003919601,-1.187804322896195,14.511696774535185,1709,27,0.0,15,383769897339744,13,31.9,-424.22601318359375,0.049300000071525574,0,0.0,0.0,,,,,0,,1,,
Fix,gps,22.925461,120.294679,53.067627,0.000000,6.432000,1606991753000
NMEA,$GPGSV,3,1,11,03,12,253,24,04,39,310,33,08,23,203,37,09,04,322,23*76,1606991752475
NMEA,$GPGSV,3,2,11,16,57,324,28,22,10,232,36,27,57,185,32,18,08,077,*7E,1606991752475
NMEA,$GPGSV,3,3,11,26,45,021,,31,39,081,,32,10,153,*49,1606991752476
NMEA,$GLGSV,3,1,09,75,00,000,30,65,25,306,26,85,25,158,26,71,24,198,36*6D,1606991752476
NMEA,$GLGSV,3,2,09,72,43,255,33,74,36,005,,73,17,057,,84,41,088,*67,1606991752476
NMEA,$GLGSV,3,3,09,83,09,032,*5F,1606991752476
NMEA,$GAGSV,1,1,0,*74,1606991752477
NMEA,$PQGSV,1,1,03,193,30,171,,194,59,035,,195,56,122,,0,5*6F,1606991752478
NMEA,$PQGSV,1,1,0,*73,1606991752478
NMEA,$GNGSA,A,3,03,04,08,09,16,22,27,,,,,,1.7,1.5,0.9,1*3E,1606991752479
NMEA,$GNGSA,A,2,65,71,72,,,,,,,,,,1.7,1.5,0.9,2*38,1606991752480
NMEA,$GNVTG,,T,,M,0.0,N,0.0,K,A*3D,1606991752480
NMEA,$GNRMC,103553.00,A,2255.527653,N,12017.680760,E,0.0,,031220,2.8,W,A*14,1606991752480
NMEA,$GNGGA,103553.00,2255.527653,N,12017.680760,E,1,10,1.5,35.6,M,17.5,M,,*4F,1606991752481
Raw,21257529,21262440000000,,,-1291005709087441152,0.0,82.88317621918395,8.594135559009313,14.39684261368152,1710,11,0.0,3,15426683,18,29.2,-133.5222930908203,1.3140000104904175,0,0.0,0.0,,,,,0,,3,,
Raw,21257530,21262440000000,,,-1291005709087441152,0.0,82.88317621918395,8.594135559009313,14.39684261368152,1710,1,0.0,207,48953453864690,27,24.9,-251.49783325195312,0.8210000395774841,0,0.0,0.0,,,,,0,,3,,
Raw,21257530,21262440000000,,,-1291005709087441152,0.0,82.88317621918395,8.594135559009313,14.39684261368152,1710,21,0.0,207,48953453644051,21,26.3,-727.4940795898438,0.3172000050544739,0,0.0,0.0,,,,,0,,3,,
Raw,21257530,21262440000000,,,-1291005709087441152,0.0,82.88317621918395,8.594135559009313,14.39684261368152,1710,7,0.0,207,48953453336748,10,34.7,726.4229125976562,0.23659999668598175,0,0.0,0.0,,,,,0,,3,,
Raw,21257530,21262440000000,,,-1291005709087441152,0.0,82.88317621918395,8.594135559009313,14.39684261368152,1710,8,0.0,207,48953458340179,11,33.0,275.49554443359375,0.2460000067949295,0,0.0,0.0,,,,,0,,3,,
Raw,21257533,21262440000000,,,-1291005709087441152,0.0,82.88317621918395,8.594135559009313,14.39684261368152,1710,3,0.0,15,383771445836325,31,23.0,299.4176025390625,0.718999981880188,0,0.0,0.0,,,,,0,,1,,
Raw,21257533,21262440000000,,,-1291005709087441152,0.0,82.88317621918395,8.594135559009313,14.39684261368152,1710,4,0.0,15,383771453966765,12,32.9,-422.4644470214844,0.04089999943971634,0,0.0,0.0,,,,,0,,1,,
Raw,21257534,21262440000000,,,-1291005709087441152,0.0,82.88317621918395,8.594135559009313,14.39684261368152,1710,8,0.0,15,383771450140158,7,37.8,-680.0449829101562,0.02759999968111515,0,0.0,0.0,,,,,0,,1,,
Raw,21257534,21262440000000,,,-1291005709087441152,0.0,82.88317621918395,8.594135559009313,14.39684261368152,1710,9,0.0,15,383771443367100,31,23.3,-633.4591064453125,0.715999960899353,0,0.0,0.0,,,,,0,,1,,
Raw,21257534,21262440000000,,,-1291005709087441152,0.0,82.88317621918395,8.594135559009313,14.39684261368152,1710,16,0.0,15,383771458287606,17,28.3,117.11966705322266,0.06780000030994415,0,0.0,0.0,,,,,0,,1,,
Raw,21257535,21262440000000,,,-1291005709087441152,0.0,82.88317621918395,8.594135559009313,14.39684261368152,1710,22,0.0,15,383771444432840,8,36.0,291.7333068847656,0.020000001415610313,0,0.0,0.0,,,,,0,,1,,
Raw,21257535,21262440000000,,,-1291005709087441152,0.0,82.88317621918395,8.594135559009313,14.39684261368152,1710,27,0.0,15,383771458327115,12,32.4,-426.24420166015625,0.04839999973773956,0,0.0,0.0,,,,,0,,1,,
Fix,gps,22.925461,120.294679,53.053894,0.000000,6.432000,1606991754000
NMEA,$GPGSV,3,1,11,03,12,253,23,04,39,310,33,08,23,203,38,09,04,322,23*7E,1606991753486
NMEA,$GPGSV,3,2,11,16,57,324,28,22,10,232,36,27,57,185,32,18,08,077,*7E,1606991753488
NMEA,$GPGSV,3,3,11,26,45,021,,31,39,081,,32,10,153,*49,1606991753491
NMEA,$GLGSV,3,1,09,75,00,000,29,65,25,306,25,85,25,158,26,71,24,198,35*65,1606991753492
NMEA,$GLGSV,3,2,09,72,43,255,33,74,36,005,,73,17,057,,84,41,088,*67,1606991753497
NMEA,$GLGSV,3,3,09,83,09,032,*5F,1606991753498
NMEA,$GAGSV,1,1,0,*74,1606991753499
NMEA,$PQGSV,1,1,02,193,30,171,26,194,59,035,,0,5*65,1606991753500
NMEA,$PQGSV,1,1,0,*73,1606991753501
NMEA,$GNGSA,A,3,03,04,08,09,16,22,27,,,,,,1.7,1.5,0.9,1*3E,1606991753503
NMEA,$GNGSA,A,2,65,71,72,,,,,,,,,,1.7,1.5,0.9,2*38,1606991753504
NMEA,$GNVTG,,T,,M,0.0,N,0.0,K,A*3D,1606991753504
NMEA,$GNRMC,103554.00,A,2255.527657,N,12017.680769,E,0.0,,031220,2.8,W,A*1E,1606991753505
NMEA,$GNGGA,103554.00,2255.527657,N,12017.680769,E,1,10,1.5,35.6,M,17.5,M,,*45,1606991753506
Raw,21258561,21263681000000,,,-1291005709087358208,0.0,4291.390534490347,-1.9510767070744874,15.168886525121517,1711,1,0.0,207,48954694782627,24,25.4,-250.1125030517578,0.4004000127315521,0,0.0,0.0,,,,,0,,3,,
Raw,21258561,21263681000000,,,-1291005709087358208,0.0,4291.390534490347,-1.9510767070744874,15.168886525121517,1711,21,0.0,207,48954694563971,21,26.9,-726.948486328125,0.31870001554489136,0,0.0,0.0,,,,,0,,3,,
Raw,21258561,21263681000000,,,-1291005709087358208,0.0,4291.390534490347,-1.9510767070744874,15.168886525121517,1711,7,0.0,207,48954694250676,11,33.5,726.9860229492188,0.24000000953674316,0,0.0,0.0,,,,,0,,3,,
Raw,21258561,21263681000000,,,-1291005709087358208,0.0,4291.390534490347,-1.9510767070744874,15.168886525121517,1711,8,0.0,207,48954699256026,13,31.5,276.184326171875,0.2523000240325928,0,0.0,0.0,,,,,0,,3,,
Raw,21258561,21263681000000,,,-1291005709087358208,0.0,4291.390534490347,-1.9510767070744874,15.168886525121517,1711,3,0.0,15,383772686752006,27,24.4,299.9218444824219,0.6604999899864197,0,0.0,0.0,,,,,0,,1,,
Raw,21258562,21263681000000,,,-1291005709087358208,0.0,4291.390534490347,-1.9510767070744874,15.168886525121517,1711,4,0.0,15,383772694885441,11,33.0,-421.851318359375,0.04000000283122063,0,0.0,0.0,,,,,0,,1,,
Raw,21258562,21263681000000,,,-1291005709087358208,0.0,4291.390534490347,-1.9510767070744874,15.168886525121517,1711,8,0.0,15,383772691059907,7,37.8,-679.4354858398438,0.029100000858306885,0,0.0,0.0,,,,,0,,1,,
Raw,21258562,21263681000000,,,-1291005709087358208,0.0,4291.390534490347,-1.9510767070744874,15.168886525121517,1711,9,0.0,15,383772684286621,27,24.4,-632.269775390625,0.6574999690055847,0,0.0,0.0,,,,,0,,1,,
Raw,21258562,21263681000000,,,-1291005709087358208,0.0,4291.390534490347,-1.9510767070744874,15.168886525121517,1711,16,0.0,15,383772699204042,19,27.7,117.74334716796875,0.09210000187158585,0,0.0,0.0,,,,,0,,1,,
Raw,21258562,21263681000000,,,-1291005709087358208,0.0,4291.390534490347,-1.9510767070744874,15.168886525121517,1711,22,0.0,15,383772685348550,9,35.3,292.2545471191406,0.02250000089406967,0,0.0,0.0,,,,,0,,1,,
Raw,21258562,21263681000000,,,-1291005709087358208,0.0,4291.390534490347,-1.9510767070744874,15.168886525121517,1711,27,0.0,15,383772699245817,13,31.8,-425.566650390625,0.05230000242590904,0,0.0,0.0,,,,,0,,1,,
Fix,gps,22.925461,120.294680,53.055908,0.000000,7.504000,1606991755000
NMEA,$GPGSV,3,1,11,03,12,253,24,04,39,310,33,08,23,203,38,09,04,322,24*7E,1606991754478
NMEA,$GPGSV,3,2,11,16,57,324,28,22,10,232,35,27,57,185,32,18,08,077,*7D,1606991754480
NMEA,$GPGSV,3,3,11,26,45,021,,31,39,081,,32,10,153,*49,1606991754480
NMEA,$GLGSV,3,1,09,75,00,000,29,65,25,306,25,85,25,158,27,71,24,198,34*65,1606991754481
NMEA,$GLGSV,3,2,09,72,43,255,32,74,36,005,,73,17,057,,84,41,088,*66,1606991754481
NMEA,$GLGSV,3,3,09,83,09,032,*5F,1606991754483
NMEA,$GAGSV,1,1,0,*74,1606991754484
NMEA,$PQGSV,1,1,02,193,30,171,27,194,59,035,,0,5*64,1606991754484
NMEA,$PQGSV,1,1,0,*73,1606991754484
NMEA,$GNGSA,A,3,03,04,08,09,16,22,27,,,,,,1.7,1.5,0.9,1*3E,1606991754486
NMEA,$GNGSA,A,2,65,71,72,,,,,,,,,,1.7,1.5,0.9,2*38,1606991754487
NMEA,$GNVTG,,T,,M,0.0,N,0.0,K,A*3D,1606991754487
NMEA,$GNRMC,103555.00,A,2255.527659,N,12017.680776,E,0.0,,031220,2.8,W,A*1F,1606991754487
NMEA,$GNGGA,103555.00,2255.527659,N,12017.680776,E,1,10,1.5,35.6,M,17.5,M,,*44,1606991754487
Raw,21260006,21264697000000,,,-1291005709086434304,0.0,4273.941274732351,-2.364197190633207,14.219858093718786,1712,1,0.0,207,48955709859499,24,25.9,-249.23959350585938,0.3929000198841095,0,0.0,0.0,,,,,0,,3,,
Raw,21260006,21264697000000,,,-1291005709086434304,0.0,4273.941274732351,-2.364197190633207,14.219858093718786,1712,21,0.0,207,48955709642453,21,26.3,-726.140380859375,0.31120002269744873,0,0.0,0.0,,,,,0,,3,,
Raw,21260006,21264697000000,,,-1291005709086434304,0.0,4273.941274732351,-2.364197190633207,14.219858093718786,1712,7,0.0,207,48955709324299,10,34.6,727.5161743164062,0.2305999994277954,0,0.0,0.0,,,,,0,,3,,
Raw,21260007,21264697000000,,,-1291005709086434304,0.0,4273.941274732351,-2.364197190633207,14.219858093718786,1712,8,0.0,207,48955714331130,11,33.1,277.0052490234375,0.24000000953674316,0,0.0,0.0,,,,,0,,3,,
Raw,21260007,21264697000000,,,-1291005709086434304,0.0,4273.941274732351,-2.364197190633207,14.219858093718786,1712,3,0.0,15,383773701827112,35,22.9,300.8067321777344,0.7429999709129333,0,0.0,0.0,,,,,0,,1,,
Raw,21260007,21264697000000,,,-1291005709086434304,0.0,4273.941274732351,-2.364197190633207,14.219858093718786,1712,4,0.0,15,383773709962957,11,33.8,-421.22845458984375,0.0325000025331974,0,0.0,0.0,,,,,0,,1,,
Raw,21260007,21264697000000,,,-1291005709086434304,0.0,4273.941274732351,-2.364197190633207,14.219858093718786,1712,8,0.0,15,383773706138279,6,38.1,-678.8944091796875,0.020200001075863838,0,0.0,0.0,,,,,0,,1,,
Raw,21260007,21264697000000,,,-1291005709086434304,0.0,4273.941274732351,-2.364197190633207,14.219858093718786,1712,9,0.0,15,383773699364863,35,22.9,-632.4219970703125,0.7400000095367432,0,0.0,0.0,,,,,0,,1,,
Raw,21260007,21264697000000,,,-1291005709086434304,0.0,4273.941274732351,-2.364197190633207,14.219858093718786,1712,16,0.0,15,383773714279742,19,27.6,118.21370697021484,0.08460000157356262,0,0.0,0.0,,,,,0,,1,,
Raw,21260008,21264697000000,,,-1291005709086434304,0.0,4273.941274732351,-2.364197190633207,14.219858093718786,1712,22,0.0,15,383773700423657,9,35.5,292.67254638671875,0.04500000178813934,0,0.0,0.0,,,,,0,,1,,
Raw,21260008,21264697000000,,,-1291005709086434304,0.0,4273.941274732351,-2.364197190633207,14.219858093718786,1712,27,0.0,15,383773714323315,12,32.7,-425.0625305175781,0.04240000247955322,0,0.0,0.0,,,,,0,,1,,
Fix,gps,22.925461,120.294680,53.049316,0.000000,7.504000,1606991756000
NMEA,$GPGSV,3,1,11,03,12,253,23,04,39,310,34,08,23,203,38,09,04,322,23*79,1606991755476
NMEA,$GPGSV,3,2,11,16,57,324,28,22,10,232,36,27,57,185,33,18,08,077,*7F,1606991755477
NMEA,$GPGSV,3,3,11,26,45,021,,31,39,081,,32,10,153,*49,1606991755477
NMEA,$GLGSV,3,1,09,75,00,000,29,65,25,306,26,85,25,158,26,71,24,198,35*66,1606991755477
NMEA,$GLGSV,3,2,09,72,43,255,33,74,36,005,,73,17,057,,84,41,088,*67,1606991755477
NMEA,$GLGSV,3,3,09,83,09,032,*5F,1606991755478
NMEA,$GAGSV,1,1,0,*74,1606991755478
NMEA,$PQGSV,1,1,02,193,30,171,27,194,59,035,,0,5*64,1606991755478
NMEA,$PQGSV,1,1,0,*73,1606991755478
NMEA,$GNGSA,A,3,03,04,08,09,16,22,27,,,,,,1.7,1.5,0.9,1*3E,1606991755479
NMEA,$GNGSA,A,2,65,71,72,,,,,,,,,,1.7,1.5,0.9,2*38,1606991755479
NMEA,$GNVTG,,T,,M,0.0,N,0.0,K,A*3D,1606991755479
NMEA,$GNRMC,103556.00,A,2255.527661,N,12017.680782,E,0.0,,031220,2.8,W,A*1C,1606991755480
NMEA,$GNGGA,103556.00,2255.527661,N,12017.680782,E,1,10,1.5,35.6,M,17.5,M,,*47,1606991755480
Raw,21260518,21265688000000,,,-1291005709086172928,0.0,4279.174841940403,-1.205043382107417,13.127452032876475,1713,1,0.0,207,48956700598855,21,26.3,-253.11410522460938,0.32770001888275146,0,0.0,0.0,,,,,0,,3,,
Raw,21260518,21265688000000,,,-1291005709086172928,0.0,4279.174841940403,-1.205043382107417,13.127452032876475,1713,21,0.0,207,48956700383534,21,26.4,-730.1611938476562,0.32770001888275146,0,0.0,0.0,,,,,0,,3,,
Raw,21260519,21265688000000,,,-1291005709086172928,0.0,4279.174841940403,-1.205043382107417,13.127452032876475,1713,7,0.0,207,48956700060450,11,33.5,723.7526245117188,0.24899999797344208,0,0.0,0.0,,,,,0,,3,,
Raw,21260519,21265688000000,,,-1291005709086172928,0.0,4279.174841940403,-1.205043382107417,13.127452032876475,1713,8,0.0,207,48956705068795,12,32.3,273.0629577636719,0.2289000004529953,0,0.0,0.0,,,,,0,,3,,
Raw,21260519,21265688000000,,,-1291005709086172928,0.0,4279.174841940403,-1.205043382107417,13.127452032876475,1713,3,0.0,15,383774692564689,24,25.2,296.7171325683594,0.19740000367164612,0,0.0,0.0,,,,,0,,1,,
Raw,21260519,21265688000000,,,-1291005709086172928,0.0,4279.174841940403,-1.205043382107417,13.127452032876475,1713,4,0.0,15,383774700702871,12,32.9,-424.6675109863281,0.05140000209212303,0,0.0,0.0,,,,,0,,1,,
Raw,21260519,21265688000000,,,-1291005709086172928,0.0,4279.174841940403,-1.205043382107417,13.127452032876475,1713,8,0.0,15,383774696879096,7,37.6,-682.6617431640625,0.03660000115633011,0,0.0,0.0,,,,,0,,1,,
Raw,21260520,21265688000000,,,-1291005709086172928,0.0,4279.174841940403,-1.205043382107417,13.127452032876475,1713,9,0.0,15,383774690105513,35,22.0,-634.6484375,0.7864999771118164,0,0.0,0.0,,,,,0,,1,,
Raw,21260520,21265688000000,,,-1291005709086172928,0.0,4279.174841940403,-1.205043382107417,13.127452032876475,1713,16,0.0,15,383774705017910,19,27.3,114.49978637695312,0.07110000401735306,0,0.0,0.0,,,,,0,,1,,
Raw,21260520,21265688000000,,,-1291005709086172928,0.0,4279.174841940403,-1.205043382107417,13.127452032876475,1713,22,0.0,15,383774691161243,10,34.5,288.90252685546875,0.03359999880194664,0,0.0,0.0,,,,,0,,1,,
Raw,21260520,21265688000000,,,-1291005709086172928,0.0,4279.174841940403,-1.205043382107417,13.127452032876475,1713,27,0.0,15,383774705063270,13,31.4,-428.51788330078125,0.031300000846385956,0,0.0,0.0,,,,,0,,1,,
Fix,gps,22.925461,120.294680,53.046570,0.000000,7.504000,1606991757000
NMEA,$GPGSV,3,1,11,03,12,253,25,04,39,310,33,08,23,203,38,09,04,322,22*79,1606991756476
NMEA,$GPGSV,3,2,11,16,57,324,27,22,10,232,35,27,57,185,31,18,08,077,*71,1606991756476
NMEA,$GPGSV,3,3,11,26,45,021,,31,39,081,,32,10,153,*49,1606991756476
NMEA,$GLGSV,3,1,09,75,00,000,29,65,25,306,26,85,25,158,26,71,24,198,34*67,1606991756476
NMEA,$GLGSV,3,2,09,72,43,255,32,74,36,005,,73,17,057,,84,41,088,*66,1606991756477
NMEA,$GLGSV,3,3,09,83,09,032,*5F,1606991756477
NMEA,$GAGSV,1,1,0,*74,1606991756477
NMEA,$PQGSV,1,1,03,193,30,171,26,195,56,122,23,194,59,035,,0,5*6A,1606991756477
NMEA,$PQGSV,1,1,0,*73,1606991756477
NMEA,$GNGSA,A,3,03,04,08,09,16,22,27,,,,,,1.7,1.5,0.9,1*3E,1606991756478
NMEA,$GNGSA,A,2,65,71,72,,,,,,,,,,1.7,1.5,0.9,2*38,1606991756478
NMEA,$GNVTG,,T,,M,0.0,N,0.0,K,A*3D,1606991756479
NMEA,$GNRMC,103557.00,A,2255.527661,N,12017.680786,E,0.0,,031220,2.8,W,A*19,1606991756479
NMEA,$GNGGA,103557.00,2255.527661,N,12017.680786,E,1,10,1.5,35.6,M,17.5,M,,*42,1606991756479
Raw,21261556,21266581000000,,,-1291005709085665280,0.0,4280.612803995609,-13.013562545178297,14.671889778417983,1714,1,0.0,207,48957593091917,19,27.1,-252.9049530029297,0.3832000195980072,0,0.0,0.0,,,,,0,,3,,
Raw,21261557,21266581000000,,,-1291005709085665280,0.0,4280.612803995609,-13.013562545178297,14.671889778417983,1714,21,0.0,207,48957592878209,35,22.8,-728.8549194335938,0.9294999837875366,0,0.0,0.0,,,,,0,,3,,
Raw,21261557,21266581000000,,,-1291005709085665280,0.0,4280.612803995609,-13.013562545178297,14.671889778417983,1714,7,0.0,207,48957592550564,8,36.8,723.8841552734375,0.2485000044107437,0,0.0,0.0,,,,,0,,3,,
Raw,21261558,21266581000000,,,-1291005709085665280,0.0,4280.612803995609,-13.013562545178297,14.671889778417983,1714,8,0.0,207,48957597560220,12,32.9,273.4205017089844,0.27400001883506775,0,0.0,0.0,,,,,0,,3,,
Raw,21261559,21266581000000,,,-1291005709085665280,0.0,4280.612803995609,-13.013562545178297,14.671889778417983,1714,3,0.0,15,383775585056014,21,26.1,297.3337097167969,0.2581999897956848,0,0.0,0.0,,,,,0,,1,,
Raw,21261559,21266581000000,,,-1291005709085665280,0.0,4280.612803995609,-13.013562545178297,14.671889778417983,1714,4,0.0,15,383775593196435,16,29.8,-424.6825866699219,0.09389999508857727,0,0.0,0.0,,,,,0,,1,,
Raw,21261560,21266581000000,,,-1291005709085665280,0.0,4280.612803995609,-13.013562545178297,14.671889778417983,1714,8,0.0,15,383775589373418,6,38.4,-682.4549560546875,0.03840000182390213,0,0.0,0.0,,,,,0,,1,,
Raw,21261561,21266581000000,,,-1291005709085665280,0.0,4280.612803995609,-13.013562545178297,14.671889778417983,1714,9,0.0,15,383775582599282,27,24.3,-634.4390869140625,0.6544999480247498,0,0.0,0.0,,,,,0,,1,,
Raw,21261562,21266581000000,,,-1291005709085665280,0.0,4280.612803995609,-13.013562545178297,14.671889778417983,1714,16,0.0,15,383775597509804,13,31.2,114.69523620605469,0.08060000091791153,0,0.0,0.0,,,,,0,,1,,
Raw,21261562,21266581000000,,,-1291005709085665280,0.0,4280.612803995609,-13.013562545178297,14.671889778417983,1714,22,0.0,15,383775583652678,6,38.0,289.2249755859375,0.029400000348687172,0,0.0,0.0,,,,,0,,1,,
Raw,21261563,21266581000000,,,-1291005709085665280,0.0,4280.612803995609,-13.013562545178297,14.671889778417983,1714,27,0.0,15,383775597556881,10,34.1,-428.5378723144531,0.0640999972820282,0,0.0,0.0,,,,,0,,1,,
Fix,gps,22.925461,120.294680,53.040222,0.000000,7.504000,1606991758000
NMEA,$GPGSV,3,1,11,03,12,253,26,04,39,310,30,08,23,203,38,09,04,322,24*7F,1606991757473
NMEA,$GPGSV,3,2,11,16,57,324,31,22,10,232,38,27,57,185,34,18,08,077,*7E,1606991757473
NMEA,$GPGSV,3,3,11,26,45,021,,31,39,081,,32,10,153,*49,1606991757474
NMEA,$GLGSV,3,1,09,75,00,000,29,65,25,306,27,85,25,158,23,71,24,198,37*60,1606991757474
NMEA,$GLGSV,3,2,09,72,43,255,33,74,36,005,,73,17,057,,84,41,088,*67,1606991757475
NMEA,$GLGSV,3,3,09,83,09,032,*5F,1606991757476
NMEA,$GAGSV,1,1,0,*74,1606991757476
NMEA,$PQGSV,1,1,02,195,56,122,23,194,59,035,,0,5*60,1606991757476
NMEA,$PQGSV,1,1,0,*73,1606991757476
NMEA,$GNGSA,A,3,03,04,08,09,16,22,27,,,,,,1.7,1.5,0.9,1*3E,1606991757477
NMEA,$GNGSA,A,2,65,71,72,,,,,,,,,,1.7,1.5,0.9,2*38,1606991757477
NMEA,$GNVTG,,T,,M,0.0,N,0.0,K,A*3D,1606991757477
NMEA,$GNRMC,103558.00,A,2255.527662,N,12017.680793,E,0.0,,031220,2.8,W,A*11,1606991757477
NMEA,$GNGGA,103558.00,2255.527662,N,12017.680793,E,1,10,1.5,35.6,M,17.5,M,,*4A,1606991757478
Raw,21262535,21267793000000,,,-1291005709084841216,0.0,4336.019046604633,-12.556277248883758,14.935556503867534,1715,1,0.0,207,48958804268664,21,26.9,-254.64149475097656,0.45669999718666077,0,0.0,0.0,,,,,0,,3,,
Raw,21262536,21267793000000,,,-1291005709084841216,0.0,4336.019046604633,-12.556277248883758,14.935556503867534,1715,7,0.0,207,48958803723596,12,32.2,721.9656982421875,0.25300002098083496,0,0.0,0.0,,,,,0,,3,,
Raw,21262536,21267793000000,,,-1291005709084841216,0.0,4336.019046604633,-12.556277248883758,14.935556503867534,1715,8,0.0,207,48958808735028,9,35.9,271.6359558105469,0.24650001525878906,0,0.0,0.0,,,,,0,,3,,
Raw,21262537,21267793000000,,,-1291005709084841216,0.0,4336.019046604633,-12.556277248883758,14.935556503867534,1715,3,0.0,15,383776796230672,27,24.9,294.84100341796875,0.6255000233650208,0,0.0,0.0,,,,,0,,1,,
Raw,21262537,21267793000000,,,-1291005709084841216,0.0,4336.019046604633,-12.556277248883758,14.935556503867534,1715,4,0.0,15,383776804374077,14,30.0,-426.609375,0.06949999928474426,0,0.0,0.0,,,,,0,,1,,
Raw,21262538,21267793000000,,,-1291005709084841216,0.0,4336.019046604633,-12.556277248883758,14.935556503867534,1715,8,0.0,15,383776800552032,13,31.3,-684.3570556640625,0.08510000258684158,0,0.0,0.0,,,,,0,,1,,
Raw,21262538,21267793000000,,,-1291005709084841216,0.0,4336.019046604633,-12.556277248883758,14.935556503867534,1715,9,0.0,15,383776793778037,19,27.2,-637.1412353515625,0.531000018119812,0,0.0,0.0,,,,,0,,1,,
Raw,21262539,21267793000000,,,-1291005709084841216,0.0,4336.019046604633,-12.556277248883758,14.935556503867534,1715,16,0.0,15,383776808685230,13,31.2,112.86378479003906,0.06709999591112137,0,0.0,0.0,,,,,0,,1,,
Raw,21262540,21267793000000,,,-1291005709084841216,0.0,4336.019046604633,-12.556277248883758,14.935556503867534,1715,22,0.0,15,383776794827373,6,38.2,287.0455017089844,0.045900002121925354,0,0.0,0.0,,,,,0,,1,,
Raw,21262540,21267793000000,,,-1291005709084841216,0.0,4336.019046604633,-12.556277248883758,14.935556503867534,1715,27,0.0,15,383776808734430,12,32.8,-430.36572265625,0.060499999672174454,0,0.0,0.0,,,,,0,,1,,
Fix,gps,22.925461,120.294680,53.029724,0.000000,7.504000,1606991759000
NMEA,$GPGSV,3,1,11,03,12,253,25,04,39,310,30,08,23,203,31,09,04,322,27*76,1606991758474
NMEA,$GPGSV,3,2,11,16,57,324,31,22,10,232,38,27,57,185,33,18,08,077,*79,1606991758474
NMEA,$GPGSV,3,3,11,26,45,021,,31,39,081,,32,10,153,*49,1606991758475
NMEA,$GLGSV,2,1,08,75,00,000,29,65,25,306,27,71,24,198,32,72,43,255,36*67,1606991758476
NMEA,$GLGSV,2,2,08,74,36,005,,73,17,057,,84,41,088,,83,09,032,*64,1606991758476
NMEA,$GAGSV,1,1,0,*74,1606991758476
NMEA,$PQGSV,1,1,03,195,56,122,23,193,30,171,,194,59,035,,0,5*6E,1606991758477
NMEA,$PQGSV,1,1,0,*73,1606991758477
NMEA,$GNGSA,A,3,03,04,08,09,16,22,27,,,,,,1.7,1.5,0.9,1*3E,1606991758478
NMEA,$GNGSA,A,2,65,71,72,,,,,,,,,,1.7,1.5,0.9,2*38,1606991758478
NMEA,$GNVTG,,T,,M,0.0,N,0.0,K,A*3D,1606991758478
NMEA,$GNRMC,103559.00,A,2255.527663,N,12017.680800,E,0.0,,031220,2.8,W,A*14,1606991758479
NMEA,$GNGGA,103559.00,2255.527663,N,12017.680800,E,1,10,1.5,35.6,M,17.5,M,,*4F,1606991758479
Fix,gps,22.925461,120.294680,53.029602,0.000000,7.504000,1606991760000
NMEA,$GPGSA,A,1,,,,,,,,,,,,,1.7,1.5,0.9,1*26,1606991759471
NMEA,$GPVTG,,T,,M,0.0,N,0.0,K,A*23,1606991759472
NMEA,$GPRMC,103600.00,A,2255.527664,N,12017.680804,E,0.0,,031220,2.8,W,A*06,1606991759474
NMEA,$GPGGA,103600.00,2255.527664,N,12017.680804,E,1,00,1.5,35.6,M,17.5,M,,*5C,1606991759474
Raw,21264596,21269698000000,,,-1291005709084238848,0.0,4255.136474967003,-14.921371911615866,10.120909367653432,1716,1,0.0,207,48960708667913,17,28.7,-252.50831604003906,0.25279998779296875,0,0.0,0.0,,,,,0,,3,,
Raw,21264598,21269698000000,,,-1291005709084238848,0.0,4255.136474967003,-14.921371911615866,10.120909367653432,1716,21,0.0,207,48960708458864,40,21.8,-730.1443481445312,0.9834999442100525,0,0.0,0.0,,,,,0,,3,,
Raw,21264599,21269698000000,,,-1291005709084238848,0.0,4255.136474967003,-14.921371911615866,10.120909367653432,1716,7,0.0,207,48960708116454,10,34.3,723.8516845703125,0.22910000383853912,0,0.0,0.0,,,,,0,,3,,
Raw,21264601,21269698000000,,,-1291005709084238848,0.0,4255.136474967003,-14.921371911615866,10.120909367653432,1716,8,0.0,207,48960713130819,9,35.8,273.6888427734375,0.2345000058412552,0,0.0,0.0,,,,,0,,3,,
Raw,21264603,21269698000000,,,-1291005709084238848,0.0,4255.136474967003,-14.921371911615866,10.120909367653432,1716,4,0.0,15,383778708774286,16,29.9,-424.5647277832031,0.04170000180602074,0,0.0,0.0,,,,,0,,1,,
Raw,21264606,21269698000000,,,-1291005709084238848,0.0,4255.136474967003,-14.921371911615866,10.120909367653432,1716,8,0.0,15,383778704953913,7,37.3,-682.4609375,0.01860000006854534,0,0.0,0.0,,,,,0,,1,,
Raw,21264608,21269698000000,,,-1291005709084238848,0.0,4255.136474967003,-14.921371911615866,10.120909367653432,1716,9,0.0,15,383778698178888,40,21.4,-635.7711791992188,0.8585000038146973,0,0.0,0.0,,,,,0,,1,,
Raw,21264611,21269698000000,,,-1291005709084238848,0.0,4255.136474967003,-14.921371911615866,10.120909367653432,1716,16,0.0,15,383778713081989,13,31.1,114.75569915771484,0.043299999088048935,0,0.0,0.0,,,,,0,,1,,
Raw,21264615,21269698000000,,,-1291005709084238848,0.0,4255.136474967003,-14.921371911615866,10.120909367653432,1716,22,0.0,15,383778699223095,6,39.1,288.8817138671875,0.03880000114440918,0,0.0,0.0,,,,,0,,1,,
Raw,21264617,21269698000000,,,-1291005709084238848,0.0,4255.136474967003,-14.921371911615866,10.120909367653432,1716,27,0.0,15,383778713134666,12,32.4,-428.25006103515625,0.04089999943971634,0,0.0,0.0,,,,,0,,1,,
Fix,gps,22.925461,120.294680,53.014038,0.000000,6.432000,1606991761000
NMEA,$GPGSV,3,1,11,04,39,310,30,08,23,203,37,09,04,322,21,16,57,324,31*77,1606991760482
NMEA,$GPGSV,3,2,11,22,10,232,39,27,57,185,32,03,12,253,,18,08,077,*7F,1606991760486
NMEA,$GPGSV,3,3,11,26,45,021,,31,39,081,,32,10,153,*49,1606991760487
NMEA,$GLGSV,3,1,09,75,00,000,29,65,25,306,29,85,25,158,22,71,24,198,34*6C,1606991760489
NMEA,$GLGSV,3,2,09,72,43,255,36,74,36,005,,73,17,057,,84,41,088,*62,1606991760493
NMEA,$GLGSV,3,3,09,83,09,032,*5F,1606991760494
NMEA,$GAGSV,1,1,0,*74,1606991760494
NMEA,$PQGSV,1,1,02,195,56,122,24,194,59,035,,0,5*67,1606991760495
NMEA,$PQGSV,1,1,0,*73,1606991760496
NMEA,$GNGSA,A,3,03,04,08,09,16,22,27,,,,,,1.7,1.5,0.9,1*3E,1606991760504
NMEA,$GNGSA,A,2,65,71,72,,,,,,,,,,1.7,1.5,0.9,2*38,1606991760505
NMEA,$GNVTG,,T,,M,0.0,N,0.0,K,A*3D,1606991760505
NMEA,$GNRMC,103601.00,A,2255.527664,N,12017.680810,E,0.0,,031220,2.8,W,A*1C,1606991760506
NMEA,$GNGGA,103601.00,2255.527664,N,12017.680810,E,1,10,1.5,35.5,M,17.5,M,,*44,1606991760506
NMEA,$GPGSV,3,1,10,04,39,310,31,08,23,203,37,09,04,322,21,16,57,324,31*77,1606991761483
Raw,21265593,21270691000000,,,-1291005709083475200,0.0,4254.976753145456,-12.653193896941033,10.665993440836525,1717,1,0.0,207,48961700905254,21,26.8,-251.36318969726562,0.32770001888275146,0,0.0,0.0,,,,,0,,3,,
Raw,21265596,21270691000000,,,-1291005709083475200,0.0,4254.976753145456,-12.653193896941033,10.665993440836525,1717,21,0.0,207,48961700697719,46,20.6,-729.032470703125,1.0614999532699585,0,0.0,0.0,,,,,0,,3,,
Raw,21265598,21270691000000,,,-1291005709083475200,0.0,4254.976753145456,-12.653193896941033,10.665993440836525,1717,7,0.0,207,48961700350596,11,33.3,724.8643798828125,0.24899999797344208,0,0.0,0.0,,,,,0,,3,,
Raw,21265602,21270691000000,,,-1291005709083475200,0.0,4254.976753145456,-12.653193896941033,10.665993440836525,1717,8,0.0,207,48961705366432,8,36.2,275.0436706542969,0.22150000929832458,0,0.0,0.0,,,,,0,,3,,
Raw,21265605,21270691000000,,,-1291005709083475200,0.0,4254.976753145456,-12.653193896941033,10.665993440836525,1717,4,0.0,15,383779701012239,14,30.9,-423.1853332519531,0.05829999968409538,0,0.0,0.0,,,,,0,,1,,
Raw,21265607,21270691000000,,,-1291005709083475200,0.0,4254.976753145456,-12.653193896941033,10.665993440836525,1717,8,0.0,15,383779697192695,7,37.1,-681.3997192382812,0.038100000470876694,0,0.0,0.0,,,,,0,,1,,
Raw,21265609,21270691000000,,,-1291005709083475200,0.0,4254.976753145456,-12.653193896941033,10.665993440836525,1717,9,0.0,15,383779690418384,40,21.3,-633.4495849609375,0.8464999794960022,0,0.0,0.0,,,,,0,,1,,
Raw,21265613,21270691000000,,,-1291005709083475200,0.0,4254.976753145456,-12.653193896941033,10.665993440836525,1717,16,0.0,15,383779705318151,13,31.0,116.00252532958984,0.031300000846385956,0,0.0,0.0,,,,,0,,1,,
Raw,21265615,21270691000000,,,-1291005709083475200,0.0,4254.976753145456,-12.653193896941033,10.665993440836525,1717,22,0.0,15,383779691458661,6,39.3,290.0448303222656,0.02680000104010105,0,0.0,0.0,,,,,0,,1,,
Raw,21265618,21270691000000,,,-1291005709083475200,0.0,4254.976753145456,-12.653193896941033,10.665993440836525,1717,27,0.0,15,383779705372622,13,31.9,-426.732666015625,0.031300000846385956,0,0.0,0.0,,,,,0,,1,,
Fix,gps,22.925461,120.294680,53.005188,0.000000,6.432000,1606991762000
NMEA,$GPGSV,3,2,10,22,10,232,39,27,57,185,32,03,12,253,,26,45,021,*79,1606991761484
NMEA,$GPGSV,3,3,10,31,39,081,,32,10,153,*7E,1606991761490
NMEA,$GLGSV,3,1,09,75,00,000,29,65,25,306,27,85,25,158,21,71,24,198,33*66,1606991761491
NMEA,$GLGSV,3,2,09,72,43,255,36,74,36,005,,73,17,057,,84,41,088,*62,1606991761492
NMEA,$GLGSV,3,3,09,83,09,032,*5F,1606991761493
NMEA,$GAGSV,1,1,0,*74,1606991761494
NMEA,$PQGSV,1,1,03,195,56,122,24,193,30,171,,194,59,035,,0,5*69,1606991761495
NMEA,$PQGSV,1,1,0,*73,1606991761503
NMEA,$GNGSA,A,3,03,04,08,09,16,22,27,,,,,,1.7,1.5,0.9,1*3E,1606991761506
NMEA,$GNGSA,A,2,65,71,72,,,,,,,,,,1.7,1.5,0.9,2*38,1606991761506
NMEA,$GNVTG,,T,,M,0.0,N,0.0,K,A*3D,1606991761506
NMEA,$GNRMC,103602.00,A,2255.527665,N,12017.680815,E,0.0,,031220,2.8,W,A*1B,1606991761507
NMEA,$GNGGA,103602.00,2255.527665,N,12017.680815,E,1,10,1.5,35.5,M,17.5,M,,*43,1606991761508
Raw,21266560,21271684000000,,,-1291005709083231488,0.0,4246.0160329937935,-9.094968730529063,13.432077205856046,1718,1,0.0,207,48962693662491,19,27.2,-250.64077758789062,0.2831000089645386,0,0.0,0.0,,,,,0,,3,,
Raw,21266561,21271684000000,,,-1291005709083231488,0.0,4246.0160329937935,-9.094968730529063,13.432077205856046,1718,21,0.0,207,48962693456746,31,23.2,-729.20068359375,0.8709999918937683,0,0.0,0.0,,,,,0,,3,,
Raw,21266561,21271684000000,,,-1291005709083231488,0.0,4246.0160329937935,-9.094968730529063,13.432077205856046,1718,7,0.0,207,48962693104571,11,33.9,725.4739379882812,0.23849999904632568,0,0.0,0.0,,,,,0,,3,,
Raw,21266562,21271684000000,,,-1291005709083231488,0.0,4246.0160329937935,-9.094968730529063,13.432077205856046,1718,8,0.0,207,48962698121859,9,35.2,275.5061950683594,0.242000013589859,0,0.0,0.0,,,,,0,,3,,
Raw,21266562,21271684000000,,,-1291005709083231488,0.0,4246.0160329937935,-9.094968730529063,13.432077205856046,1718,3,0.0,15,383780685617213,35,22.3,299.8552551269531,0.7789999842643738,0,0.0,0.0,,,,,0,,1,,
Raw,21266563,21271684000000,,,-1291005709083231488,0.0,4246.0160329937935,-9.094968730529063,13.432077205856046,1718,4,0.0,15,383780693770022,14,30.7,-422.84619140625,0.046300001442432404,0,0.0,0.0,,,,,0,,1,,
Raw,21266563,21271684000000,,,-1291005709083231488,0.0,4246.0160329937935,-9.094968730529063,13.432077205856046,1718,8,0.0,15,383780689951340,7,37.3,-680.8168334960938,0.026100000366568565,0,0.0,0.0,,,,,0,,1,,
Raw,21266564,21271684000000,,,-1291005709083231488,0.0,4246.0160329937935,-9.094968730529063,13.432077205856046,1718,9,0.0,15,383780683175996,35,22.3,-633.4591064453125,0.7759999632835388,0,0.0,0.0,,,,,0,,1,,
Raw,21266564,21271684000000,,,-1291005709083231488,0.0,4246.0160329937935,-9.094968730529063,13.432077205856046,1718,16,0.0,15,383780698074129,14,30.7,116.42301177978516,0.05380000174045563,0,0.0,0.0,,,,,0,,1,,
Raw,21266565,21271684000000,,,-1291005709083231488,0.0,4246.0160329937935,-9.094968730529063,13.432077205856046,1718,22,0.0,15,383780684214091,6,39.7,290.561279296875,0.016300000250339508,0,0.0,0.0,,,,,0,,1,,
Raw,21266565,21271684000000,,,-1291005709083231488,0.0,4246.0160329937935,-9.094968730529063,13.432077205856046,1718,27,0.0,15,383780698130445,12,32.4,-426.510498046875,0.04839999973773956,0,0.0,0.0,,,,,0,,1,,
Fix,gps,22.925461,120.294680,52.987488,0.000000,6.432000,1606991763000
NMEA,$GPGSV,3,1,11,03,12,253,22,04,39,310,31,08,23,203,37,09,04,322,22*73,1606991762482
NMEA,$GPGSV,3,2,11,16,57,324,31,22,10,232,40,27,57,185,32,18,08,077,*77,1606991762483
NMEA,$GPGSV,3,3,11,26,45,021,,31,39,081,,32,10,153,*49,1606991762484
NMEA,$GLGSV,3,1,09,75,00,000,29,65,25,306,27,85,25,158,23,71,24,198,34*63,1606991762484
NMEA,$GLGSV,3,2,09,72,43,255,35,74,36,005,,73,17,057,,84,41,088,*61,1606991762488
NMEA,$GLGSV,3,3,09,83,09,032,*5F,1606991762489
NMEA,$GAGSV,1,1,0,*74,1606991762491
NMEA,$PQGSV,1,1,03,195,56,122,23,193,30,171,,194,59,035,,0,5*6E,1606991762492
NMEA,$PQGSV,1,1,0,*73,1606991762493
NMEA,$GNGSA,A,3,03,04,08,09,16,22,27,,,,,,1.7,1.5,0.9,1*3E,1606991762496
NMEA,$GNGSA,A,2,65,71,72,,,,,,,,,,1.7,1.5,0.9,2*38,1606991762497
NMEA,$GNVTG,,T,,M,0.0,N,0.0,K,A*3D,1606991762498
NMEA,$GNRMC,103603.00,A,2255.527667,N,12017.680822,E,0.0,,031220,2.8,W,A*1C,1606991762499
NMEA,$GNGGA,103603.00,2255.527667,N,12017.680822,E,1,10,1.5,35.5,M,17.5,M,,*44,1606991762500
Raw,21267577,21272695000000,,,-1291005709082254848,0.0,4254.522733390331,-7.590825374739478,12.847921881678772,1719,1,0.0,207,48963703686819,21,26.7,-250.2932891845703,0.3022000193595886,0,0.0,0.0,,,,,0,,3,,
Raw,21267578,21272695000000,,,-1291005709082254848,0.0,4254.522733390331,-7.590825374739478,12.847921881678772,1719,21,0.0,207,48963703482588,35,22.9,-727.2945556640625,0.9159999489784241,0,0.0,0.0,,,,,0,,3,,
Raw,21267578,21272695000000,,,-1291005709082254848,0.0,4254.522733390331,-7.590825374739478,12.847921881678772,1719,7,0.0,207,48963703125596,11,33.1,725.7042846679688,0.22349999845027924,0,0.0,0.0,,,,,0,,3,,
Raw,21267578,21272695000000,,,-1291005709082254848,0.0,4254.522733390331,-7.590825374739478,12.847921881678772,1719,8,0.0,207,48963708144450,8,36.1,275.8903503417969,0.22600001096725464,0,0.0,0.0,,,,,0,,3,,
Raw,21267579,21272695000000,,,-1291005709082254848,0.0,4254.522733390331,-7.590825374739478,12.847921881678772,1719,4,0.0,15,383781703794885,13,31.6,-422.4888916015625,0.028300000354647636,0,0.0,0.0,,,,,0,,1,,
Raw,21267579,21272695000000,,,-1291005709082254848,0.0,4254.522733390331,-7.590825374739478,12.847921881678772,1719,8,0.0,15,383781699977100,7,37.7,-680.6199340820312,0.04110000282526016,0,0.0,0.0,,,,,0,,1,,
Raw,21267580,21272695000000,,,-1291005709082254848,0.0,4254.522733390331,-7.590825374739478,12.847921881678772,1719,9,0.0,15,383781693201809,35,22.6,-632.6408081054688,0.7310000061988831,0,0.0,0.0,,,,,0,,1,,
Raw,21267580,21272695000000,,,-1291005709082254848,0.0,4254.522733390331,-7.590825374739478,12.847921881678772,1719,16,0.0,15,383781708097162,14,30.7,116.74566650390625,0.03880000114440918,0,0.0,0.0,,,,,0,,1,,
Raw,21267580,21272695000000,,,-1291005709082254848,0.0,4254.522733390331,-7.590825374739478,12.847921881678772,1719,22,0.0,15,383781694236582,6,38.7,290.65765380859375,0.03220000118017197,0,0.0,0.0,,,,,0,,1,,
Raw,21267581,21272695000000,,,-1291005709082254848,0.0,4254.522733390331,-7.590825374739478,12.847921881678772,1719,27,0.0,15,383781708155314,11,33.0,-426.10577392578125,0.03100000135600567,0,0.0,0.0,,,,,0,,1,,
Fix,gps,22.925461,120.294680,52.979187,0.000000,6.432000,1606991764000
NMEA,$GPGSV,3,1,10,04,39,310,32,08,23,203,38,09,04,322,23,16,57,324,31*79,1606991763474
NMEA,$GPGSV,3,2,10,22,10,232,39,27,57,185,33,18,08,077,,26,45,021,*7D,1606991763474
NMEA,$GPGSV,3,3,10,31,39,081,,32,10,153,*7E,1606991763475
NMEA,$GLGSV,3,1,09,75,00,000,29,65,25,306,27,85,25,158,23,71,24,198,33*64,1606991763476
NMEA,$GLGSV,3,2,09,72,43,255,36,74,36,005,,73,17,057,,84,41,088,*62,1606991763479
NMEA,$GLGSV,3,3,09,83,09,032,*5F,1606991763479
NMEA,$GAGSV,1,1,0,*74,1606991763479
NMEA,$PQGSV,1,1,03,195,56,122,24,193,30,171,,194,59,035,,0,5*69,1606991763480
NMEA,$PQGSV,1,1,0,*73,1606991763480
NMEA,$GNGSA,A,3,04,08,09,16,22,27,,,,,,,1.7,1.5,0.9,1*3D,1606991763481
NMEA,$GNGSA,A,2,65,71,72,,,,,,,,,,1.7,1.5,0.9,2*38,1606991763481
NMEA,$GNVTG,,T,,M,0.0,N,0.0,K,A*3D,1606991763481
NMEA,$GNRMC,103604.00,A,2255.527666,N,12017.680826,E,0.0,,031220,2.8,W,A*1E,1606991763481
NMEA,$GNGGA,103604.00,2255.527666,N,12017.680826,E,1,09,1.5,35.5,M,17.5,M,,*4E,1606991763481
Fix,gps,22.925461,120.294681,52.978455,0.000000,6.432000,1606991765000
Raw,21269160,21273689000000,,,-1291005709081526272,0.0,4263.752140104771,-7.464377639886888,11.609159872380149,1720,1,0.0,207,48964696958845,17,28.4,-249.2696990966797,0.2648000121116638,0,0.0,0.0,,,,,0,,3,,
Raw,21269163,21273689000000,,,-1291005709081526272,0.0,4263.752140104771,-7.464377639886888,11.609159872380149,1720,21,0.0,207,48964696756172,31,23.0,-727.5000610351562,0.875499963760376,0,0.0,0.0,,,,,0,,3,,
Raw,21269165,21273689000000,,,-1291005709081526272,0.0,4263.752140104771,-7.464377639886888,11.609159872380149,1720,7,0.0,207,48964696394362,11,33.3,726.66748046875,0.24300000071525574,0,0.0,0.0,,,,,0,,3,,
Raw,21269167,21273689000000,,,-1291005709081526272,0.0,4263.752140104771,-7.464377639886888,11.609159872380149,1720,8,0.0,207,48964701414728,8,36.0,276.93804931640625,0.24550001323223114,0,0.0,0.0,,,,,0,,3,,
Raw,21269171,21273689000000,,,-1291005709081526272,0.0,4263.752140104771,-7.464377639886888,11.609159872380149,1720,4,0.0,15,383782697067432,13,31.1,-421.517578125,0.049300000071525574,0,0.0,0.0,,,,,0,,1,,
Raw,21269173,21273689000000,,,-1291005709081526272,0.0,4263.752140104771,-7.464377639886888,11.609159872380149,1720,8,0.0,15,383782693250510,7,37.4,-679.6397705078125,0.032099999487400055,0,0.0,0.0,,,,,0,,1,,
Raw,21269175,21273689000000,,,-1291005709081526272,0.0,4263.752140104771,-7.464377639886888,11.609159872380149,1720,9,0.0,15,383782686474647,35,22.3,-631.6893310546875,0.7804999947547913,0,0.0,0.0,,,,,0,,1,,
Raw,21269177,21273689000000,,,-1291005709081526272,0.0,4263.752140104771,-7.464377639886888,11.609159872380149,1720,16,0.0,15,383782701368004,14,30.4,117.6246337890625,0.05829999968409538,0,0.0,0.0,,,,,0,,1,,
Raw,21269180,21273689000000,,,-1291005709081526272,0.0,4263.752140104771,-7.464377639886888,11.609159872380149,1720,22,0.0,15,383782687506768,6,39.3,291.5895690917969,0.020800000056624413,0,0.0,0.0,,,,,0,,1,,
Raw,21269180,21273689000000,,,-1291005709081526272,0.0,4263.752140104771,-7.464377639886888,11.609159872380149,1720,27,0.0,15,383782701427906,11,33.7,-425.14459228515625,0.05050000175833702,0,0.0,0.0,,,,,0,,1,,
NMEA,$GPGSV,3,1,11,04,39,310,31,08,23,203,37,09,04,322,22,16,57,324,30*74,1606991764485
NMEA,$GPGSV,3,2,11,22,10,232,39,27,57,185,34,03,12,253,,18,08,077,*79,1606991764491
NMEA,$GPGSV,3,3,11,26,45,021,,31,39,081,,32,10,153,*49,1606991764491
NMEA,$GLGSV,3,1,09,75,00,000,29,65,25,306,28,85,25,158,23,71,24,198,33*6B,1606991764492
NMEA,$GLGSV,3,2,09,72,43,255,36,74,36,005,,73,17,057,,84,41,088,*62,1606991764493
NMEA,$GLGSV,3,3,09,83,09,032,*5F,1606991764493
NMEA,$GAGSV,1,1,0,*74,1606991764494
NMEA,$PQGSV,1,1,03,195,56,122,23,193,30,171,,194,59,035,,0,5*6E,1606991764496
NMEA,$PQGSV,1,1,0,*73,1606991764498
NMEA,$GNGSA,A,3,03,04,08,09,16,22,27,,,,,,1.7,1.5,0.9,1*3E,1606991764500
NMEA,$GNGSA,A,2,65,71,72,,,,,,,,,,1.7,1.5,0.9,2*38,1606991764501
NMEA,$GNVTG,,T,,M,0.0,N,0.0,K,A*3D,1606991764502
NMEA,$GNRMC,103605.00,A,2255.527665,N,12017.680840,E,0.0,,031220,2.8,W,A*1C,1606991764503
NMEA,$GNGGA,103605.00,2255.527665,N,12017.680840,E,1,10,1.5,35.5,M,17.5,M,,*44,1606991764504
Raw,21269567,21274701000000,,,-1291005709080557568,0.0,4249.738063663244,-4.520724825004152,11.754445375603744,1721,1,0.0,207,48965707990946,16,29.0,-250.0552520751953,0.2401999980211258,0,0.0,0.0,,,,,0,,3,,
Raw,21269568,21274701000000,,,-1291005709080557568,0.0,4249.738063663244,-4.520724825004152,11.754445375603744,1721,21,0.0,207,48965707790083,27,24.3,-727.8551635742188,0.812000036239624,0,0.0,0.0,,,,,0,,3,,
Raw,21269569,21274701000000,,,-1291005709080557568,0.0,4249.738063663244,-4.520724825004152,11.754445375603744,1721,7,0.0,207,48965707423176,10,34.0,725.7445068359375,0.22759999334812164,0,0.0,0.0,,,,,0,,3,,
Raw,21269569,21274701000000,,,-1291005709080557568,0.0,4249.738063663244,-4.520724825004152,11.754445375603744,1721,8,0.0,207,48965712445067,9,35.3,276.1490173339844,0.2330000102519989,0,0.0,0.0,,,,,0,,3,,
Raw,21269570,21274701000000,,,-1291005709080557568,0.0,4249.738063663244,-4.520724825004152,11.754445375603744,1721,4,0.0,15,383783708100177,13,31.6,-422.4010314941406,0.03579999879002571,0,0.0,0.0,,,,,0,,1,,
Raw,21269570,21274701000000,,,-1291005709080557568,0.0,4249.738063663244,-4.520724825004152,11.754445375603744,1721,8,0.0,15,383783704284124,7,37.4,-680.5195922851562,0.01860000006854534,0,0.0,0.0,,,,,0,,1,,
Raw,21269571,21274701000000,,,-1291005709080557568,0.0,4249.738063663244,-4.520724825004152,11.754445375603744,1721,9,0.0,15,383783697509140,40,21.8,-632.3649291992188,0.796999990940094,0,0.0,0.0,,,,,0,,1,,
Raw,21269571,21274701000000,,,-1291005709080557568,0.0,4249.738063663244,-4.520724825004152,11.754445375603744,1721,16,0.0,15,383783712398887,13,31.6,116.77659606933594,0.04179999977350235,0,0.0,0.0,,,,,0,,1,,
Raw,21269572,21274701000000,,,-1291005709080557568,0.0,4249.738063663244,-4.520724825004152,11.754445375603744,1721,22,0.0,15,383783698537104,6,38.8,290.6149597167969,0.038200002163648605,0,0.0,0.0,,,,,0,,1,,
Raw,21269572,21274701000000,,,-1291005709080557568,0.0,4249.738063663244,-4.520724825004152,11.754445375603744,1721,27,0.0,15,383783712460646,12,32.9,-425.9708557128906,0.039400000125169754,0,0.0,0.0,,,,,0,,1,,
Raw,21269573,21274701000000,,,-1291005709080557568,0.0,4249.738063663244,-4.520724825004152,11.754445375603744,1721,31,0.0,15,383783707204854,46,20.7,222.38670349121094,0.8420000076293945,0,0.0,0.0,,,,,0,,1,,
Fix,gps,22.925461,120.294681,52.969238,0.000000,5.360000,1606991766000
NMEA,$GPGSV,3,1,11,04,39,310,32,08,23,203,37,09,04,322,22,16,57,324,32*75,1606991765476
NMEA,$GPGSV,3,2,11,22,10,232,39,27,57,185,33,31,39,081,21,03,12,253,*7D,1606991765481
NMEA,$GPGSV,3,3,11,18,08,077,,26,45,021,,32,10,153,*49,1606991765481
NMEA,$GLGSV,3,1,09,75,00,000,29,65,25,306,29,85,25,158,24,71,24,198,34*6A,1606991765481
NMEA,$GLGSV,3,2,09,72,43,255,35,74,36,005,,73,17,057,,84,41,088,*61,1606991765481
NMEA,$GLGSV,3,3,09,83,09,032,*5F,1606991765481
NMEA,$GAGSV,1,1,0,*74,1606991765481
NMEA,$PQGSV,1,1,02,193,30,171,,194,59,035,,0,5*61,1606991765482
NMEA,$PQGSV,1,1,0,*73,1606991765482
NMEA,$GNGSA,A,3,03,04,08,09,16,22,27,,,,,,1.2,0.9,0.8,1*37,1606991765482
NMEA,$GNGSA,A,2,65,71,72,,,,,,,,,,1.2,0.9,0.8,2*31,1606991765483
NMEA,$GNVTG,,T,,M,0.0,N,0.0,K,A*3D,1606991765483
NMEA,$GNRMC,103606.00,A,2255.527665,N,12017.680847,E,0.0,,031220,2.8,W,A*18,1606991765483
NMEA,$GNGGA,103606.00,2255.527665,N,12017.680847,E,1,10,0.9,35.5,M,17.5,M,,*4D,1606991765483
Fix,gps,22.925461,120.294681,52.967773,0.000000,5.360000,1606991767000
Raw,21270630,21275694000000,,,-1291005709079584768,0.0,4236.12492159009,-7.31627684979567,12.61910347692197,1722,1,0.0,207,48966700018845,16,29.3,-249.33551025390625,0.2597000002861023,0,0.0,0.0,,,,,0,,3,,
Raw,21270632,21275694000000,,,-1291005709079584768,0.0,4236.12492159009,-7.31627684979567,12.61910347692197,1722,21,0.0,207,48966699819420,24,25.8,-727.5439453125,0.40790000557899475,0,0.0,0.0,,,,,0,,3,,
Raw,21270635,21275694000000,,,-1291005709079584768,0.0,4236.12492159009,-7.31627684979567,12.61910347692197,1722,7,0.0,207,48966699447847,11,33.5,726.3004760742188,0.2475000023841858,0,0.0,0.0,,,,,0,,3,,
Raw,21270637,21275694000000,,,-1291005709079584768,0.0,4236.12492159009,-7.31627684979567,12.61910347692197,1722,8,0.0,207,48966704471250,8,36.1,276.8870544433594,0.2200000137090683,0,0.0,0.0,,,,,0,,3,,
Raw,21270640,21275694000000,,,-1291005709079584768,0.0,4236.12492159009,-7.31627684979567,12.61910347692197,1722,4,0.0,15,383784700128631,11,33.2,-421.72576904296875,0.049000002443790436,0,0.0,0.0,,,,,0,,1,,
Raw,21270642,21275694000000,,,-1291005709079584768,0.0,4236.12492159009,-7.31627684979567,12.61910347692197,1722,8,0.0,15,383784696313440,7,37.7,-679.9293823242188,0.03660000115633011,0,0.0,0.0,,,,,0,,1,,
Raw,21270645,21275694000000,,,-1291005709079584768,0.0,4236.12492159009,-7.31627684979567,12.61910347692197,1722,9,0.0,15,383784689538243,31,23.0,-632.3268432617188,0.7249999642372131,0,0.0,0.0,,,,,0,,1,,
Raw,21270647,21275694000000,,,-1291005709079584768,0.0,4236.12492159009,-7.31627684979567,12.61910347692197,1722,16,0.0,15,383784704425547,13,31.9,117.46687316894531,0.02979999966919422,0,0.0,0.0,,,,,0,,1,,
Raw,21270651,21275694000000,,,-1291005709079584768,0.0,4236.12492159009,-7.31627684979567,12.61910347692197,1722,22,0.0,15,383784690563193,6,39.2,291.20989990234375,0.025299999862909317,0,0.0,0.0,,,,,0,,1,,
Raw,21270654,21275694000000,,,-1291005709079584768,0.0,4236.12492159009,-7.31627684979567,12.61910347692197,1722,27,0.0,15,383784704489118,11,33.6,-425.2554931640625,0.02500000037252903,0,0.0,0.0,,,,,0,,1,,
NMEA,$GPGSV,3,1,10,04,39,310,33,08,23,203,38,09,04,322,23,16,57,324,32*7B,1606991766481
NMEA,$GPGSV,3,2,10,22,10,232,39,27,57,185,34,03,12,253,,18,08,077,*78,1606991766482
NMEA,$GPGSV,3,3,10,26,45,021,,32,10,153,*79,1606991766482
NMEA,$GLGSV,3,1,09,75,00,000,29,65,25,306,29,85,25,158,26,71,24,198,34*68,1606991766486
NMEA,$GLGSV,3,2,09,72,43,255,36,74,36,005,,73,17,057,,84,41,088,*62,1606991766486
NMEA,$GLGSV,3,3,09,83,09,032,*5F,1606991766487
NMEA,$GAGSV,1,1,0,*74,1606991766490
NMEA,$PQGSV,1,1,03,193,30,171,,194,59,035,,195,56,122,,0,5*6F,1606991766490
NMEA,$PQGSV,1,1,0,*73,1606991766491
NMEA,$GNGSA,A,3,03,04,08,09,16,22,27,,,,,,1.2,0.9,0.8,1*37,1606991766494
NMEA,$GNGSA,A,2,65,71,72,,,,,,,,,,1.2,0.9,0.8,2*31,1606991766494
NMEA,$GNVTG,,T,,M,0.0,N,0.0,K,A*3D,1606991766496
NMEA,$GNRMC,103607.00,A,2255.527664,N,12017.680850,E,0.0,,031220,2.8,W,A*1E,1606991766497
NMEA,$GNGGA,103607.00,2255.527664,N,12017.680850,E,1,10,0.9,35.5,M,17.5,M,,*4B,1606991766497
Raw,21271561,21276688000000,,,-1291005709079055104,0.0,4231.593571603298,-5.473024635652636,12.526179128321038,1723,1,0.0,207,48967693490186,17,28.9,-248.8800048828125,0.26030001044273376,0,0.0,0.0,,,,,0,,3,,
Raw,21271561,21276688000000,,,-1291005709079055104,0.0,4231.593571603298,-5.473024635652636,12.526179128321038,1723,21,0.0,207,48967693292446,27,24.4,-727.0983276367188,0.8210000395774841,0,0.0,0.0,,,,,0,,3,,
Raw,21271562,21276688000000,,,-1291005709079055104,0.0,4231.593571603298,-5.473024635652636,12.526179128321038,1723,7,0.0,207,48967692915934,11,33.1,726.6929321289062,0.2370000034570694,0,0.0,0.0,,,,,0,,3,,
Raw,21271562,21276688000000,,,-1291005709079055104,0.0,4231.593571603298,-5.473024635652636,12.526179128321038,1723,8,0.0,207,48967697940835,9,35.0,277.3031921386719,0.24050000309944153,0,0.0,0.0,,,,,0,,3,,
Raw,21271563,21276688000000,,,-1291005709079055104,0.0,4231.593571603298,-5.473024635652636,12.526179128321038,1723,4,0.0,15,383785693600572,12,32.3,-421.2872009277344,0.04089999943971634,0,0.0,0.0,,,,,0,,1,,
Raw,21271563,21276688000000,,,-1291005709079055104,0.0,4231.593571603298,-5.473024635652636,12.526179128321038,1723,8,0.0,15,383785689786249,7,37.6,-679.5321044921875,0.026100000366568565,0,0.0,0.0,,,,,0,,1,,
Raw,21271564,21276688000000,,,-1291005709079055104,0.0,4231.593571603298,-5.473024635652636,12.526179128321038,1723,9,0.0,15,383785683011000,35,22.2,-631.9557495117188,0.7759999632835388,0,0.0,0.0,,,,,0,,1,,
Raw,21271564,21276688000000,,,-1291005709079055104,0.0,4231.593571603298,-5.473024635652636,12.526179128321038,1723,16,0.0,15,383785697895732,14,30.4,117.8376693725586,0.05230000242590904,0,0.0,0.0,,,,,0,,1,,
Raw,21271565,21276688000000,,,-1291005709079055104,0.0,4231.593571603298,-5.473024635652636,12.526179128321038,1723,22,0.0,15,383785684032777,6,39.2,291.5354309082031,0.016300000250339508,0,0.0,0.0,,,,,0,,1,,
Raw,21271565,21276688000000,,,-1291005709079055104,0.0,4231.593571603298,-5.473024635652636,12.526179128321038,1723,27,0.0,15,383785697961071,11,33.2,-424.84454345703125,0.04450000077486038,0,0.0,0.0,,,,,0,,1,,
Fix,gps,22.925461,120.294681,52.963196,0.000000,5.360000,1606991768000
NMEA,$GPGSV,3,1,10,04,39,310,32,08,23,203,38,09,04,322,22,16,57,324,30*79,1606991767482
NMEA,$GPGSV,3,2,10,22,10,232,39,27,57,185,33,18,08,077,,26,45,021,*7D,1606991767482
NMEA,$GPGSV,3,3,10,31,39,081,,32,10,153,*7E,1606991767490
NMEA,$GLGSV,3,1,09,75,00,000,29,65,25,306,29,85,25,158,24,71,24,198,33*6D,1606991767491
NMEA,$GLGSV,3,2,09,72,43,255,35,74,36,005,,73,17,057,,84,41,088,*61,1606991767492
NMEA,$GLGSV,3,3,09,83,09,032,*5F,1606991767493
NMEA,$GAGSV,1,1,0,*74,1606991767493
NMEA,$PQGSV,1,1,03,193,30,171,,194,59,035,,195,56,122,,0,5*6F,1606991767494
NMEA,$PQGSV,1,1,0,*73,1606991767495
NMEA,$GNGSA,A,3,04,08,09,16,22,27,31,,,,,,1.2,0.9,0.8,1*36,1606991767498
NMEA,$GNGSA,A,2,65,71,72,,,,,,,,,,1.2,0.9,0.8,2*31,1606991767498
NMEA,$GNVTG,,T,,M,0.0,N,0.0,K,A*3D,1606991767499
NMEA,$GNRMC,103608.00,A,2255.527664,N,12017.680852,E,0.0,,031220,2.8,W,A*13,1606991767499
NMEA,$GNGGA,103608.00,2255.527664,N,12017.680852,E,1,10,0.9,35.5,M,17.5,M,,*46,1606991767500
Raw,21272596,21277699000000,,,-1291005709078980608,0.0,4232.802893966436,-4.03291911511675,12.661102149091214,1724,1,0.0,207,48968704416929,17,28.6,-250.02734375,0.2468000054359436,0,0.0,0.0,,,,,0,,3,,
Raw,21272598,21277699000000,,,-1291005709078980608,0.0,4232.802893966436,-4.03291911511675,12.661102149091214,1724,21,0.0,207,48968704220610,27,24.5,-728.2662963867188,0.8075000047683716,0,0.0,0.0,,,,,0,,3,,
Raw,21272599,21277699000000,,,-1291005709078980608,0.0,4232.802893966436,-4.03291911511675,12.661102149091214,1724,7,0.0,207,48968703839402,11,33.3,725.4163818359375,0.22349999845027924,0,0.0,0.0,,,,,0,,3,,
Raw,21272601,21277699000000,,,-1291005709078980608,0.0,4232.802893966436,-4.03291911511675,12.661102149091214,1724,8,0.0,207,48968708865711,9,35.4,276.1574401855469,0.22700001299381256,0,0.0,0.0,,,,,0,,3,,
Raw,21272603,21277699000000,,,-1291005709078980608,0.0,4232.802893966436,-4.03291911511675,12.661102149091214,1724,3,0.0,15,383786696360501,40,21.3,298.9323425292969,0.8554999828338623,0,0.0,0.0,,,,,0,,1,,
Raw,21272606,21277699000000,,,-1291005709078980608,0.0,4232.802893966436,-4.03291911511675,12.661102149091214,1724,4,0.0,15,383786704527821,12,32.3,-422.46575927734375,0.027400000020861626,0,0.0,0.0,,,,,0,,1,,
Raw,21272609,21277699000000,,,-1291005709078980608,0.0,4232.802893966436,-4.03291911511675,12.661102149091214,1724,8,0.0,15,383786700714389,7,37.5,-680.8890991210938,0.04260000213980675,0,0.0,0.0,,,,,0,,1,,
Raw,21272612,21277699000000,,,-1291005709078980608,0.0,4232.802893966436,-4.03291911511675,12.661102149091214,1724,9,0.0,15,383786693937983,35,22.7,-633.5542602539062,0.7310000061988831,0,0.0,0.0,,,,,0,,1,,
Raw,21272614,21277699000000,,,-1291005709078980608,0.0,4232.802893966436,-4.03291911511675,12.661102149091214,1724,16,0.0,15,383786708821183,13,31.4,116.56468963623047,0.03579999879002571,0,0.0,0.0,,,,,0,,1,,
Raw,21272617,21277699000000,,,-1291005709078980608,0.0,4232.802893966436,-4.03291911511675,12.661102149091214,1724,22,0.0,15,383786694957647,6,39.5,290.15972900390625,0.031300000846385956,0,0.0,0.0,,,,,0,,1,,
Raw,21272619,21277699000000,,,-1291005709078980608,0.0,4232.802893966436,-4.03291911511675,12.661102149091214,1724,27,0.0,15,383786708888328,11,33.4,-426.0324401855469,0.03100000135600567,0,0.0,0.0,,,,,0,,1,,
Raw,21272620,21277699000000,,,-1291005709078980608,0.0,4232.802893966436,-4.03291911511675,12.661102149091214,1724,31,0.0,15,383786703626191,35,22.7,222.22496032714844,0.715999960899353,0,0.0,0.0,,,,,0,,1,,
Fix,gps,22.925461,120.294681,52.945923,0.000000,5.360000,1606991769000
NMEA,$GPGSV,3,1,11,03,12,253,21,04,39,310,32,08,23,203,38,09,04,322,23*7D,1606991768487
NMEA,$GPGSV,3,2,11,16,57,324,31,22,10,232,40,27,57,185,33,31,39,081,23*77,1606991768488
NMEA,$GPGSV,3,3,11,18,08,077,,26,45,021,,32,10,153,*49,1606991768489
NMEA,$GLGSV,3,1,09,75,00,000,29,65,25,306,29,85,25,158,25,71,23,196,33*65,1606991768494
NMEA,$GLGSV,3,2,09,72,43,255,35,74,36,005,,73,17,057,,84,41,088,*61,1606991768494
NMEA,$GLGSV,3,3,09,83,09,032,*5F,1606991768496
NMEA,$GAGSV,1,1,0,*74,1606991768497
NMEA,$PQGSV,1,1,03,193,30,171,,194,59,035,,195,56,122,,0,5*6F,1606991768497
NMEA,$PQGSV,1,1,0,*73,1606991768498
NMEA,$GNGSA,A,3,03,04,08,09,16,22,27,31,,,,,1.2,0.9,0.8,1*35,1606991768501
NMEA,$GNGSA,A,2,65,71,72,,,,,,,,,,1.2,0.9,0.8,2*31,1606991768501
NMEA,$GNVTG,,T,,M,0.0,N,0.0,K,A*3D,1606991768502
NMEA,$GNRMC,103609.00,A,2255.527664,N,12017.680857,E,0.0,,031220,2.8,W,A*17,1606991768503
NMEA,$GNGGA,103609.00,2255.527664,N,12017.680857,E,1,11,0.9,35.5,M,17.5,M,,*43,1606991768503
Raw,21273577,21278692000000,,,-1291005709078558976,0.0,4238.333087414503,-9.311098462412163,12.571321537492459,1725,1,0.0,207,48969696995628,17,28.6,-247.94070434570312,0.2648000121116638,0,0.0,0.0,,,,,0,,3,,
Raw,21273578,21278692000000,,,-1291005709078558976,0.0,4238.333087414503,-9.311098462412163,12.571321537492459,1725,21,0.0,207,48969696801074,27,24.4,-726.0238037109375,0.8255000114440918,0,0.0,0.0,,,,,0,,3,,
Raw,21273579,21278692000000,,,-1291005709078558976,0.0,4238.333087414503,-9.311098462412163,12.571321537492459,1725,7,0.0,207,48969696414898,11,33.3,727.64013671875,0.24300000071525574,0,0.0,0.0,,,,,0,,3,,
Raw,21273579,21278692000000,,,-1291005709078558976,0.0,4238.333087414503,-9.311098462412163,12.571321537492459,1725,8,0.0,207,48969701442710,9,35.4,278.2025451660156,0.24650001525878906,0,0.0,0.0,,,,,0,,3,,
Raw,21273581,21278692000000,,,-1291005709078558976,0.0,4238.333087414503,-9.311098462412163,12.571321537492459,1725,4,0.0,15,383787697107142,12,32.2,-420.4631652832031,0.04690000042319298,0,0.0,0.0,,,,,0,,1,,
Raw,21273582,21278692000000,,,-1291005709078558976,0.0,4238.333087414503,-9.311098462412163,12.571321537492459,1725,8,0.0,15,383787693294555,7,37.2,-678.779296875,0.032099999487400055,0,0.0,0.0,,,,,0,,1,,
Raw,21273583,21278692000000,,,-1291005709078558976,0.0,4238.333087414503,-9.311098462412163,12.571321537492459,1725,9,0.0,15,383787686518902,40,21.9,-630.8045043945312,0.7804999947547913,0,0.0,0.0,,,,,0,,1,,
Raw,21273585,21278692000000,,,-1291005709078558976,0.0,4238.333087414503,-9.311098462412163,12.571321537492459,1725,16,0.0,15,383787701398735,13,31.1,118.30620574951172,0.05530000105500221,0,0.0,0.0,,,,,0,,1,,
Raw,21273586,21278692000000,,,-1291005709078558976,0.0,4238.333087414503,-9.311098462412163,12.571321537492459,1725,22,0.0,15,383787687534592,6,39.7,292.2449035644531,0.020800000056624413,0,0.0,0.0,,,,,0,,1,,
Raw,21273587,21278692000000,,,-1291005709078558976,0.0,4238.333087414503,-9.311098462412163,12.571321537492459,1725,27,0.0,15,383787701467652,12,32.8,-424.0426940917969,0.05290000140666962,0,0.0,0.0,,,,,0,,1,,
Fix,gps,22.925461,120.294681,52.929260,0.000000,6.432000,1606991770000
NMEA,$GPGSV,3,1,09,04,39,310,32,08,23,203,37,09,04,322,22,16,57,324,31*7F,1606991769475
NMEA,$GPGSV,3,2,09,22,10,232,40,27,57,185,33,18,08,077,,26,45,021,*7B,1606991769477
NMEA,$GPGSV,3,3,09,32,10,153,*47,1606991769477
NMEA,$GLGSV,3,1,09,75,00,000,29,65,25,306,29,85,25,158,24,71,23,196,33*64,1606991769478
NMEA,$GLGSV,3,2,09,72,43,255,35,74,36,005,,73,17,057,,84,41,088,*61,1606991769479
NMEA,$GLGSV,3,3,09,83,09,032,*5F,1606991769480
NMEA,$GAGSV,1,1,0,*74,1606991769481
NMEA,$PQGSV,1,1,03,193,30,171,,194,59,035,,195,56,122,,0,5*6F,1606991769481
NMEA,$PQGSV,1,1,0,*73,1606991769482
NMEA,$GNGSA,A,3,04,08,09,16,22,27,,,,,,,1.2,0.9,0.8,1*34,1606991769483
