# 
# Header Description:
# 
# Version: v2.0.0.1 Platform: 8.0.0 Manufacturer: Sony Model: G8142
# 
# Raw,ElapsedRealtimeMillis,TimeNanos,LeapSecond,TimeUncertaintyNanos,FullBiasNanos,BiasNanos,BiasUncertaintyNanos,DriftNanosPerSecond,DriftUncertaintyNanosPerSecond,HardwareClockDiscontinuityCount,Svid,TimeOffsetNanos,State,ReceivedSvTimeNanos,ReceivedSvTimeUncertaintyNanos,Cn0DbHz,PseudorangeRateMetersPerSecond,PseudorangeRateUncertaintyMetersPerSecond,AccumulatedDeltaRangeState,AccumulatedDeltaRangeMeters,AccumulatedDeltaRangeUncertaintyMeters,CarrierFrequencyHz,CarrierCycles,CarrierPhase,CarrierPhaseUncertainty,MultipathIndicator,SnrInDb,ConstellationType,AgcDb,CarrierFrequencyHz
# 
# Fix,Provider,Latitude,Longitude,Altitude,Speed,Accuracy,(UTC)TimeInMs
# 
# Nav,Svid,Type,Status,MessageId,Sub-messageId,Data(Bytes)
# 
NMEA,$GPGSV,3,1,12,03,10,247,24,04,43,305,25,08,28,205,30,09,09,319,31*70,1606992579474
Raw,22083631,22089004000000,,,-1291005708766590208,0.0,4216.635599732399,0.07455446510115792,11.629701923168476,2349,1,0.0,207,49779697534754,46,20.9,-128.00311279296875,1.056999921798706,0,0.0,0.0,,,,,0,,3,,
Raw,22083631,22089004000000,,,-1291005708766590208,0.0,4216.635599732399,0.07455446510115792,11.629701923168476,2349,21,0.0,207,49779698745854,19,27.5,-687.2612915039062,0.2906000018119812,0,0.0,0.0,,,,,0,,3,,
Raw,22083631,22089004000000,,,-1291005708766590208,0.0,4216.635599732399,0.07455446510115792,11.629701923168476,2349,7,0.0,207,49779694460181,12,32.1,738.69970703125,0.24240000545978546,0,0.0,0.0,,,,,0,,3,,
Raw,22083631,22089004000000,,,-1291005708766590208,0.0,4216.635599732399,0.07455446510115792,11.629701923168476,2349,8,0.0,207,49779700577624,27,24.1,381.7399597167969,0.8314999938011169,0,0.0,0.0,,,,,0,,3,,
Raw,22083631,22089004000000,,,-1291005708766590208,0.0,4216.635599732399,0.07455446510115792,11.629701923168476,2349,3,0.0,15,384597688125225,27,24.4,320.8636779785156,0.6634999513626099,0,0.0,0.0,,,,,0,,1,,
Raw,22083631,22089004000000,,,-1291005708766590208,0.0,4216.635599732399,0.07455446510115792,11.629701923168476,2349,4,0.0,15,384597698166867,27,24.6,-340.13092041015625,0.6285000443458557,0,0.0,0.0,,,,,0,,1,,
Raw,22083632,22089004000000,,,-1291005708766590208,0.0,4216.635599732399,0.07455446510115792,11.629701923168476,2349,8,0.0,15,384597695106607,16,29.7,-638.0564575195312,0.05220000073313713,0,0.0,0.0,,,,,0,,1,,
Raw,22083632,22089004000000,,,-1291005708766590208,0.0,4216.635599732399,0.07455446510115792,11.629701923168476,2349,9,0.0,15,384597688208355,13,31.3,-594.8847045898438,0.03579999879002571,0,0.0,0.0,,,,,0,,1,,
Raw,22083632,22089004000000,,,-1291005708766590208,0.0,4216.635599732399,0.07455446510115792,11.629701923168476,2349,16,0.0,15,384597701049423,17,28.7,161.0084228515625,0.0723000019788742,0,0.0,0.0,,,,,0,,1,,
Raw,22083632,22089004000000,,,-1291005708766590208,0.0,4216.635599732399,0.07455446510115792,11.629701923168476,2349,22,0.0,15,384597686788936,35,22.2,281.8439636230469,0.7804999947547913,0,0.0,0.0,,,,,0,,1,,
Raw,22083632,22089004000000,,,-1291005708766590208,0.0,4216.635599732399,0.07455446510115792,11.629701923168476,2349,27,0.0,15,384597702520771,9,35.9,-331.6346740722656,0.018000001087784767,0,0.0,0.0,,,,,0,,1,,
Fix,gps,22.925459,120.294679,46.128723,0.000000,5.360000,1606992580000
NMEA,$GPGSV,3,2,12,11,00,000,26,16,55,336,29,22,07,226,22,27,64,185,36*7A,1606992579476
NMEA,$GPGSV,3,3,12,18,09,073,,26,40,028,,31,37,088,,32,04,153,*70,1606992579479
NMEA,$GLGSV,2,1,08,75,00,000,28,65,27,298,21,85,32,154,28,71,17,194,32*6B,1606992579483
NMEA,$GLGSV,2,2,08,72,39,246,24,74,36,015,,84,42,077,,83,05,028,*68,1606992579483
NMEA,$GAGSV,1,1,0,*74,1606992579483
NMEA,$PQGSV,1,1,03,193,28,171,,194,59,036,,195,58,119,,0,5*63,1606992579485
NMEA,$PQGSV,1,1,0,*73,1606992579485
NMEA,$GNGSA,A,3,03,04,08,09,16,22,27,,,,,,1.7,1.5,0.9,1*3E,1606992579486
NMEA,$GNGSA,A,2,65,71,72,,,,,,,,,,1.7,1.5,0.9,2*38,1606992579486
NMEA,$GNVTG,,T,,M,0.0,N,0.0,K,A*3D,1606992579486
NMEA,$GNRMC,104940.00,A,2255.527542,N,12017.680729,E,0.0,,031220,2.8,W,A*13,1606992579487
NMEA,$GNGGA,104940.00,2255.527542,N,12017.680729,E,1,10,1.5,28.7,M,17.5,M,,*45,1606992579487
Raw,22084517,22089914000000,,,-1291005708766259200,0.0,4233.432002365589,0.0028866876019248344,10.535182806617897,2350,1,0.0,207,49780607204198,24,25.0,-127.87968444824219,1.371000051498413,0,0.0,0.0,,,,,0,,3,,
Raw,22084517,22089914000000,,,-1291005708766259200,0.0,4233.432002365589,0.0028866876019248344,10.535182806617897,2350,21,0.0,207,49780608416921,16,29.9,-686.81787109375,0.2863999903202057,0,0.0,0.0,,,,,0,,3,,
Raw,22084518,22089914000000,,,-1291005708766259200,0.0,4233.432002365589,0.0028866876019248344,10.535182806617897,2350,7,0.0,207,49780604126889,12,32.9,739.2610473632812,0.25450000166893005,0,0.0,0.0,,,,,0,,3,,
Raw,22084518,22089914000000,,,-1291005708766259200,0.0,4233.432002365589,0.0028866876019248344,10.535182806617897,2350,8,0.0,207,49780610245496,14,30.9,382.5297546386719,0.2784999907016754,0,0.0,0.0,,,,,0,,3,,
Raw,22084518,22089914000000,,,-1291005708766259200,0.0,4233.432002365589,0.0028866876019248344,10.535182806617897,2350,4,0.0,15,384598607836904,21,26.8,-338.69390869140625,0.2612000107765198,0,0.0,0.0,,,,,0,,1,,
Raw,22084518,22089914000000,,,-1291005708766259200,0.0,4233.432002365589,0.0028866876019248344,10.535182806617897,2350,8,0.0,15,384598604777515,17,28.1,-637.5215454101562,0.10339999943971634,0,0.0,0.0,,,,,0,,1,,
Raw,22084518,22089914000000,,,-1291005708766259200,0.0,4233.432002365589,0.0028866876019248344,10.535182806617897,2350,9,0.0,15,384598597879153,13,31.2,-594.40087890625,0.08060000091791153,0,0.0,0.0,,,,,0,,1,,
Raw,22084518,22089914000000,,,-1291005708766259200,0.0,4233.432002365589,0.0028866876019248344,10.535182806617897,2350,16,0.0,15,384598610717896,21,26.7,161.4081573486328,0.26570001244544983,0,0.0,0.0,,,,,0,,1,,
Raw,22084519,22089914000000,,,-1291005708766259200,0.0,4233.432002365589,0.0028866876019248344,10.535182806617897,2350,22,0.0,15,384598596457007,19,27.6,281.0227355957031,0.18770000338554382,0,0.0,0.0,,,,,0,,1,,
Raw,22084519,22089914000000,,,-1291005708766259200,0.0,4233.432002365589,0.0028866876019248344,10.535182806617897,2350,27,0.0,15,384598612190788,9,35.7,-331.0428161621094,0.05250000208616257,0,0.0,0.0,,,,,0,,1,,
Fix,gps,22.925458,120.294678,46.244995,0.000000,5.360000,1606992581000
NMEA,$GPGSV,3,1,11,04,43,305,27,08,28,205,28,09,09,319,31,11,00,000,26*79,1606992580475
NMEA,$GPGSV,3,2,11,16,55,336,27,22,07,226,28,27,64,185,36,18,09,073,*7D,1606992580475
NMEA,$GPGSV,3,3,11,26,40,028,,31,37,088,,32,04,153,*47,1606992580475
NMEA,$GLGSV,3,1,09,75,00,000,28,65,27,298,25,85,32,154,30,71,17,194,33*67,1606992580475
NMEA,$GLGSV,3,2,09,72,39,246,31,74,36,015,,73,15,066,,84,42,077,*68,1606992580475
NMEA,$GLGSV,3,3,09,83,05,028,*58,1606992580476
NMEA,$GAGSV,1,1,0,*74,1606992580476
NMEA,$PQGSV,1,1,03,193,28,171,,194,59,036,,195,58,119,,0,5*63,1606992580476
NMEA,$PQGSV,1,1,0,*73,1606992580476
NMEA,$GNGSA,A,3,04,08,09,16,22,27,,,,,,,1.7,1.5,0.9,1*3D,1606992580477
NMEA,$GNGSA,A,2,65,71,72,,,,,,,,,,1.7,1.5,0.9,2*38,1606992580477
NMEA,$GNVTG,,T,,M,0.0,N,0.0,K,A*3D,1606992580477
NMEA,$GNRMC,104941.00,A,2255.527489,N,12017.680685,E,0.0,,031220,2.8,W,A*13,1606992580478
NMEA,$GNGGA,104941.00,2255.527489,N,12017.680685,E,1,09,1.5,28.8,M,17.5,M,,*42,1606992580478
Raw,22085565,22091109000000,,,-1291005708765562112,0.0,4281.368106603622,1.823553357677135,12.86013895423821,2351,21,0.0,207,49781802722535,12,32.9,-687.7112426757812,0.2515000104904175,0,0.0,0.0,,,,,0,,3,,
Raw,22085565,22091109000000,,,-1291005708765562112,0.0,4281.368106603622,1.823553357677135,12.86013895423821,2351,7,0.0,207,49781798426743,11,33.9,738.1395874023438,0.2702000141143799,0,0.0,0.0,,,,,0,,3,,
Raw,22085566,22091109000000,,,-1291005708765562112,0.0,4281.368106603622,1.823553357677135,12.86013895423821,2351,8,0.0,207,49781804546761,9,35.0,381.6289367675781,0.24050001800060272,0,0.0,0.0,,,,,0,,3,,
Raw,22085566,22091109000000,,,-1291005708765562112,0.0,4281.368106603622,1.823553357677135,12.86013895423821,2351,4,0.0,15,384599802141019,16,29.6,-340.34185791015625,0.10740000009536743,0,0.0,0.0,,,,,0,,1,,
Raw,22085566,22091109000000,,,-1291005708765562112,0.0,4281.368106603622,1.823553357677135,12.86013895423821,2351,8,0.0,15,384599799082868,21,26.3,-638.5609741210938,0.27920001745224,0,0.0,0.0,,,,,0,,1,,
Raw,22085566,22091109000000,,,-1291005708765562112,0.0,4281.368106603622,1.823553357677135,12.86013895423821,2351,9,0.0,15,384599792184314,14,30.4,-595.4274291992188,0.08150000125169754,0,0.0,0.0,,,,,0,,1,,
Raw,22085566,22091109000000,,,-1291005708765562112,0.0,4281.368106603622,1.823553357677135,12.86013895423821,2351,16,0.0,15,384599805020061,10,34.0,160.5153045654297,0.04609999805688858,0,0.0,0.0,,,,,0,,1,,
Raw,22085567,22091109000000,,,-1291005708765562112,0.0,4281.368106603622,1.823553357677135,12.86013895423821,2351,22,0.0,15,384599790758738,13,31.6,279.75115966796875,0.07010000199079514,0,0.0,0.0,,,,,0,,1,,
Raw,22085567,22091109000000,,,-1291005708765562112,0.0,4281.368106603622,1.823553357677135,12.86013895423821,2351,27,0.0,15,384599806494943,6,38.3,-332.04705810546875,0.033900000154972076,0,0.0,0.0,,,,,0,,1,,
Fix,gps,22.925457,120.294677,46.344238,0.000000,5.360000,1606992582000
NMEA,$GPGSV,3,1,12,04,43,305,30,08,28,205,26,09,09,319,30,11,00,000,26*73,1606992581474
NMEA,$GPGSV,3,2,12,16,55,336,34,22,07,226,32,27,64,185,38,03,10,247,*7E,1606992581474
NMEA,$GPGSV,3,3,12,18,09,073,,26,40,028,,31,37,088,,32,04,153,*70,1606992581474
NMEA,$GLGSV,2,1,08,75,00,000,28,85,32,154,33,71,17,194,34,72,39,246,35*68,1606992581474
NMEA,$GLGSV,2,2,08,74,36,015,,73,15,066,,84,42,077,,83,05,028,*61,1606992581475
NMEA,$GAGSV,1,1,0,*74,1606992581475
NMEA,$PQGSV,1,1,03,193,28,171,,194,59,036,,195,58,119,,0,5*63,1606992581476
NMEA,$PQGSV,1,1,0,*73,1606992581476
NMEA,$GNGSA,A,3,03,04,08,09,16,22,27,,,,,,1.7,1.5,0.9,1*3E,1606992581477
NMEA,$GNGSA,A,2,71,72,,,,,,,,,,,1.7,1.5,0.9,2*3B,1606992581477
NMEA,$GNVTG,,T,,M,0.0,N,0.0,K,A*3D,1606992581477
NMEA,$GNRMC,104942.00,A,2255.527449,N,12017.680647,E,0.0,,031220,2.8,W,A*12,1606992581477
NMEA,$GNGGA,104942.00,2255.527449,N,12017.680647,E,1,09,1.5,28.9,M,17.5,M,,*42,1606992581477
Raw,22086616,22092101000000,,,-1291005708764923648,0.0,4244.844429194927,-2.4882722112571103,8.69395258876326,2352,21,0.0,207,49782794086696,11,33.2,-685.0055541992188,0.26420000195503235,0,0.0,0.0,,,,,0,,3,,
Raw,22086617,22092101000000,,,-1291005708764923648,0.0,4244.844429194927,-2.4882722112571103,8.69395258876326,2352,7,0.0,207,49782789786310,11,33.2,740.7822875976562,0.2567000091075897,0,0.0,0.0,,,,,0,,3,,
Raw,22086617,22092101000000,,,-1291005708764923648,0.0,4244.844429194927,-2.4882722112571103,8.69395258876326,2352,8,0.0,207,49782795907383,9,35.0,384.3185729980469,0.25699999928474426,0,0.0,0.0,,,,,0,,3,,
Raw,22086617,22092101000000,,,-1291005708764923648,0.0,4244.844429194927,-2.4882722112571103,8.69395258876326,2352,4,0.0,15,384600793504104,16,29.9,-337.5562744140625,0.09389999508857727,0,0.0,0.0,,,,,0,,1,,
Raw,22086617,22092101000000,,,-1291005708764923648,0.0,4244.844429194927,-2.4882722112571103,8.69395258876326,2352,8,0.0,15,384600790446889,19,27.1,-635.832275390625,0.17870000004768372,0,0.0,0.0,,,,,0,,1,,
Raw,22086618,22092101000000,,,-1291005708764923648,0.0,4244.844429194927,-2.4882722112571103,8.69395258876326,2352,9,0.0,15,384600783548200,14,30.3,-592.6576538085938,0.06799999624490738,0,0.0,0.0,,,,,0,,1,,
Raw,22086618,22092101000000,,,-1291005708764923648,0.0,4244.844429194927,-2.4882722112571103,8.69395258876326,2352,16,0.0,15,384600796381386,10,34.1,163.18922424316406,0.06260000169277191,0,0.0,0.0,,,,,0,,1,,
Raw,22086618,22092101000000,,,-1291005708764923648,0.0,4244.844429194927,-2.4882722112571103,8.69395258876326,2352,22,0.0,15,384600782119728,16,29.5,282.3818359375,0.10740000009536743,0,0.0,0.0,,,,,0,,1,,
Raw,22086618,22092101000000,,,-1291005708764923648,0.0,4244.844429194927,-2.4882722112571103,8.69395258876326,2352,27,0.0,15,384600797857934,6,38.2,-329.2562255859375,0.05040000006556511,0,0.0,0.0,,,,,0,,1,,
Fix,gps,22.925457,120.294677,46.358704,0.000000,5.360000,1606992583000
NMEA,$GPGSV,3,1,12,04,43,305,30,08,28,205,27,09,09,319,30,11,00,000,26*72,1606992582481
NMEA,$GPGSV,3,2,12,16,55,336,34,22,07,226,30,27,64,185,38,03,10,247,*7C,1606992582482
NMEA,$GPGSV,3,3,12,18,09,073,,26,40,028,,31,37,088,,32,04,153,*70,1606992582483
NMEA,$GLGSV,3,1,09,75,00,000,28,85,32,154,33,71,17,194,33,72,39,246,35*6F,1606992582483
NMEA,$GLGSV,3,2,09,74,36,015,,73,15,066,,65,27,298,,84,42,077,*60,1606992582484
NMEA,$GLGSV,3,3,09,83,05,028,*58,1606992582485
NMEA,$GAGSV,1,1,0,*74,1606992582486
NMEA,$PQGSV,1,1,03,193,28,171,,194,59,036,,195,58,119,,0,5*63,1606992582487
Raw,22087536,22093114000000,,,-1291005708764604928,0.0,4255.329258739948,6.696321256230578,11.579749667958811,2353,21,0.0,207,49783806770032,10,34.3,-685.414794921875,0.2476000040769577,0,0.0,0.0,,,,,0,,3,,
Raw,22087536,22093114000000,,,-1291005708764604928,0.0,4255.329258739948,6.696321256230578,11.579749667958811,2353,7,0.0,207,49783802464779,10,34.6,740.3638916015625,0.27160000801086426,0,0.0,0.0,,,,,0,,3,,
Raw,22087536,22093114000000,,,-1291005708764604928,0.0,4255.329258739948,6.696321256230578,11.579749667958811,2353,8,0.0,207,49783808587122,10,34.8,383.96502685546875,0.25060001015663147,0,0.0,0.0,,,,,0,,3,,
Raw,22087536,22093114000000,,,-1291005708764604928,0.0,4255.329258739948,6.696321256230578,11.579749667958811,2353,4,0.0,15,384601806186307,14,30.2,-337.90203857421875,0.07249999791383743,0,0.0,0.0,,,,,0,,1,,
Raw,22087537,22093114000000,,,-1291005708764604928,0.0,4255.329258739948,6.696321256230578,11.579749667958811,2353,8,0.0,15,384601803130098,19,27.2,-636.0252075195312,0.16820000112056732,0,0.0,0.0,,,,,0,,1,,
Raw,22087537,22093114000000,,,-1291005708764604928,0.0,4255.329258739948,6.696321256230578,11.579749667958811,2353,9,0.0,15,384601796231248,14,30.9,-592.9814453125,0.08749999850988388,0,0.0,0.0,,,,,0,,1,,
Raw,22087537,22093114000000,,,-1291005708764604928,0.0,4255.329258739948,6.696321256230578,11.579749667958811,2353,16,0.0,15,384601809061913,11,33.5,162.7921905517578,0.056700002402067184,0,0.0,0.0,,,,,0,,1,,
Raw,22087537,22093114000000,,,-1291005708764604928,0.0,4255.329258739948,6.696321256230578,11.579749667958811,2353,22,0.0,15,384601794799811,19,27.9,282.0035400390625,0.18470001220703125,0,0.0,0.0,,,,,0,,1,,
Raw,22087537,22093114000000,,,-1291005708764604928,0.0,4255.329258739948,6.696321256230578,11.579749667958811,2353,27,0.0,15,384601810540099,6,38.6,-329.568115234375,0.039900001138448715,0,0.0,0.0,,,,,0,,1,,
NMEA,$PQGSV,1,1,0,*73,1606992582487
NMEA,$GNGSA,A,3,03,04,08,09,16,22,27,,,,,,1.7,1.5,0.9,1*3E,1606992582488
NMEA,$GNGSA,A,2,65,71,72,,,,,,,,,,1.7,1.5,0.9,2*38,1606992582488
NMEA,$GNVTG,,T,,M,0.0,N,0.0,K,A*3D,1606992582488
NMEA,$GNRMC,104943.00,A,2255.527422,N,12017.680628,E,0.0,,031220,2.8,W,A*17,1606992582488
NMEA,$GNGGA,104943.00,2255.527422,N,12017.680628,E,1,10,1.5,28.9,M,17.5,M,,*4F,1606992582488
Fix,gps,22.925457,120.294677,46.372559,0.000000,5.360000,1606992584000
NMEA,$GPGSV,3,1,12,04,43,305,30,08,28,205,27,09,09,319,31,11,00,000,26*73,1606992583473
NMEA,$GPGSV,3,2,12,16,55,336,34,22,07,226,28,27,64,185,39,03,10,247,*74,1606992583473
NMEA,$GPGSV,3,3,12,18,09,073,,26,40,028,,31,37,088,,32,04,153,*70,1606992583473
NMEA,$GLGSV,3,1,09,75,00,000,28,85,32,154,34,71,17,194,35,72,39,246,35*6E,1606992583473
NMEA,$GLGSV,3,2,09,74,36,015,,73,15,066,,65,27,298,,84,42,077,*60,1606992583474
NMEA,$GLGSV,3,3,09,83,05,028,*58,1606992583474
NMEA,$GAGSV,1,1,0,*74,1606992583474
NMEA,$PQGSV,1,1,03,193,28,171,,194,59,036,,195,58,119,,0,5*63,1606992583475
NMEA,$PQGSV,1,1,0,*73,1606992583475
NMEA,$GNGSA,A,3,03,04,08,09,16,22,27,,,,,,1.7,1.5,0.9,1*3E,1606992583476
NMEA,$GNGSA,A,2,65,71,72,,,,,,,,,,1.7,1.5,0.9,2*38,1606992583476
NMEA,$GNVTG,,T,,M,0.0,N,0.0,K,A*3D,1606992583477
NMEA,$GNRMC,104944.00,A,2255.527407,N,12017.680618,E,0.0,,031220,2.8,W,A*14,1606992583477
NMEA,$GNGGA,104944.00,2255.527407,N,12017.680618,E,1,10,1.5,28.9,M,17.5,M,,*4C,1606992583477
Raw,22088536,22094103000000,,,-1291005708763896320,0.0,4236.890003085136,5.603418543792554,8.823035082201283,2354,21,0.0,207,49784795063748,10,34.3,-686.1929931640625,0.26109999418258667,0,0.0,0.0,,,,,0,,3,,
Raw,22088536,22094103000000,,,-1291005708763896320,0.0,4236.890003085136,5.603418543792554,8.823035082201283,2354,7,0.0,207,49784790753907,10,34.9,739.4999389648438,0.25360000133514404,0,0.0,0.0,,,,,0,,3,,
Raw,22088536,22094103000000,,,-1291005708763896320,0.0,4236.890003085136,5.603418543792554,8.823035082201283,2354,8,0.0,207,49784796877382,10,34.8,383.3636169433594,0.26260000467300415,0,0.0,0.0,,,,,0,,3,,
Raw,22088537,22094103000000,,,-1291005708763896320,0.0,4236.890003085136,5.603418543792554,8.823035082201283,2354,3,0.0,15,384602784426015,31,23.5,321.48211669921875,0.6574999690055847,0,0.0,0.0,,,,,0,,1,,
Raw,22088537,22094103000000,,,-1291005708763896320,0.0,4236.890003085136,5.603418543792554,8.823035082201283,2354,4,0.0,15,384602794478907,16,29.9,-338.6432189941406,0.09539999812841415,0,0.0,0.0,,,,,0,,1,,
Raw,22088537,22094103000000,,,-1291005708763896320,0.0,4236.890003085136,5.603418543792554,8.823035082201283,2354,8,0.0,15,384602791423747,19,27.8,-637.09765625,0.1802000105381012,0,0.0,0.0,,,,,0,,1,,
Raw,22088537,22094103000000,,,-1291005708763896320,0.0,4236.890003085136,5.603418543792554,8.823035082201283,2354,9,0.0,15,384602784524731,14,30.8,-593.874267578125,0.06949999928474426,0,0.0,0.0,,,,,0,,1,,
Raw,22088538,22094103000000,,,-1291005708763896320,0.0,4236.890003085136,5.603418543792554,8.823035082201283,2354,16,0.0,15,384602797352916,12,32.9,162.03160095214844,0.07400000095367432,0,0.0,0.0,,,,,0,,1,,
Raw,22088538,22094103000000,,,-1291005708763896320,0.0,4236.890003085136,5.603418543792554,8.823035082201283,2354,22,0.0,15,384602783090402,14,30.3,281.05914306640625,0.06799999624490738,0,0.0,0.0,,,,,0,,1,,
Raw,22088538,22094103000000,,,-1291005708763896320,0.0,4236.890003085136,5.603418543792554,8.823035082201283,2354,27,0.0,15,384602798832695,6,38.6,-330.2841796875,0.051899999380111694,0,0.0,0.0,,,,,0,,1,,
Fix,gps,22.925457,120.294677,46.372314,0.000000,5.360000,1606992585000
NMEA,$GPGSV,3,1,12,03,10,247,24,04,43,305,30,08,28,205,28,09,09,319,31*7D,1606992584474
NMEA,$GPGSV,3,2,12,11,00,000,26,16,55,336,33,22,07,226,30,27,64,185,39*7D,1606992584474
NMEA,$GPGSV,3,3,12,18,09,073,,26,40,028,,31,37,088,,32,04,153,*70,1606992584474
NMEA,$GLGSV,3,1,09,75,00,000,28,85,32,154,34,71,17,194,35,72,39,246,35*6E,1606992584475
NMEA,$GLGSV,3,2,09,74,36,015,,73,15,066,,65,27,298,,84,42,077,*60,1606992584476
NMEA,$GLGSV,3,3,09,83,05,028,*58,1606992584476
NMEA,$GAGSV,1,1,0,*74,1606992584476
NMEA,$PQGSV,1,1,03,193,28,171,,194,59,036,,195,58,119,,0,5*63,1606992584476
NMEA,$PQGSV,1,1,0,*73,1606992584476
NMEA,$GNGSA,A,3,03,04,08,09,16,22,27,,,,,,1.7,1.5,0.9,1*3E,1606992584477
NMEA,$GNGSA,A,2,65,71,72,,,,,,,,,,1.7,1.5,0.9,2*38,1606992584477
NMEA,$GNVTG,,T,,M,0.0,N,0.0,K,A*3D,1606992584478
NMEA,$GNRMC,104945.00,A,2255.527398,N,12017.680613,E,0.0,,031220,2.8,W,A*1F,1606992584478
NMEA,$GNGGA,104945.00,2255.527398,N,12017.680613,E,1,10,1.5,28.9,M,17.5,M,,*47,1606992584478
Raw,22090129,22095117000000,,,-1291005708763251200,0.0,4226.056393235922,2.267656510617362,9.558978108876074,2355,21,0.0,207,49785808420789,10,34.1,-685.1258544921875,0.25060001015663147,0,0.0,0.0,,,,,0,,3,,
Raw,22090130,22095117000000,,,-1291005708763251200,0.0,4226.056393235922,2.267656510617362,9.558978108876074,2355,7,0.0,207,49785804106088,10,34.6,740.5496826171875,0.24460001289844513,0,0.0,0.0,,,,,0,,3,,
Raw,22090131,22095117000000,,,-1291005708763251200,0.0,4226.056393235922,2.267656510617362,9.558978108876074,2355,8,0.0,207,49785810230748,10,34.6,384.4337463378906,0.25360000133514404,0,0.0,0.0,,,,,0,,3,,
Raw,22090131,22095117000000,,,-1291005708763251200,0.0,4226.056393235922,2.267656510617362,9.558978108876074,2355,4,0.0,15,384603807834703,16,29.2,-337.5986022949219,0.08489999920129776,0,0.0,0.0,,,,,0,,1,,
Raw,22090132,22095117000000,,,-1291005708763251200,0.0,4226.056393235922,2.267656510617362,9.558978108876074,2355,8,0.0,15,384603804780588,21,26.7,-635.8442993164062,0.2567000091075897,0,0.0,0.0,,,,,0,,1,,
Raw,22090132,22095117000000,,,-1291005708763251200,0.0,4226.056393235922,2.267656510617362,9.558978108876074,2355,9,0.0,15,384603797881402,16,29.7,-592.869140625,0.09989999979734421,0,0.0,0.0,,,,,0,,1,,
Raw,22090133,22095117000000,,,-1291005708763251200,0.0,4226.056393235922,2.267656510617362,9.558978108876074,2355,16,0.0,15,384603810707023,11,33.8,163.014892578125,0.05820000171661377,0,0.0,0.0,,,,,0,,1,,
Raw,22090134,22095117000000,,,-1291005708763251200,0.0,4226.056393235922,2.267656510617362,9.558978108876074,2355,22,0.0,15,384603796444115,14,30.2,281.98236083984375,0.08749999850988388,0,0.0,0.0,,,,,0,,1,,
Raw,22090134,22095117000000,,,-1291005708763251200,0.0,4226.056393235922,2.267656510617362,9.558978108876074,2355,27,0.0,15,384603812188481,6,39.2,-329.2034606933594,0.039900001138448715,0,0.0,0.0,,,,,0,,1,,
Fix,gps,22.925457,120.294677,46.363037,0.000000,5.360000,1606992586000
NMEA,$GPGSV,3,1,11,04,43,305,29,08,28,205,27,09,09,319,30,11,00,000,26*79,1606992585474
NMEA,$GPGSV,3,2,11,16,55,336,34,22,07,226,30,27,64,185,39,18,09,073,*79,1606992585474
NMEA,$GPGSV,3,3,11,26,40,028,,31,37,088,,32,04,153,*47,1606992585475
NMEA,$GLGSV,3,1,09,75,00,000,28,85,32,154,34,71,17,194,35,72,39,246,35*6E,1606992585476
NMEA,$GLGSV,3,2,09,74,36,015,,73,15,066,,65,27,298,,84,42,077,*60,1606992585477
NMEA,$GLGSV,3,3,09,83,05,028,*58,1606992585477
NMEA,$GAGSV,1,1,0,*74,1606992585477
NMEA,$PQGSV,1,1,03,193,28,171,,194,59,036,,195,58,119,,0,5*63,1606992585477
NMEA,$PQGSV,1,1,0,*73,1606992585478
NMEA,$GNGSA,A,3,04,08,09,16,22,27,,,,,,,1.7,1.5,0.9,1*3D,1606992585479
NMEA,$GNGSA,A,2,65,71,72,,,,,,,,,,1.7,1.5,0.9,2*38,1606992585481
NMEA,$GNVTG,,T,,M,0.0,N,0.0,K,A*3D,1606992585481
Raw,22090559,22096111000000,,,-1291005708762995968,0.0,4224.736709147692,5.295442066050226,10.896448529314673,2356,21,0.0,207,49786802168119,10,34.6,-688.1143798828125,0.27160000801086426,0,0.0,0.0,,,,,0,,3,,
Raw,22090559,22096111000000,,,-1291005708762995968,0.0,4224.736709147692,5.295442066050226,10.896448529314673,2356,7,0.0,207,49786797848649,11,33.6,737.4141235351562,0.2687000036239624,0,0.0,0.0,,,,,0,,3,,
Raw,22090560,22096111000000,,,-1291005708762995968,0.0,4224.736709147692,5.295442066050226,10.896448529314673,2356,8,0.0,207,49786803974464,12,32.4,381.55889892578125,0.25300002098083496,0,0.0,0.0,,,,,0,,3,,
Raw,22090561,22096111000000,,,-1291005708762995968,0.0,4224.736709147692,5.295442066050226,10.896448529314673,2356,3,0.0,15,384604791523536,21,26.6,319.4763488769531,0.2671999931335449,0,0.0,0.0,,,,,0,,1,,
Raw,22090562,22096111000000,,,-1291005708762995968,0.0,4224.736709147692,5.295442066050226,10.896448529314673,2356,4,0.0,15,384604801580902,19,27.9,-340.47027587890625,0.19520001113414764,0,0.0,0.0,,,,,0,,1,,
Raw,22090562,22096111000000,,,-1291005708762995968,0.0,4224.736709147692,5.295442066050226,10.896448529314673,2356,8,0.0,15,384604798527696,24,25.0,-638.9606323242188,1.1875,0,0.0,0.0,,,,,0,,1,,
Raw,22090563,22096111000000,,,-1291005708762995968,0.0,4224.736709147692,5.295442066050226,10.896448529314673,2356,9,0.0,15,384604791628414,19,27.8,-595.7237548828125,0.1802000105381012,0,0.0,0.0,,,,,0,,1,,
Raw,22090563,22096111000000,,,-1291005708762995968,0.0,4224.736709147692,5.295442066050226,10.896448529314673,2356,16,0.0,15,384604804451491,12,32.9,160.06007385253906,0.054499998688697815,0,0.0,0.0,,,,,0,,1,,
Raw,22090564,22096111000000,,,-1291005708762995968,0.0,4224.736709147692,5.295442066050226,10.896448529314673,2356,22,0.0,15,384604790188214,14,30.0,278.960693359375,0.07850000262260437,0,0.0,0.0,,,,,0,,1,,
Raw,22090565,22096111000000,,,-1291005708762995968,0.0,4224.736709147692,5.295442066050226,10.896448529314673,2356,27,0.0,15,384604805934572,6,38.9,-332.1298522949219,0.03240000084042549,0,0.0,0.0,,,,,0,,1,,
NMEA,$GNRMC,104946.00,A,2255.527394,N,12017.680613,E,0.0,,031220,2.8,W,A*10,1606992585481
NMEA,$GNGGA,104946.00,2255.527394,N,12017.680613,E,1,09,1.5,28.9,M,17.5,M,,*40,1606992585481
Fix,gps,22.925457,120.294677,46.351868,0.000000,5.360000,1606992587000
NMEA,$GPGSV,3,1,12,03,10,247,27,04,43,305,28,08,28,205,25,09,09,319,28*72,1606992586473
NMEA,$GPGSV,3,2,12,11,00,000,26,16,55,336,33,22,07,226,30,27,64,185,39*7D,1606992586473
NMEA,$GPGSV,3,3,12,18,09,073,,26,40,028,,31,37,088,,32,04,153,*70,1606992586474
NMEA,$GLGSV,3,1,09,75,00,000,28,85,32,154,35,71,17,194,34,72,39,246,32*69,1606992586474
NMEA,$GLGSV,3,2,09,74,36,015,,73,15,066,,65,27,298,,84,42,077,*60,1606992586474
NMEA,$GLGSV,3,3,09,83,05,028,*58,1606992586474
NMEA,$GAGSV,1,1,0,*74,1606992586475
NMEA,$PQGSV,1,1,03,193,28,171,,194,59,036,,195,58,119,,0,5*63,1606992586476
NMEA,$PQGSV,1,1,0,*73,1606992586476
NMEA,$GNGSA,A,3,03,04,08,09,16,22,27,,,,,,1.7,1.5,0.9,1*3E,1606992586477
NMEA,$GNGSA,A,2,65,71,72,,,,,,,,,,1.7,1.5,0.9,2*38,1606992586477
NMEA,$GNVTG,,T,,M,0.0,N,0.0,K,A*3D,1606992586477
NMEA,$GNRMC,104947.00,A,2255.527391,N,12017.680616,E,0.0,,031220,2.8,W,A*11,1606992586478
NMEA,$GNGGA,104947.00,2255.527391,N,12017.680616,E,1,10,1.5,28.9,M,17.5,M,,*49,1606992586478
Fix,gps,22.925456,120.294677,46.351440,0.000000,5.360000,1606992588000
NMEA,$GPGSA,A,1,,,,,,,,,,,,,1.7,1.5,0.9,1*26,1606992587468
NMEA,$GPVTG,,T,,M,0.0,N,0.0,K,A*23,1606992587469
NMEA,$GPRMC,104948.00,A,2255.527389,N,12017.680617,E,0.0,,031220,2.8,W,A*08,1606992587469
NMEA,$GPGGA,104948.00,2255.527389,N,12017.680617,E,1,00,1.5,28.9,M,17.5,M,,*51,1606992587469
Raw,22092558,22098016000000,,,-1291005708761983744,0.0,4206.708632409573,-11.230104558739349,12.242113502262871,2357,1,0.0,207,49788704932533,31,23.0,-129.30325317382812,0.8574999570846558,0,0.0,0.0,,,,,0,,3,,
Raw,22092559,22098016000000,,,-1291005708761983744,0.0,4206.708632409573,-11.230104558739349,12.242113502262871,2357,21,0.0,207,49788706160254,13,31.0,-689.0894775390625,0.23280000686645508,0,0.0,0.0,,,,,0,,3,,
Raw,22092560,22098016000000,,,-1291005708761983744,0.0,4206.708632409573,-11.230104558739349,12.242113502262871,2357,7,0.0,207,49788701831745,10,34.8,736.3702392578125,0.24860000610351562,0,0.0,0.0,,,,,0,,3,,
Raw,22092561,22098016000000,,,-1291005708761983744,0.0,4206.708632409573,-11.230104558739349,12.242113502262871,2357,3,0.0,15,384606695509369,14,30.9,318.53167724609375,0.049300000071525574,0,0.0,0.0,,,,,0,,1,,
Raw,22092562,22098016000000,,,-1291005708761983744,0.0,4206.708632409573,-11.230104558739349,12.242113502262871,2357,4,0.0,15,384606705570804,16,29.3,-341.3578186035156,0.03720000013709068,0,0.0,0.0,,,,,0,,1,,
Raw,22092563,22098016000000,,,-1291005708761983744,0.0,4206.708632409573,-11.230104558739349,12.242113502262871,2357,16,0.0,15,384606708438259,7,37.5,159.09320068359375,0.02460000105202198,0,0.0,0.0,,,,,0,,1,,
Raw,22092564,22098016000000,,,-1291005708761983744,0.0,4206.708632409573,-11.230104558739349,12.242113502262871,2357,22,0.0,15,384606694174343,27,24.7,277.60992431640625,0.6225000023841858,0,0.0,0.0,,,,,0,,1,,
Raw,22092564,22098016000000,,,-1291005708761983744,0.0,4206.708632409573,-11.230104558739349,12.242113502262871,2357,27,0.0,15,384606709924519,7,37.6,-332.9320373535156,0.026100000366568565,0,0.0,0.0,,,,,0,,1,,
Fix,gps,22.925456,120.294677,46.343933,0.000000,5.360000,1606992589000
NMEA,$GPGSV,3,1,11,03,10,247,31,04,43,305,29,11,00,000,26,16,55,336,38*7A,1606992588471
NMEA,$GPGSV,3,2,11,22,07,226,25,27,64,185,38,08,28,205,,18,09,073,*7F,1606992588471
NMEA,$GPGSV,3,3,11,26,40,028,,31,37,088,,32,04,153,*47,1606992588472
NMEA,$GLGSV,2,1,08,75,00,000,28,65,27,298,23,85,32,154,31,71,17,194,35*66,1606992588473
NMEA,$GLGSV,2,2,08,74,36,015,,73,15,066,,84,42,077,,83,05,028,*61,1606992588473
NMEA,$GAGSV,1,1,0,*74,1606992588473
NMEA,$PQGSV,1,1,03,193,28,171,,194,59,036,,195,58,119,,0,5*63,1606992588473
NMEA,$PQGSV,1,1,0,*73,1606992588473
NMEA,$GNGSA,A,3,03,04,08,16,22,27,,,,,,,1.7,1.5,0.9,1*37,1606992588474
NMEA,$GNGSA,A,2,71,,,,,,,,,,,,1.7,1.5,0.9,2*3E,1606992588474
NMEA,$GNVTG,,T,,M,0.0,N,0.0,K,A*3D,1606992588475
NMEA,$GNRMC,104949.00,A,2255.527388,N,12017.680626,E,0.0,,031220,2.8,W,A*14,1606992588475
NMEA,$GNGGA,104949.00,2255.527388,N,12017.680626,E,1,07,1.5,28.9,M,17.5,M,,*4A,1606992588475
Raw,22093561,22099005000000,,,-1291005708761718016,0.0,4225.720651447773,-8.507633881804685,12.080715651034183,2358,9,0.0,207,49789689914505,35,22.7,243.29843139648438,0.9249999523162842,0,0.0,0.0,,,,,0,,3,,
Raw,22093561,22099005000000,,,-1291005708761718016,0.0,4225.720651447773,-8.507633881804685,12.080715651034183,2358,1,0.0,207,49789693666843,46,20.9,-129.0226593017578,1.0509999990463257,0,0.0,0.0,,,,,0,,3,,
Raw,22093562,22099005000000,,,-1291005708761718016,0.0,4225.720651447773,-8.507633881804685,12.080715651034183,2358,21,0.0,207,49789694896306,17,28.2,-688.647705078125,0.26179999113082886,0,0.0,0.0,,,,,0,,3,,
Raw,22093562,22099005000000,,,-1291005708761718016,0.0,4225.720651447773,-8.507633881804685,12.080715651034183,2358,7,0.0,207,49789690563250,14,30.2,736.6883544921875,0.241799995303154,0,0.0,0.0,,,,,0,,3,,
Raw,22093563,22099005000000,,,-1291005708761718016,0.0,4225.720651447773,-8.507633881804685,12.080715651034183,2358,8,0.0,207,49789696692517,13,31.2,381.0953369140625,0.24780000746250153,0,0.0,0.0,,,,,0,,3,,
Raw,22093563,22099005000000,,,-1291005708761718016,0.0,4225.720651447773,-8.507633881804685,12.080715651034183,2358,4,0.0,15,384607694305827,12,32.7,-340.8992004394531,0.04240000247955322,0,0.0,0.0,,,,,0,,1,,
Raw,22093564,22099005000000,,,-1291005708761718016,0.0,4225.720651447773,-8.507633881804685,12.080715651034183,2358,8,0.0,15,384607691255594,27,24.2,-639.40576171875,0.6679999828338623,0,0.0,0.0,,,,,0,,1,,
Raw,22093564,22099005000000,,,-1291005708761718016,0.0,4225.720651447773,-8.507633881804685,12.080715651034183,2358,9,0.0,15,384607684355938,27,24.6,-595.7619018554688,0.6075000166893005,0,0.0,0.0,,,,,0,,1,,
Raw,22093565,22099005000000,,,-1291005708761718016,0.0,4225.720651447773,-8.507633881804685,12.080715651034183,2358,16,0.0,15,384607697171654,7,37.1,159.4247283935547,0.038100000470876694,0,0.0,0.0,,,,,0,,1,,
Raw,22093565,22099005000000,,,-1291005708761718016,0.0,4225.720651447773,-8.507633881804685,12.080715651034183,2358,22,0.0,15,384607682907185,19,27.7,278.11065673828125,0.066600002348423,0,0.0,0.0,,,,,0,,1,,
Raw,22093566,22099005000000,,,-1291005708761718016,0.0,4225.720651447773,-8.507633881804685,12.080715651034183,2358,27,0.0,15,384607698659493,10,34.7,-332.50897216796875,0.04410000145435333,0,0.0,0.0,,,,,0,,1,,
Fix,gps,22.925456,120.294677,46.337036,0.000000,5.360000,1606992590000
NMEA,$GPGSV,3,1,11,04,43,305,33,08,28,205,24,09,09,319,25,11,00,000,26*75,1606992589484
NMEA,$GPGSV,3,2,11,16,55,336,37,22,07,226,28,27,64,185,35,18,09,073,*7F,1606992589485
NMEA,$GPGSV,3,3,11,26,40,028,,31,37,088,,32,04,153,*47,1606992589485
NMEA,$GLGSV,3,1,09,75,00,000,28,73,15,066,23,65,27,298,21,85,32,154,28*67,1606992589486
NMEA,$GLGSV,3,2,09,71,17,194,30,72,39,246,31,74,36,015,,84,42,077,*67,1606992589489
NMEA,$GLGSV,3,3,09,83,05,028,*58,1606992589489
NMEA,$GAGSV,1,1,0,*74,1606992589490
NMEA,$PQGSV,1,1,03,193,28,171,,194,59,036,,195,58,119,,0,5*63,1606992589493
NMEA,$PQGSV,1,1,0,*73,1606992589494
NMEA,$GNGSA,A,3,04,08,09,16,22,27,,,,,,,1.7,1.5,0.9,1*3D,1606992589497
NMEA,$GNGSA,A,2,65,71,72,,,,,,,,,,1.7,1.5,0.9,2*38,1606992589498
NMEA,$GNVTG,,T,,M,0.0,N,0.0,K,A*3D,1606992589498
NMEA,$GNRMC,104950.00,A,2255.527386,N,12017.680633,E,0.0,,031220,2.8,W,A*16,1606992589499
NMEA,$GNGGA,104950.00,2255.527386,N,12017.680633,E,1,09,1.5,28.9,M,17.5,M,,*46,1606992589499
Raw,22094582,22099918000000,,,-1291005708761686528,0.0,4229.603335261345,-7.77221414856461,12.209875286513494,2359,1,0.0,207,49790606636062,35,22.3,-129.509033203125,0.9204999804496765,0,0.0,0.0,,,,,0,,3,,
Raw,22094585,22099918000000,,,-1291005708761686528,0.0,4229.603335261345,-7.77221414856461,12.209875286513494,2359,21,0.0,207,49790607867295,11,33.9,-689.6066284179688,0.25370001792907715,0,0.0,0.0,,,,,0,,3,,
Raw,22094587,22099918000000,,,-1291005708761686528,0.0,4229.603335261345,-7.77221414856461,12.209875286513494,2359,7,0.0,207,49790603529759,13,31.5,735.6232299804688,0.2596000134944916,0,0.0,0.0,,,,,0,,3,,
Raw,22094590,22099918000000,,,-1291005708761686528,0.0,4229.603335261345,-7.77221414856461,12.209875286513494,2359,8,0.0,207,49790609660262,13,31.8,380.17242431640625,0.2686000168323517,0,0.0,0.0,,,,,0,,3,,
Raw,22094592,22099918000000,,,-1291005708761686528,0.0,4229.603335261345,-7.77221414856461,12.209875286513494,2359,3,0.0,15,384608597210147,27,24.8,318.0378112792969,0.6270000338554382,0,0.0,0.0,,,,,0,,1,,
Raw,22094595,22099918000000,,,-1291005708761686528,0.0,4229.603335261345,-7.77221414856461,12.209875286513494,2359,4,0.0,15,384608607275796,10,34.1,-341.9125671386719,0.04910000041127205,0,0.0,0.0,,,,,0,,1,,
Raw,22094598,22099918000000,,,-1291005708761686528,0.0,4229.603335261345,-7.77221414856461,12.209875286513494,2359,8,0.0,15,384608604226308,17,28.5,-640.0438232421875,0.10339999943971634,0,0.0,0.0,,,,,0,,1,,
Raw,22094601,22099918000000,,,-1291005708761686528,0.0,4229.603335261345,-7.77221414856461,12.209875286513494,2359,9,0.0,15,384608597326544,19,27.0,-596.6004638671875,0.1891999989748001,0,0.0,0.0,,,,,0,,1,,
Raw,22094602,22099918000000,,,-1291005708761686528,0.0,4229.603335261345,-7.77221414856461,12.209875286513494,2359,16,0.0,15,384608610140054,8,36.8,158.54098510742188,0.045499999076128006,0,0.0,0.0,,,,,0,,1,,
Raw,22094604,22099918000000,,,-1291005708761686528,0.0,4229.603335261345,-7.77221414856461,12.209875286513494,2359,22,0.0,15,384608595875232,19,27.6,277.2840270996094,0.18620000779628754,0,0.0,0.0,,,,,0,,1,,
Raw,22094606,22099918000000,,,-1291005708761686528,0.0,4229.603335261345,-7.77221414856461,12.209875286513494,2359,27,0.0,15,384608611629376,6,38.4,-333.4353332519531,0.0414000004529953,0,0.0,0.0,,,,,0,,1,,
Fix,gps,22.925456,120.294677,46.344971,0.000000,6.432000,1606992591000
NMEA,$GPGSV,3,1,12,03,09,247,25,04,44,303,34,08,29,206,29,09,09,319,27*75,1606992590474
NMEA,$GPGSV,3,2,12,11,00,000,26,16,55,337,37,22,07,226,28,27,65,185,38*71,1606992590474
NMEA,$GPGSV,3,3,12,18,09,071,,26,40,028,,31,36,090,,32,04,153,*7A,1606992590475
NMEA,$GLGSV,2,1,08,75,00,000,28,65,27,298,22,85,32,154,34,71,17,194,32*65,1606992590475
NMEA,$GLGSV,2,2,08,72,39,246,32,74,36,015,,84,42,077,,83,05,028,*6F,1606992590475
NMEA,$GAGSV,1,1,0,*74,1606992590475
NMEA,$PQGSV,1,1,03,193,27,171,,194,59,036,,195,58,119,,0,5*6C,1606992590475
NMEA,$PQGSV,1,1,0,*73,1606992590476
NMEA,$GNGSA,A,3,03,04,08,09,16,22,27,,,,,,1.7,1.5,0.9,1*3E,1606992590476
NMEA,$GNGSA,A,2,65,71,72,,,,,,,,,,1.7,1.5,0.9,2*38,1606992590476
NMEA,$GNVTG,,T,,M,0.0,N,0.0,K,A*3D,1606992590476
NMEA,$GNRMC,104951.00,A,2255.527386,N,12017.680633,E,0.0,,031220,2.8,W,A*17,1606992590477
NMEA,$GNGGA,104951.00,2255.527386,N,12017.680633,E,1,10,1.5,28.9,M,17.5,M,,*4F,1606992590477
Raw,22095583,22101113000000,,,-1291005708761093632,0.0,4309.710115194321,-10.608900377495681,15.28198311987986,2360,9,0.0,207,49791797288376,35,22.8,245.5269012451172,0.9369999766349792,0,0.0,0.0,,,,,0,,3,,
Raw,22095586,22101113000000,,,-1291005708761093632,0.0,4309.710115194321,-10.608900377495681,15.28198311987986,2360,21,0.0,207,49791802277178,17,28.9,-687.1387939453125,0.3303999900817871,0,0.0,0.0,,,,,0,,3,,
Raw,22095588,22101113000000,,,-1291005708761093632,0.0,4309.710115194321,-10.608900377495681,15.28198311987986,2360,7,0.0,207,49791797933927,13,31.8,738.119140625,0.28060001134872437,0,0.0,0.0,,,,,0,,3,,
Raw,22095591,22101113000000,,,-1291005708761093632,0.0,4309.710115194321,-10.608900377495681,15.28198311987986,2360,8,0.0,207,49791804065870,12,32.5,382.9515075683594,0.25450000166893005,0,0.0,0.0,,,,,0,,3,,
Raw,22095593,22101113000000,,,-1291005708761093632,0.0,4309.710115194321,-10.608900377495681,15.28198311987986,2360,4,0.0,15,384609801684263,13,31.3,-339.2628479003906,0.08659999817609787,0,0.0,0.0,,,,,0,,1,,
Raw,22095595,22101113000000,,,-1291005708761093632,0.0,4309.710115194321,-10.608900377495681,15.28198311987986,2360,8,0.0,15,384609798636013,27,24.7,-638.5780029296875,0.6285000443458557,0,0.0,0.0,,,,,0,,1,,
Raw,22095598,22101113000000,,,-1291005708761093632,0.0,4309.710115194321,-10.608900377495681,15.28198311987986,2360,9,0.0,15,384609791736225,21,26.1,-594.7577514648438,0.2671999931335449,0,0.0,0.0,,,,,0,,1,,
Raw,22095600,22101113000000,,,-1291005708761093632,0.0,4309.710115194321,-10.608900377495681,15.28198311987986,2360,16,0.0,15,384609804546533,6,39.0,161.04331970214844,0.027900001034140587,0,0.0,0.0,,,,,0,,1,,
Raw,22095602,22101113000000,,,-1291005708761093632,0.0,4309.710115194321,-10.608900377495681,15.28198311987986,2360,22,0.0,15,384609790281283,19,27.4,280.209716796875,0.17870000004768372,0,0.0,0.0,,,,,0,,1,,
Raw,22095605,22101113000000,,,-1291005708761093632,0.0,4309.710115194321,-10.608900377495681,15.28198311987986,2360,27,0.0,15,384609806037834,6,38.6,-330.72265625,0.033900000154972076,0,0.0,0.0,,,,,0,,1,,
Fix,gps,22.925456,120.294677,46.355225,0.000000,6.432000,1606992592000
NMEA,$GPGSV,3,1,11,04,44,303,31,08,29,206,25,09,09,319,26,11,00,000,26*76,1606992591479
NMEA,$GPGSV,3,2,11,16,55,337,39,22,07,226,27,27,65,185,39,18,09,071,*70,1606992591479
NMEA,$GPGSV,3,3,11,26,40,028,,31,36,090,,32,04,153,*4F,1606992591487
NMEA,$GLGSV,2,1,08,75,00,000,28,73,15,066,23,85,32,154,29,71,17,194,32*6D,1606992591489
NMEA,$GLGSV,2,2,08,72,39,246,33,74,36,015,,84,42,077,,83,05,028,*6E,1606992591489
NMEA,$GAGSV,1,1,0,*74,1606992591490
NMEA,$PQGSV,1,1,03,193,27,171,,194,59,036,,195,58,119,,0,5*6C,1606992591491
NMEA,$PQGSV,1,1,0,*73,1606992591493
NMEA,$GNGSA,A,3,04,08,09,16,22,27,,,,,,,1.7,1.5,0.9,1*3D,1606992591497
NMEA,$GNGSA,A,2,71,72,,,,,,,,,,,1.7,1.5,0.9,2*3B,1606992591499
NMEA,$GNVTG,,T,,M,0.0,N,0.0,K,A*3D,1606992591499
NMEA,$GNRMC,104952.00,A,2255.527386,N,12017.680630,E,0.0,,031220,2.8,W,A*17,1606992591500
NMEA,$GNGGA,104952.00,2255.527386,N,12017.680630,E,1,08,1.5,28.9,M,17.5,M,,*46,1606992591501
Raw,22096597,22102106000000,,,-1291005708760722432,0.0,4303.683526813984,-1.9426656399180784,12.49481412866789,2361,9,0.0,207,49792789916255,35,22.9,245.05873107910156,0.9249999523162842,0,0.0,0.0,,,,,0,,3,,
Raw,22096600,22102106000000,,,-1291005708760722432,0.0,4303.683526813984,-1.9426656399180784,12.49481412866789,2361,21,0.0,207,49792794908359,24,25.8,-688.42041015625,1.3815001249313354,0,0.0,0.0,,,,,0,,3,,
Raw,22096602,22102106000000,,,-1291005708760722432,0.0,4303.683526813984,-1.9426656399180784,12.49481412866789,2361,7,0.0,207,49792790560324,11,33.7,736.8949584960938,0.2582000195980072,0,0.0,0.0,,,,,0,,3,,
Raw,22096605,22102106000000,,,-1291005708760722432,0.0,4303.683526813984,-1.9426656399180784,12.49481412866789,2361,8,0.0,207,49792796693316,12,32.4,381.6415710449219,0.27250000834465027,0,0.0,0.0,,,,,0,,3,,
Raw,22096607,22102106000000,,,-1291005708760722432,0.0,4303.683526813984,-1.9426656399180784,12.49481412866789,2361,4,0.0,15,384610794314116,14,30.4,-340.42822265625,0.08449999988079071,0,0.0,0.0,,,,,0,,1,,
Raw,22096609,22102106000000,,,-1291005708760722432,0.0,4303.683526813984,-1.9426656399180784,12.49481412866789,2361,8,0.0,15,384610791266916,14,30.0,-639.1773071289062,0.07999999821186066,0,0.0,0.0,,,,,0,,1,,
Raw,22096612,22102106000000,,,-1291005708760722432,0.0,4303.683526813984,-1.9426656399180784,12.49481412866789,2361,16,0.0,15,384610797174755,7,37.4,159.76158142089844,0.05300000309944153,0,0.0,0.0,,,,,0,,1,,
Raw,22096614,22102106000000,,,-1291005708760722432,0.0,4303.683526813984,-1.9426656399180784,12.49481412866789,2361,22,0.0,15,384610782909104,13,31.9,278.4200134277344,0.05810000002384186,0,0.0,0.0,,,,,0,,1,,
Raw,22096617,22102106000000,,,-1291005708760722432,0.0,4303.683526813984,-1.9426656399180784,12.49481412866789,2361,27,0.0,15,384610798667697,7,37.9,-331.9638977050781,0.05450000241398811,0,0.0,0.0,,,,,0,,1,,
Fix,gps,22.925456,120.294677,46.350159,0.000000,5.360000,1606992593000
NMEA,$GPGSV,3,1,11,04,44,303,30,08,29,206,30,11,00,000,26,16,55,337,37*78,1606992592480
NMEA,$GPGSV,3,2,11,22,07,226,32,27,65,185,38,03,09,247,,18,09,071,*74,1606992592481
NMEA,$GPGSV,3,3,11,26,40,028,,31,36,090,,32,04,153,*4F,1606992592482
NMEA,$GLGSV,3,1,09,75,00,000,28,73,15,066,23,85,32,154,26,71,17,194,34*64,1606992592482
NMEA,$GLGSV,3,2,09,72,39,246,32,74,36,015,,65,27,298,,84,42,077,*6E,1606992592483
NMEA,$GLGSV,3,3,09,83,05,028,*58,1606992592486
NMEA,$GAGSV,1,1,0,*74,1606992592488
NMEA,$PQGSV,1,1,03,193,27,171,,194,59,036,,195,58,119,,0,5*6C,1606992592490
NMEA,$PQGSV,1,1,0,*73,1606992592491
NMEA,$GNGSA,A,3,03,04,08,16,22,27,,,,,,,1.7,1.5,0.9,1*37,1606992592493
NMEA,$GNGSA,A,2,65,71,72,,,,,,,,,,1.7,1.5,0.9,2*38,1606992592494
NMEA,$GNVTG,,T,,M,0.0,N,0.0,K,A*3D,1606992592495
NMEA,$GNRMC,104953.00,A,2255.527386,N,12017.680630,E,0.0,,031220,2.8,W,A*16,1606992592497
NMEA,$GNGGA,104953.00,2255.527386,N,12017.680630,E,1,09,1.5,28.9,M,17.5,M,,*46,1606992592498
Fix,gps,22.925456,120.294677,46.341125,0.000000,5.360000,1606992594000
Raw,22097620,22103118000000,,,-1291005708759996416,0.0,4265.123978257179,-5.990853312258409,8.459146530100716,2362,21,0.0,207,49793806184309,21,26.1,-688.2869873046875,0.4597000181674957,0,0.0,0.0,,,,,0,,3,,
Raw,22097621,22103118000000,,,-1291005708759996416,0.0,4265.123978257179,-5.990853312258409,8.459146530100716,2362,7,0.0,207,49793801831503,12,32.0,736.7300415039062,0.2800000011920929,0,0.0,0.0,,,,,0,,3,,
Raw,22097621,22103118000000,,,-1291005708759996416,0.0,4265.123978257179,-5.990853312258409,8.459146530100716,2362,8,0.0,207,49793807965609,13,31.8,381.50738525390625,0.2655999958515167,0,0.0,0.0,,,,,0,,3,,
Raw,22097621,22103118000000,,,-1291005708759996416,0.0,4265.123978257179,-5.990853312258409,8.459146530100716,2362,3,0.0,15,384611795516276,17,28.6,318.9808654785156,0.11990000307559967,0,0.0,0.0,,,,,0,,1,,
Raw,22097622,22103118000000,,,-1291005708759996416,0.0,4265.123978257179,-5.990853312258409,8.459146530100716,2362,4,0.0,15,384611805588936,14,30.7,-340.5477600097656,0.07100000232458115,0,0.0,0.0,,,,,0,,1,,
Raw,22097622,22103118000000,,,-1291005708759996416,0.0,4265.123978257179,-5.990853312258409,8.459146530100716,2362,8,0.0,15,384611802542729,14,30.3,-639.3004760742188,0.06650000065565109,0,0.0,0.0,,,,,0,,1,,
Raw,22097623,22103118000000,,,-1291005708759996416,0.0,4265.123978257179,-5.990853312258409,8.459146530100716,2362,16,0.0,15,384611808447858,9,35.2,159.60263061523438,0.04650000110268593,0,0.0,0.0,,,,,0,,1,,
Raw,22097623,22103118000000,,,-1291005708759996416,0.0,4265.123978257179,-5.990853312258409,8.459146530100716,2362,22,0.0,15,384611794181807,12,32.6,278.1761169433594,0.06949999928474426,0,0.0,0.0,,,,,0,,1,,
Raw,22097624,22103118000000,,,-1291005708759996416,0.0,4265.123978257179,-5.990853312258409,8.459146530100716,2362,27,0.0,15,384611809942455,6,39.7,-331.9873046875,0.03540000319480896,0,0.0,0.0,,,,,0,,1,,
NMEA,$GPGSV,3,1,12,03,09,247,29,04,44,303,31,08,29,206,30,11,00,000,26*7E,1606992593479
NMEA,$GPGSV,3,2,12,16,55,337,35,22,07,226,33,27,65,185,40,09,09,319,*79,1606992593479
NMEA,$GPGSV,3,3,12,18,09,071,,26,40,028,,31,36,090,,32,04,153,*7A,1606992593480
NMEA,$GLGSV,2,1,08,75,00,000,28,85,32,154,26,71,17,194,32,72,39,246,32*6D,1606992593482
NMEA,$GLGSV,2,2,08,74,36,015,,65,27,298,,84,42,077,,83,05,028,*64,1606992593484
NMEA,$GAGSV,1,1,0,*74,1606992593485
NMEA,$PQGSV,1,1,03,193,27,171,,194,59,036,,195,58,119,,0,5*6C,1606992593489
NMEA,$PQGSV,1,1,0,*73,1606992593490
NMEA,$GNGSA,A,3,03,04,08,09,16,22,27,,,,,,1.7,1.5,0.9,1*3E,1606992593493
NMEA,$GNGSA,A,2,65,71,72,,,,,,,,,,1.7,1.5,0.9,2*38,1606992593494
NMEA,$GNVTG,,T,,M,0.0,N,0.0,K,A*3D,1606992593495
NMEA,$GNRMC,104954.00,A,2255.527385,N,12017.680632,E,0.0,,031220,2.8,W,A*10,1606992593496
NMEA,$GNGGA,104954.00,2255.527385,N,12017.680632,E,1,10,1.5,28.9,M,17.5,M,,*48,1606992593498
Fix,gps,22.925456,120.294677,46.340881,0.000000,5.360000,1606992595000
NMEA,$GPGSA,A,1,,,,,,,,,,,,,1.7,1.5,0.9,1*26,1606992594471
NMEA,$GPVTG,,T,,M,0.0,N,0.0,K,A*23,1606992594472
NMEA,$GPRMC,104955.00,A,2255.527385,N,12017.680633,E,0.0,,031220,2.8,W,A*0E,1606992594473
NMEA,$GPGGA,104955.00,2255.527385,N,12017.680633,E,1,00,1.5,28.9,M,17.5,M,,*57,1606992594473
Raw,22099588,22104488000000,,,-1291005708759137792,0.0,4246.710333973169,-6.704476840080145,17.32586070852528,2363,11,0.0,3,15516564,12,33.3,-143.93600463867188,0.8860000371932983,0,0.0,0.0,,,,,0,,3,,
Raw,22099589,22104488000000,,,-1291005708759137792,0.0,4246.710333973169,-6.704476840080145,17.32586070852528,2363,9,0.0,207,49795170329738,318,23.0,244.19729614257812,1.031499981880188,0,0.0,0.0,,,,,0,,3,,
Raw,22099590,22104488000000,,,-1291005708759137792,0.0,4246.710333973169,-6.704476840080145,17.32586070852528,2363,1,0.0,207,49795174089034,423,21.5,-126.89004516601562,1.1575000286102295,0,0.0,0.0,,,,,0,,3,,
Raw,22099591,22104488000000,,,-1291005708759137792,0.0,4246.710333973169,-6.704476840080145,17.32586070852528,2363,21,0.0,207,49795175328750,18,28.1,-685.5562744140625,1.1110000610351562,0,0.0,0.0,,,,,0,,3,,
Raw,22099592,22104488000000,,,-1291005708759137792,0.0,4246.710333973169,-6.704476840080145,17.32586070852528,2363,7,0.0,207,49795170969466,14,31.2,739.4810791015625,1.0285000801086426,0,0.0,0.0,,,,,0,,3,,
Raw,22099593,22104488000000,,,-1291005708759137792,0.0,4246.710333973169,-6.704476840080145,17.32586070852528,2363,8,0.0,207,49795177105354,15,30.5,384.08355712890625,1.0379999876022339,0,0.0,0.0,,,,,0,,3,,
Raw,22099593,22104488000000,,,-1291005708759137792,0.0,4246.710333973169,-6.704476840080145,17.32586070852528,2363,3,0.0,15,384613164656174,276,24.6,319.3793640136719,0.6825000047683716,0,0.0,0.0,,,,,0,,1,,
Raw,22099594,22104488000000,,,-1291005708759137792,0.0,4246.710333973169,-6.704476840080145,17.32586070852528,2363,4,0.0,15,384613174731884,11,33.3,-338.3041076660156,0.7024999856948853,0,0.0,0.0,,,,,0,,1,,
Raw,22099595,22104488000000,,,-1291005708759137792,0.0,4246.710333973169,-6.704476840080145,17.32586070852528,2363,8,0.0,15,384613171687031,12,33.7,-636.1422119140625,0.812000036239624,0,0.0,0.0,,,,,0,,1,,
Raw,22099596,22104488000000,,,-1291005708759137792,0.0,4246.710333973169,-6.704476840080145,17.32586070852528,2363,16,0.0,15,384613177588521,9,36.1,161.7401123046875,0.628000020980835,0,0.0,0.0,,,,,0,,1,,
Raw,22099597,22104488000000,,,-1291005708759137792,0.0,4246.710333973169,-6.704476840080145,17.32586070852528,2363,22,0.0,15,384613163321938,17,29.6,281.1589050292969,0.9340000152587891,0,0.0,0.0,,,,,0,,1,,
Raw,22099598,22104488000000,,,-1291005708759137792,0.0,4246.710333973169,-6.704476840080145,17.32586070852528,2363,27,0.0,15,384613179085363,8,37.1,-329.0748596191406,0.7400000095367432,0,0.0,0.0,,,,,0,,1,,
Raw,22099598,22104488000000,,,-1291005708759137792,0.0,4246.710333973169,-6.704476840080145,17.32586070852528,2363,5,0.0,7183,384613166033456,11,33.3,307.076904296875,0.6265000104904175,0,0.0,0.0,,,,,0,,6,,
Fix,gps,22.925456,120.294677,46.345032,0.000000,5.360000,1606992596000
NMEA,$GPGSV,3,1,12,03,09,247,25,04,44,303,33,08,29,206,34,11,00,000,25*77,1606992595481
NMEA,$GPGSV,3,2,12,16,55,337,36,22,07,226,30,27,65,185,37,09,09,319,*79,1606992595482
NMEA,$GPGSV,3,3,12,18,09,071,,26,40,028,,31,36,090,,32,04,153,*7A,1606992595483
NMEA,$GLGSV,3,1,09,75,00,000,33,73,15,066,23,65,27,298,22,85,32,154,28*6E,1606992595483
NMEA,$GLGSV,3,2,09,71,17,194,31,72,39,246,31,74,36,015,,84,42,077,*66,1606992595484
NMEA,$GLGSV,3,3,09,83,05,028,*58,1606992595485
NMEA,$GAGSV,2,1,08,05,53,220,33,02,10,272,,03,35,296,,09,19,168,*62,1606992595486
NMEA,$GAGSV,2,2,08,24,37,033,,25,44,316,,31,02,067,,36,08,180,*64,1606992595487
NMEA,$PQGSV,1,1,03,193,27,171,27,194,59,036,21,195,58,119,,0,5*6A,1606992595488
NMEA,$PQGSV,4,1,16,01,52,129,,02,40,240,,03,58,202,,04,37,113,,0,4*68,1606992595488
NMEA,$PQGSV,4,2,16,05,16,255,,06,70,175,,07,63,326,,08,04,170,,0,4*67,1606992595489
NMEA,$PQGSV,4,3,16,09,73,293,,10,49,281,,12,28,182,,14,26,267,,0,4*69,1606992595489
NMEA,$PQGSV,4,4,16,16,73,182,,21,13,187,,24,32,316,,26,51,022,,0,4*68,1606992595490
NMEA,$GNGSA,A,3,03,04,08,09,16,22,27,,,,,,1.7,1.4,0.8,1*3E,1606992595492
NMEA,$GNGSA,A,2,65,71,72,,,,,,,,,,1.7,1.4,0.8,2*38,1606992595493
NMEA,$GNVTG,,T,,M,0.0,N,0.0,K,A*3D,1606992595494
NMEA,$GNRMC,104956.00,A,2255.527384,N,12017.680632,E,0.0,,031220,2.8,W,A*13,1606992595494
NMEA,$GNGGA,104956.00,2255.527384,N,12017.680632,E,1,10,1.4,28.9,M,17.5,M,,*4A,1606992595495
NMEA,$GPGSV,3,1,12,03,09,247,23,04,44,303,33,08,29,206,28,09,09,319,25*77,1606992596479
Raw,22100581,22106121000000,,,-1291005708758810368,0.0,4217.32384711504,-1.8220715544974466,12.298563980352572,2364,7,0.0,207,49796803638048,10,34.1,739.8942260742188,0.24310000240802765,0,0.0,0.0,,,,,0,,3,,
Raw,22100583,22106121000000,,,-1291005708758810368,0.0,4217.32384711504,-1.8220715544974466,12.298563980352572,2364,8,0.0,207,49796809775756,13,31.3,385.05023193359375,0.2686000168323517,0,0.0,0.0,,,,,0,,3,,
Raw,22100585,22106121000000,,,-1291005708758810368,0.0,4217.32384711504,-1.8220715544974466,12.298563980352572,2364,3,0.0,15,384614797327045,31,23.2,322.4050598144531,0.7369999885559082,0,0.0,0.0,,,,,0,,1,,
Raw,22100588,22106121000000,,,-1291005708758810368,0.0,4217.32384711504,-1.8220715544974466,12.298563980352572,2364,4,0.0,15,384614807406293,12,32.8,-337.04180908203125,0.05900000035762787,0,0.0,0.0,,,,,0,,1,,
Raw,22100591,22106121000000,,,-1291005708758810368,0.0,4217.32384711504,-1.8220715544974466,12.298563980352572,2364,8,0.0,15,384614804363069,17,28.2,-636.0095825195312,0.10339999943971634,0,0.0,0.0,,,,,0,,1,,
Raw,22100594,22106121000000,,,-1291005708758810368,0.0,4217.32384711504,-1.8220715544974466,12.298563980352572,2364,9,0.0,15,384614797462185,24,25.0,-592.4595336914062,1.1859999895095825,0,0.0,0.0,,,,,0,,1,,
Raw,22100596,22106121000000,,,-1291005708758810368,0.0,4217.32384711504,-1.8220715544974466,12.298563980352572,2364,16,0.0,15,384614810260244,8,36.6,162.8540802001953,0.045499999076128006,0,0.0,0.0,,,,,0,,1,,
Raw,22100598,22106121000000,,,-1291005708758810368,0.0,4217.32384711504,-1.8220715544974466,12.298563980352572,2364,22,0.0,15,384614795992980,10,34.8,281.1653747558594,0.06109999865293503,0,0.0,0.0,,,,,0,,1,,
Raw,22100600,22106121000000,,,-1291005708758810368,0.0,4217.32384711504,-1.8220715544974466,12.298563980352572,2364,27,0.0,15,384614811759732,7,37.5,-328.6645202636719,0.04399999976158142,0,0.0,0.0,,,,,0,,1,,
Fix,gps,22.925456,120.294677,46.340088,0.000000,5.360000,1606992597000
NMEA,$GPGSV,3,2,12,11,00,000,25,16,55,337,37,22,07,226,35,27,65,185,38*7E,1606992596480
NMEA,$GPGSV,3,3,12,18,09,071,,26,40,028,,31,36,090,,32,04,153,*7A,1606992596481
NMEA,$GLGSV,2,1,08,75,00,000,33,73,15,066,23,65,27,298,22,71,17,194,34*63,1606992596482
NMEA,$GLGSV,2,2,08,72,39,246,31,74,36,015,,84,42,077,,83,05,028,*6C,1606992596483
NMEA,$GAGSV,1,1,0,*74,1606992596487
NMEA,$PQGSV,1,1,01,195,58,119,,0,5*62,1606992596491
NMEA,$PQGSV,1,1,0,*73,1606992596492
NMEA,$GNGSA,A,3,03,04,08,09,16,22,27,,,,,,1.7,1.4,0.8,1*3E,1606992596494
NMEA,$GNGSA,A,2,65,71,72,,,,,,,,,,1.7,1.4,0.8,2*38,1606992596495
NMEA,$GNVTG,,T,,M,0.0,N,0.0,K,A*3D,1606992596496
NMEA,$GNRMC,104957.00,A,2255.527384,N,12017.680634,E,0.0,,031220,2.8,W,A*14,1606992596496
NMEA,$GNGGA,104957.00,2255.527384,N,12017.680634,E,1,10,1.4,28.9,M,17.5,M,,*4D,1606992596497
Raw,22101599,22107116000000,,,-1291005708758271744,0.0,4225.826356559992,3.70201713609393,11.439794123093069,2365,9,0.0,207,49797797461620,35,22.6,246.8565216064453,0.9369999766349792,0,0.0,0.0,,,,,0,,3,,
Raw,22101602,22107116000000,,,-1291005708758271744,0.0,4225.826356559992,3.70201713609393,11.439794123093069,2365,7,0.0,207,49797798097370,9,35.0,739.4369506835938,0.2615000009536743,0,0.0,0.0,,,,,0,,3,,
Raw,22101604,22107116000000,,,-1291005708758271744,0.0,4225.826356559992,3.70201713609393,11.439794123093069,2365,8,0.0,207,49797804236254,11,33.0,384.7827453613281,0.2492000162601471,0,0.0,0.0,,,,,0,,3,,
Raw,22101607,22107116000000,,,-1291005708758271744,0.0,4225.826356559992,3.70201713609393,11.439794123093069,2365,3,0.0,15,384615791787704,19,27.6,321.37091064453125,0.1802000105381012,0,0.0,0.0,,,,,0,,1,,
Raw,22101609,22107116000000,,,-1291005708758271744,0.0,4225.826356559992,3.70201713609393,11.439794123093069,2365,4,0.0,15,384615801869191,14,30.5,-337.41265869140625,0.0949999988079071,0,0.0,0.0,,,,,0,,1,,
Raw,22101612,22107116000000,,,-1291005708758271744,0.0,4225.826356559992,3.70201713609393,11.439794123093069,2365,8,0.0,15,384615798826914,17,28.7,-636.2846069335938,0.12439999729394913,0,0.0,0.0,,,,,0,,1,,
Raw,22101614,22107116000000,,,-1291005708758271744,0.0,4225.826356559992,3.70201713609393,11.439794123093069,2365,9,0.0,15,384615791926204,24,25.6,-593.3832397460938,0.578000009059906,0,0.0,0.0,,,,,0,,1,,
Raw,22101617,22107116000000,,,-1291005708758271744,0.0,4225.826356559992,3.70201713609393,11.439794123093069,2365,16,0.0,15,384615804721422,7,37.2,162.5641632080078,0.03350000083446503,0,0.0,0.0,,,,,0,,1,,
Raw,22101619,22107116000000,,,-1291005708758271744,0.0,4225.826356559992,3.70201713609393,11.439794123093069,2365,22,0.0,15,384615790453789,11,33.9,280.70849609375,0.05820000171661377,0,0.0,0.0,,,,,0,,1,,
Raw,22101620,22107116000000,,,-1291005708758271744,0.0,4225.826356559992,3.70201713609393,11.439794123093069,2365,27,0.0,15,384615806222557,7,37.4,-328.8262023925781,0.0364999994635582,0,0.0,0.0,,,,,0,,1,,
Fix,gps,22.925456,120.294677,46.332825,0.000000,5.360000,1606992598000
NMEA,$GPGSV,3,1,12,03,09,247,28,04,44,303,31,08,29,206,29,09,09,319,26*7C,1606992597481
NMEA,$GPGSV,3,2,12,11,00,000,25,16,55,337,37,22,07,226,34,27,65,185,37*70,1606992597482
NMEA,$GPGSV,3,3,12,18,09,071,,26,40,028,,31,36,090,,32,04,153,*7A,1606992597483
NMEA,$GLGSV,3,1,09,75,00,000,33,73,15,066,23,71,17,194,35,72,39,246,33*68,1606992597485
NMEA,$GLGSV,3,2,09,74,36,015,,65,27,298,,84,42,077,,83,05,028,*64,1606992597486
NMEA,$GLGSV,3,3,09,85,32,154,*50,1606992597489
NMEA,$GAGSV,1,1,0,*74,1606992597492
NMEA,$PQGSV,1,1,03,193,27,171,28,194,59,036,23,195,58,119,,0,5*67,1606992597493
NMEA,$PQGSV,1,1,0,*73,1606992597494
NMEA,$GNGSA,A,3,03,04,08,09,16,22,27,,,,,,1.7,1.4,0.8,1*3E,1606992597498
NMEA,$GNGSA,A,2,65,71,72,,,,,,,,,,1.7,1.4,0.8,2*38,1606992597499
NMEA,$GNVTG,,T,,M,0.0,N,0.0,K,A*3D,1606992597499
NMEA,$GNRMC,104958.00,A,2255.527384,N,12017.680636,E,0.0,,031220,2.8,W,A*19,1606992597500
NMEA,$GNGGA,104958.00,2255.527384,N,12017.680636,E,1,10,1.4,28.9,M,17.5,M,,*40,1606992597500
Raw,22102601,22108109000000,,,-1291005708757697280,0.0,4226.794000715017,2.276253673007393,11.495847757073467,2366,9,0.0,207,49798789886374,31,23.8,244.06622314453125,0.8649999499320984,0,0.0,0.0,,,,,0,,3,,
Raw,22102603,22108109000000,,,-1291005708757697280,0.0,4226.794000715017,2.276253673007393,11.495847757073467,2366,21,0.0,207,49798794896683,16,29.9,-687.0512084960938,0.6225000023841858,0,0.0,0.0,,,,,0,,3,,
Raw,22102606,22108109000000,,,-1291005708757697280,0.0,4226.794000715017,2.276253673007393,11.495847757073467,2366,7,0.0,207,49798790520138,8,36.9,737.7008666992188,0.24549999833106995,0,0.0,0.0,,,,,0,,3,,
Raw,22102608,22108109000000,,,-1291005708757697280,0.0,4226.794000715017,2.276253673007393,11.495847757073467,2366,8,0.0,207,49798796660289,12,32.8,383.0915832519531,0.27250000834465027,0,0.0,0.0,,,,,0,,3,,
Raw,22102610,22108109000000,,,-1291005708757697280,0.0,4226.794000715017,2.276253673007393,11.495847757073467,2366,4,0.0,15,384616794295529,13,31.0,-338.9826354980469,0.07609999924898148,0,0.0,0.0,,,,,0,,1,,
Raw,22102613,22108109000000,,,-1291005708757697280,0.0,4226.794000715017,2.276253673007393,11.495847757073467,2366,8,0.0,15,384616791254320,21,26.8,-637.495849609375,0.2671999931335449,0,0.0,0.0,,,,,0,,1,,
Raw,22102615,22108109000000,,,-1291005708757697280,0.0,4226.794000715017,2.276253673007393,11.495847757073467,2366,9,0.0,15,384616784353039,17,28.2,-595.13720703125,0.10339999943971634,0,0.0,0.0,,,,,0,,1,,
Raw,22102618,22108109000000,,,-1291005708757697280,0.0,4226.794000715017,2.276253673007393,11.495847757073467,2366,16,0.0,15,384616797146125,7,37.2,160.8690643310547,0.05300000309944153,0,0.0,0.0,,,,,0,,1,,
Raw,22102620,22108109000000,,,-1291005708757697280,0.0,4226.794000715017,2.276253673007393,11.495847757073467,2366,22,0.0,15,384616782878146,16,29.8,278.85516357421875,0.07739999890327454,0,0.0,0.0,,,,,0,,1,,
Raw,22102621,22108109000000,,,-1291005708757697280,0.0,4226.794000715017,2.276253673007393,11.495847757073467,2366,27,0.0,15,384616798648885,7,37.7,-330.4352111816406,0.05450000241398811,0,0.0,0.0,,,,,0,,1,,
Fix,gps,22.925456,120.294677,46.335205,0.000000,5.360000,1606992599000
NMEA,$GPGSV,3,1,11,04,44,303,31,08,29,206,27,09,09,319,28,11,00,000,25*79,1606992598480
NMEA,$GPGSV,3,2,11,16,55,337,37,22,07,226,30,27,65,185,38,18,09,071,*79,1606992598482
NMEA,$GPGSV,3,3,11,26,40,028,,31,36,090,,32,04,153,*4F,1606992598483
NMEA,$GLGSV,3,1,09,75,00,000,33,73,15,066,24,85,32,154,30,71,17,194,37*6D,1606992598483
NMEA,$GLGSV,3,2,09,72,39,246,33,74,36,015,,65,27,298,,84,42,077,*6F,1606992598484
NMEA,$GLGSV,3,3,09,83,05,028,*58,1606992598485
NMEA,$GAGSV,1,1,0,*74,1606992598487
NMEA,$PQGSV,1,1,02,193,27,171,31,195,58,119,,0,5*6A,1606992598489
NMEA,$PQGSV,1,1,0,*73,1606992598490
NMEA,$GNGSA,A,3,04,08,09,16,22,27,,,,,,,1.7,1.4,0.8,1*3D,1606992598492
NMEA,$GNGSA,A,2,65,71,72,,,,,,,,,,1.7,1.4,0.8,2*38,1606992598493
NMEA,$GNVTG,,T,,M,0.0,N,0.0,K,A*3D,1606992598494
NMEA,$GNRMC,104959.00,A,2255.527383,N,12017.680635,E,0.0,,031220,2.8,W,A*1C,1606992598495
NMEA,$GNGGA,104959.00,2255.527383,N,12017.680635,E,1,09,1.4,28.9,M,17.5,M,,*4D,1606992598496
Raw,22103600,22109121000000,,,-1291005708757078272,0.0,4226.937890052795,-3.1506064214267564,14.141982805399213,2367,9,0.0,207,49799801266526,27,24.0,246.76287841796875,0.8330000042915344,0,0.0,0.0,,,,,0,,3,,
Raw,22103603,22109121000000,,,-1291005708757078272,0.0,4226.937890052795,-3.1506064214267564,14.141982805399213,2367,21,0.0,207,49799806279861,14,30.2,-685.3018798828125,0.27250000834465027,0,0.0,0.0,,,,,0,,3,,
Raw,22103605,22109121000000,,,-1291005708757078272,0.0,4226.937890052795,-3.1506064214267564,14.141982805399213,2367,7,0.0,207,49799801898585,7,37.3,739.2553100585938,0.2590000033378601,0,0.0,0.0,,,,,0,,3,,
Raw,22103608,22109121000000,,,-1291005708757078272,0.0,4226.937890052795,-3.1506064214267564,14.141982805399213,2367,8,0.0,207,49799808039891,12,32.6,384.95037841796875,0.2605000138282776,0,0.0,0.0,,,,,0,,3,,
Raw,22103610,22109121000000,,,-1291005708757078272,0.0,4226.937890052795,-3.1506064214267564,14.141982805399213,2367,3,0.0,15,384617795591805,16,29.1,321.6173400878906,0.09690000116825104,0,0.0,0.0,,,,,0,,1,,
Raw,22103612,22109121000000,,,-1291005708757078272,0.0,4226.937890052795,-3.1506064214267564,14.141982805399213,2367,4,0.0,15,384617805677567,14,30.5,-337.02410888671875,0.07100000232458115,0,0.0,0.0,,,,,0,,1,,
Raw,22103615,22109121000000,,,-1291005708757078272,0.0,4226.937890052795,-3.1506064214267564,14.141982805399213,2367,8,0.0,15,384617802637309,21,26.1,-637.1917724609375,0.25369998812675476,0,0.0,0.0,,,,,0,,1,,
Raw,22103617,22109121000000,,,-1291005708757078272,0.0,4226.937890052795,-3.1506064214267564,14.141982805399213,2367,16,0.0,15,384617808526551,8,36.7,162.61399841308594,0.042500000447034836,0,0.0,0.0,,,,,0,,1,,
Raw,22103619,22109121000000,,,-1291005708757078272,0.0,4226.937890052795,-3.1506064214267564,14.141982805399213,2367,22,0.0,15,384617794258082,12,32.8,280.6133728027344,0.06949999928474426,0,0.0,0.0,,,,,0,,1,,
Raw,22103621,22109121000000,,,-1291005708757078272,0.0,4226.937890052795,-3.1506064214267564,14.141982805399213,2367,27,0.0,15,384617810030958,6,38.2,-328.6119079589844,0.039900001138448715,0,0.0,0.0,,,,,0,,1,,
Fix,gps,22.925456,120.294677,46.333984,0.000000,5.360000,1606992600000
NMEA,$GPGSV,3,1,11,03,09,247,29,04,44,303,31,08,29,206,26,11,00,000,25*79,1606992599482
NMEA,$GPGSV,3,2,11,16,55,337,37,22,07,226,33,27,65,185,38,18,09,071,*7A,1606992599482
NMEA,$GPGSV,3,3,11,26,40,028,,31,36,090,,32,04,153,*4F,1606992599486
NMEA,$GLGSV,3,1,09,75,00,000,33,73,15,066,24,85,32,154,30,71,17,194,37*6D,1606992599486
NMEA,$GLGSV,3,2,09,72,39,246,33,74,36,015,,65,27,298,,84,42,077,*6F,1606992599487
NMEA,$GLGSV,3,3,09,83,05,028,*58,1606992599488
