# 
# Header Description:
# 
# Version: v2.0.0.1 Platform: 8.0.0 Manufacturer: Sony Model: G8142
# 
# Raw,ElapsedRealtimeMillis,TimeNanos,LeapSecond,TimeUncertaintyNanos,FullBiasNanos,BiasNanos,BiasUncertaintyNanos,DriftNanosPerSecond,DriftUncertaintyNanosPerSecond,HardwareClockDiscontinuityCount,Svid,TimeOffsetNanos,State,ReceivedSvTimeNanos,ReceivedSvTimeUncertaintyNanos,Cn0DbHz,PseudorangeRateMetersPerSecond,PseudorangeRateUncertaintyMetersPerSecond,AccumulatedDeltaRangeState,AccumulatedDeltaRangeMeters,AccumulatedDeltaRangeUncertaintyMeters,CarrierFrequencyHz,CarrierCycles,CarrierPhase,CarrierPhaseUncertainty,MultipathIndicator,SnrInDb,ConstellationType,AgcDb,CarrierFrequencyHz
# 
# Fix,Provider,Latitude,Longitude,Altitude,Speed,Accuracy,(UTC)TimeInMs
# 
# Nav,Svid,Type,Status,MessageId,Sub-messageId,Data(Bytes)
# 
Fix,gps,22.925471,120.294727,50.184082,0.000000,4.288000,1606992989000
NMEA,$GPGSV,3,1,12,03,09,244,37,04,45,302,21,08,31,206,25,09,11,317,33*76,1606992981490
NMEA,$GPGSV,3,2,12,11,00,000,16,16,54,341,18,18,09,068,18,22,06,224,31*72,1606992981491
NMEA,$GPGSV,3,3,12,27,68,185,14,31,35,092,16,26,39,030,,32,02,153,*79,1606992981492
NMEA,$GLGSV,3,1,09,75,00,000,28,65,27,293,22,85,35,153,19,71,14,192,20*67,1606992981493
NMEA,$GLGSV,3,2,09,72,37,241,35,74,35,018,,73,14,068,,84,42,071,*62,1606992981494
NMEA,$GLGSV,3,3,09,83,03,026,*50,1606992981495
NMEA,$GAGSV,2,1,08,02,11,275,26,05,51,217,34,03,36,295,,09,17,168,*6F,1606992981496
NMEA,$GAGSV,2,2,08,24,37,035,,25,45,319,,31,01,070,,36,10,178,*67,1606992981497
NMEA,$PQGSV,1,1,03,193,26,171,14,195,59,118,21,194,59,037,,0,5*6A,1606992981498
NMEA,$PQGSV,4,1,16,02,40,240,32,03,58,202,22,05,16,255,33,06,68,177,18,0,4*66,1606992981499
NMEA,$PQGSV,4,2,16,07,63,327,14,09,73,289,14,10,49,282,25,12,31,182,15,0,4*6D,1606992981500
Raw,22493536,22498830000000,,,-1291005708611067904,0.0,56.763336033327505,3.3853876276275456,16.19926561309566,2643,10,0.0,207,50189370254189,386,12.0,14.641982078552246,11.456501007080078,0,0.0,0.0,,,,,0,,3,,
Raw,22493536,22498830000000,,,-1291005708611067904,0.0,56.763336033327505,3.3853876276275456,16.19926561309566,2643,1,0.0,207,50189368146730,128,22.9,-67.12096405029297,6.93850040435791,0,0.0,0.0,,,,,0,,3,,
Raw,22493536,22498830000000,,,-1291005708611067904,0.0,56.763336033327505,3.3853876276275456,16.19926561309566,2643,21,0.0,207,50189370144309,89,18.7,-657.9176025390625,4.21150016784668,0,0.0,0.0,,,,,0,,3,,
Raw,22493537,22498830000000,,,-1291005708611067904,0.0,56.763336033327505,3.3853876276275456,16.19926561309566,2643,7,0.0,207,50189363928909,40,21.2,736.9591674804688,0.9909999966621399,0,0.0,0.0,,,,,0,,3,,
Raw,22493537,22498830000000,,,-1291005708611067904,0.0,56.763336033327505,3.3853876276275456,16.19926561309566,2643,8,0.0,207,50189370501468,19,27.8,427.8645324707031,0.2563000023365021,0,0.0,0.0,,,,,0,,3,,
Raw,22493537,22498830000000,,,-1291005708611067904,0.0,56.763336033327505,3.3853876276275456,16.19926561309566,2643,3,0.0,15,385007358160871,12,32.8,325.76507568359375,0.05090000107884407,0,0.0,0.0,,,,,0,,1,,
Raw,22493537,22498830000000,,,-1291005708611067904,0.0,56.763336033327505,3.3853876276275456,16.19926561309566,2643,4,0.0,15,385007369079307,116,14.6,-295.0788879394531,2.870000123977661,0,0.0,0.0,,,,,0,,1,,
Raw,22493537,22498830000000,,,-1291005708611067904,0.0,56.763336033327505,3.3853876276275456,16.19926561309566,2643,8,0.0,15,385007366439424,9,35.4,-612.9791870117188,0.03060000203549862,0,0.0,0.0,,,,,0,,1,,
Raw,22493537,22498830000000,,,-1291005708611067904,0.0,56.763336033327505,3.3853876276275456,16.19926561309566,2643,9,0.0,15,385007359483636,35,22.5,-571.8229370117188,0.7549999952316284,0,0.0,0.0,,,,,0,,1,,
Raw,22493537,22498830000000,,,-1291005708611067904,0.0,56.763336033327505,3.3853876276275456,16.19926561309566,2643,16,0.0,15,385007371294353,557,15.8,180.54112243652344,15.088000297546387,0,0.0,0.0,,,,,0,,1,,
Raw,22493538,22498830000000,,,-1291005708611067904,0.0,56.763336033327505,3.3853876276275456,16.19926561309566,2643,18,0.0,15,385007358728858,70,17.3,-17.897119522094727,1.1934999227523804,0,0.0,0.0,,,,,0,,1,,
Raw,22493538,22498830000000,,,-1291005708611067904,0.0,56.763336033327505,3.3853876276275456,16.19926561309566,2643,22,0.0,15,385007356889813,87,17.3,271.0543212890625,3.440500020980835,0,0.0,0.0,,,,,0,,1,,
Raw,22493538,22498830000000,,,-1291005708611067904,0.0,56.763336033327505,3.3853876276275456,16.19926561309566,2643,27,0.0,15,385007373418093,98,16.4,-280.6451110839844,3.5260000228881836,0,0.0,0.0,,,,,0,,1,,
Raw,22493538,22498830000000,,,-1291005708611067904,0.0,56.763336033327505,3.3853876276275456,16.19926561309566,2643,31,0.0,15,385007365686300,61,18.6,281.6631774902344,1.0040000677108765,0,0.0,0.0,,,,,0,,1,,
Raw,22493538,22498830000000,,,-1291005708611067904,0.0,56.763336033327505,3.3853876276275456,16.19926561309566,2643,2,0.0,783,384993316019460,57,26.1,1.1906448602676392,4.273499965667725,0,0.0,0.0,,,,,0,,5,,
Raw,22493538,22498830000000,,,-1291005708611067904,0.0,56.763336033327505,3.3853876276275456,16.19926561309566,2643,3,0.0,783,384993319360408,1206,21.6,6.308497905731201,23.255001068115234,0,0.0,0.0,,,,,0,,5,,
Raw,22493538,22498830000000,,,-1291005708611067904,0.0,56.763336033327505,3.3853876276275456,16.19926561309566,2643,5,0.0,783,384993307762397,21,27.1,1.0754210948944092,1.2050000429153442,0,0.0,0.0,,,,,0,,5,,
Raw,22493539,22498830000000,,,-1291005708611067904,0.0,56.763336033327505,3.3853876276275456,16.19926561309566,2643,6,0.0,15,384993321259582,188,15.2,107.10042572021484,7.168000221252441,0,0.0,0.0,,,,,0,,5,,
Raw,22493539,22498830000000,,,-1291005708611067904,0.0,56.763336033327505,3.3853876276275456,16.19926561309566,2643,7,0.0,15,384993318608244,97,17.3,69.29745483398438,4.023499965667725,0,0.0,0.0,,,,,0,,5,,
Raw,22493539,22498830000000,,,-1291005708611067904,0.0,56.763336033327505,3.3853876276275456,16.19926561309566,2643,9,0.0,15,384993322112847,499,12.3,-13.202714920043945,13.479500770568848,0,0.0,0.0,,,,,0,,5,,
Raw,22493539,22498830000000,,,-1291005708611067904,0.0,56.763336033327505,3.3853876276275456,16.19926561309566,2643,10,0.0,15,384993316261415,31,23.9,54.16474151611328,0.6004999876022339,0,0.0,0.0,,,,,0,,5,,
Raw,22493539,22498830000000,,,-1291005708611067904,0.0,56.763336033327505,3.3853876276275456,16.19926561309566,2643,12,0.0,15,384993361708255,182,14.4,-581.879638671875,6.508000373840332,0,0.0,0.0,,,,,0,,5,,
Raw,22493539,22498830000000,,,-1291005708611067904,0.0,56.763336033327505,3.3853876276275456,16.19926561309566,2643,14,0.0,15,384993358634067,24,25.8,194.38592529296875,0.40880000591278076,0,0.0,0.0,,,,,0,,5,,
Raw,22493540,22498830000000,,,-1291005708611067904,0.0,56.763336033327505,3.3853876276275456,16.19926561309566,2643,16,0.0,15,384993320485178,120,15.7,120.12069702148438,4.166500091552734,0,0.0,0.0,,,,,0,,5,,
Raw,22493540,22498830000000,,,-1291005708611067904,0.0,56.763336033327505,3.3853876276275456,16.19926561309566,2643,21,0.0,15,384993353978778,27,24.7,491.93798828125,0.5960000157356262,0,0.0,0.0,,,,,0,,5,,
Raw,22493540,22498830000000,,,-1291005708611067904,0.0,56.763336033327505,3.3853876276275456,16.19926561309566,2643,24,0.0,15,384993360824104,17,28.0,-278.7547912597656,0.0333000011742115,0,0.0,0.0,,,,,0,,5,,
Raw,22493540,22498830000000,,,-1291005708611067904,0.0,56.763336033327505,3.3853876276275456,16.19926561309566,2643,26,0.0,15,384993366564206,93,15.8,-27.893735885620117,1.0855000019073486,0,0.0,0.0,,,,,0,,5,,
Raw,22493540,22498830000000,,,-1291005708611067904,0.0,56.763336033327505,3.3853876276275456,16.19926561309566,2643,29,0.0,15,384993352211217,212,15.1,533.5145263671875,7.934500217437744,0,0.0,0.0,,,,,0,,5,,
Raw,22493540,22498830000000,,,-1291005708611067904,0.0,56.763336033327505,3.3853876276275456,16.19926561309566,2643,2,0.0,7183,385007349148186,27,24.7,-207.4010772705078,0.5519999861717224,0,0.0,0.0,,,,,0,,6,,
Raw,22493540,22498830000000,,,-1291005708611067904,0.0,56.763336033327505,3.3853876276275456,16.19926561309566,2643,3,0.0,7183,385007356172647,19,27.9,-137.83636474609375,0.06530000269412994,0,0.0,0.0,,,,,0,,6,,
Raw,22493541,22498830000000,,,-1291005708611067904,0.0,56.763336033327505,3.3853876276275456,16.19926561309566,2643,5,0.0,7183,385007359543070,16,29.9,333.31341552734375,0.04920000210404396,0,0.0,0.0,,,,,0,,6,,
NMEA,$PQGSV,4,3,16,14,25,264,34,16,71,184,16,21,11,185,21,24,33,317,26,0,4*6E,1606992981503
NMEA,$PQGSV,4,4,16,26,51,026,17,29,03,036,13,01,52,129,,04,37,113,,0,4*6E,1606992981504
NMEA,$GNGSA,A,3,03,04,08,09,22,31,,,,,,,1.2,0.9,0.8,1*37,1606992981508
NMEA,$GNGSA,A,2,65,71,72,,,,,,,,,,1.2,0.9,0.8,2*31,1606992981510
NMEA,$GNGSA,A,2,05,,,,,,,,,,,,1.2,0.9,0.8,3*35,1606992981511
NMEA,$PQGSA,A,2,10,21,24,,,,,,,,,,1.2,0.9,0.8,4*3B,1606992981512
NMEA,$GNVTG,,T,,M,0.0,N,0.0,K,A*3D,1606992981513
NMEA,$GNRMC,105622.00,A,2255.528180,N,12017.684161,E,0.0,,031220,2.8,W,A*12,1606992981513
NMEA,$GNGGA,105622.00,2255.528180,N,12017.684161,E,1,12,0.9,32.3,M,17.5,M,,*44,1606992981514
NMEA,$GPGSV,3,1,12,03,09,244,33,04,45,302,21,08,31,206,30,09,11,317,32*77,1606992982490
NMEA,$GPGSV,3,2,12,11,00,000,19,16,54,341,17,18,09,068,18,22,06,224,31*72,1606992982491
NMEA,$GPGSV,3,3,12,27,68,185,15,31,35,092,20,26,39,030,,32,02,153,*7D,1606992982496
NMEA,$GLGSV,3,1,09,75,00,000,28,65,27,293,21,85,35,153,19,71,14,192,23*67,1606992982496
NMEA,$GLGSV,3,2,09,72,37,241,33,74,35,018,,73,14,068,,84,42,071,*64,1606992982497
NMEA,$GLGSV,3,3,09,83,03,026,*50,1606992982499
NMEA,$GAGSV,2,1,08,02,11,275,23,05,51,217,31,03,36,293,,09,16,168,*68,1606992982501
NMEA,$GAGSV,2,2,08,24,37,035,,25,45,320,,31,01,070,,36,10,178,*6D,1606992982504
NMEA,$PQGSV,1,1,03,193,26,171,14,195,59,118,19,194,59,037,,0,5*61,1606992982505
NMEA,$PQGSV,4,1,16,02,40,240,31,03,58,202,22,05,16,255,29,06,68,177,18,0,4*6E,1606992982505
NMEA,$PQGSV,4,2,16,07,63,327,11,09,73,289,14,10,49,282,25,12,31,182,15,0,4*68,1606992982506
NMEA,$PQGSV,4,3,16,14,25,264,31,16,71,184,16,21,11,185,23,24,33,317,26,0,4*69,1606992982506
NMEA,$PQGSV,4,4,16,26,51,026,17,29,03,036,13,01,52,129,,04,37,113,,0,4*6E,1606992982506
NMEA,$GNGSA,A,3,03,04,08,09,22,31,,,,,,,1.1,0.8,0.8,1*35,1606992982507
NMEA,$GNGSA,A,2,65,71,72,,,,,,,,,,1.1,0.8,0.8,2*33,1606992982507
NMEA,$GNGSA,A,2,05,,,,,,,,,,,,1.1,0.8,0.8,3*37,1606992982507
NMEA,$PQGSA,A,2,10,21,24,,,,,,,,,,1.1,0.8,0.8,4*39,1606992982507
NMEA,$GNVTG,,T,,M,0.0,N,0.0,K,A*3D,1606992982507
NMEA,$GNRMC,105623.00,A,2255.528232,N,12017.684272,E,0.0,,031220,2.8,W,A*18,1606992982508
NMEA,$GNGGA,105623.00,2255.528232,N,12017.684272,E,1,12,0.8,31.8,M,17.5,M,,*47,1606992982508
NMEA,$GPGSV,3,1,12,03,09,244,32,04,45,302,20,08,31,206,36,09,11,317,31*72,1606992983494
Raw,22494549,22499830000000,,,-1291005708611067904,0.0,60.25540642440319,1.8299332828392199,17.99331591755434,2643,10,0.0,207,50190370254140,461,12.0,14.641982078552246,12.956501007080078,0,0.0,0.0,,,,,0,,3,,
Raw,22494549,22499830000000,,,-1291005708611067904,0.0,60.25540642440319,1.8299332828392199,17.99331591755434,2643,1,0.0,207,50190368146792,172,12.0,-67.38286590576172,4.808500289916992,0,0.0,0.0,,,,,0,,3,,
Raw,22494549,22499830000000,,,-1291005708611067904,0.0,60.25540642440319,1.8299332828392199,17.99331591755434,2643,21,0.0,207,50190370146791,90,16.4,-659.169677734375,2.881500005722046,0,0.0,0.0,,,,,0,,3,,
Raw,22494549,22499830000000,,,-1291005708611067904,0.0,60.25540642440319,1.8299332828392199,17.99331591755434,2643,7,0.0,207,50190363926505,46,20.9,736.93115234375,1.0509999990463257,0,0.0,0.0,,,,,0,,3,,
Raw,22494549,22499830000000,,,-1291005708611067904,0.0,60.25540642440319,1.8299332828392199,17.99331591755434,2643,8,0.0,207,50190370500038,17,28.4,427.45587158203125,0.2483000010251999,0,0.0,0.0,,,,,0,,3,,
Raw,22494550,22499830000000,,,-1291005708611067904,0.0,60.25540642440319,1.8299332828392199,17.99331591755434,2643,3,0.0,15,385008358159796,12,32.9,325.2321472167969,0.05090000107884407,0,0.0,0.0,,,,,0,,1,,
Raw,22494550,22499830000000,,,-1291005708611067904,0.0,60.25540642440319,1.8299332828392199,17.99331591755434,2643,4,0.0,15,385008369080291,136,14.6,-295.0788879394531,4.37000036239624,0,0.0,0.0,,,,,0,,1,,
Raw,22494550,22499830000000,,,-1291005708611067904,0.0,60.25540642440319,1.8299332828392199,17.99331591755434,2643,8,0.0,15,385008366441470,11,33.5,-613.436767578125,0.03189999982714653,0,0.0,0.0,,,,,0,,1,,
Raw,22494550,22499830000000,,,-1291005708611067904,0.0,60.25540642440319,1.8299332828392199,17.99331591755434,2643,9,0.0,15,385008359485609,17,28.9,-572.4839477539062,0.06180000305175781,0,0.0,0.0,,,,,0,,1,,
Raw,22494550,22499830000000,,,-1291005708611067904,0.0,60.25540642440319,1.8299332828392199,17.99331591755434,2643,16,0.0,15,385008371293751,659,15.8,180.54112243652344,16.588001251220703,0,0.0,0.0,,,,,0,,1,,
Raw,22494550,22499830000000,,,-1291005708611067904,0.0,60.25540642440319,1.8299332828392199,17.99331591755434,2643,18,0.0,15,385008358728917,79,17.3,-17.897119522094727,2.69350004196167,0,0.0,0.0,,,,,0,,1,,
Raw,22494551,22499830000000,,,-1291005708611067904,0.0,60.25540642440319,1.8299332828392199,17.99331591755434,2643,22,0.0,15,385008356888909,112,17.3,271.0543212890625,4.940500259399414,0,0.0,0.0,,,,,0,,1,,
Raw,22494551,22499830000000,,,-1291005708611067904,0.0,60.25540642440319,1.8299332828392199,17.99331591755434,2643,27,0.0,15,385008373419029,84,16.2,-281.1018371582031,2.0260000228881836,0,0.0,0.0,,,,,0,,1,,
Raw,22494551,22499830000000,,,-1291005708611067904,0.0,60.25540642440319,1.8299332828392199,17.99331591755434,2643,31,0.0,15,385008365685360,69,18.6,281.6631774902344,2.504000186920166,0,0.0,0.0,,,,,0,,1,,
Raw,22494551,22499830000000,,,-1291005708611067904,0.0,60.25540642440319,1.8299332828392199,17.99331591755434,2643,2,0.0,783,384994316019428,31,25.2,4.81058931350708,2.053500175476074,0,0.0,0.0,,,,,0,,5,,
Raw,22494551,22499830000000,,,-1291005708611067904,0.0,60.25540642440319,1.8299332828392199,17.99331591755434,2643,3,0.0,783,384994319360387,1364,21.6,6.308497905731201,24.755001068115234,0,0.0,0.0,,,,,0,,5,,
Raw,22494551,22499830000000,,,-1291005708611067904,0.0,60.25540642440319,1.8299332828392199,17.99331591755434,2643,5,0.0,783,384994307762393,33,27.1,1.0754210948944092,2.705000162124634,0,0.0,0.0,,,,,0,,5,,
Raw,22494551,22499830000000,,,-1291005708611067904,0.0,60.25540642440319,1.8299332828392199,17.99331591755434,2643,6,0.0,15,384994321259192,123,14.8,107.39808654785156,3.4179999828338623,0,0.0,0.0,,,,,0,,5,,
Raw,22494552,22499830000000,,,-1291005708611067904,0.0,60.25540642440319,1.8299332828392199,17.99331591755434,2643,7,0.0,15,384994318607989,132,13.1,67.3386459350586,2.883500099182129,0,0.0,0.0,,,,,0,,5,,
Raw,22494552,22499830000000,,,-1291005708611067904,0.0,60.25540642440319,1.8299332828392199,17.99331591755434,2643,9,0.0,15,384994322112891,590,12.3,-13.202714920043945,14.979500770568848,0,0.0,0.0,,,,,0,,5,,
Raw,22494552,22499830000000,,,-1291005708611067904,0.0,60.25540642440319,1.8299332828392199,17.99331591755434,2643,10,0.0,15,384994316261190,35,22.4,52.887672424316406,0.6904999613761902,0,0.0,0.0,,,,,0,,5,,
Raw,22494552,22499830000000,,,-1291005708611067904,0.0,60.25540642440319,1.8299332828392199,17.99331591755434,2643,12,0.0,15,384994361710196,227,14.4,-581.879638671875,8.008000373840332,0,0.0,0.0,,,,,0,,5,,
Raw,22494552,22499830000000,,,-1291005708611067904,0.0,60.25540642440319,1.8299332828392199,17.99331591755434,2643,14,0.0,15,384994358633411,19,27.5,193.94357299804688,0.06830000132322311,0,0.0,0.0,,,,,0,,5,,
Raw,22494552,22499830000000,,,-1291005708611067904,0.0,60.25540642440319,1.8299332828392199,17.99331591755434,2643,16,0.0,15,384994320484778,149,15.7,120.12069702148438,5.666500091552734,0,0.0,0.0,,,,,0,,5,,
Raw,22494552,22499830000000,,,-1291005708611067904,0.0,60.25540642440319,1.8299332828392199,17.99331591755434,2643,21,0.0,15,384994353977147,31,23.2,491.04498291015625,0.6360000371932983,0,0.0,0.0,,,,,0,,5,,
Raw,22494553,22499830000000,,,-1291005708611067904,0.0,60.25540642440319,1.8299332828392199,17.99331591755434,2643,24,0.0,15,384994360825049,24,25.6,-279.16192626953125,0.38179999589920044,0,0.0,0.0,,,,,0,,5,,
Raw,22494553,22499830000000,,,-1291005708611067904,0.0,60.25540642440319,1.8299332828392199,17.99331591755434,2643,26,0.0,15,384994366564259,80,16.4,-30.620695114135742,1.0855000019073486,0,0.0,0.0,,,,,0,,5,,
Raw,22494553,22499830000000,,,-1291005708611067904,0.0,60.25540642440319,1.8299332828392199,17.99331591755434,2643,29,0.0,15,384994352209437,266,15.1,533.5145263671875,9.434500694274902,0,0.0,0.0,,,,,0,,5,,
Raw,22494553,22499830000000,,,-1291005708611067904,0.0,60.25540642440319,1.8299332828392199,17.99331591755434,2643,2,0.0,7183,385008349148882,31,23.1,-208.54283142089844,0.6019999980926514,0,0.0,0.0,,,,,0,,6,,
Raw,22494553,22499830000000,,,-1291005708611067904,0.0,60.25540642440319,1.8299332828392199,17.99331591755434,2643,3,0.0,7183,385008356173119,17,28.7,-138.6287841796875,0.05730000138282776,0,0.0,0.0,,,,,0,,6,,
Raw,22494554,22499830000000,,,-1291005708611067904,0.0,60.25540642440319,1.8299332828392199,17.99331591755434,2643,5,0.0,7183,385008359541956,17,28.3,332.6891174316406,0.055800002068281174,0,0.0,0.0,,,,,0,,6,,
NMEA,$GPGSV,3,2,12,11,00,000,20,16,54,341,17,18,09,068,17,22,06,224,27*70,1606992983494
NMEA,$GPGSV,3,3,12,27,68,185,22,31,35,092,19,26,39,030,,32,02,153,*73,1606992983495
NMEA,$GLGSV,3,1,09,75,00,000,28,65,27,293,21,85,35,153,19,71,14,192,25*61,1606992983496
NMEA,$GLGSV,3,2,09,72,37,241,28,74,35,018,,73,14,068,,84,42,071,*6E,1606992983497
NMEA,$GLGSV,3,3,09,83,03,026,*50,1606992983497
NMEA,$GAGSV,2,1,08,02,11,275,23,03,36,293,24,05,51,217,23,09,16,168,*6D,1606992983498
NMEA,$GAGSV,2,2,08,24,37,035,,25,45,320,,31,01,070,,36,10,178,*6D,1606992983507
NMEA,$PQGSV,1,1,03,193,26,171,14,194,59,037,20,195,59,118,22,0,5*6B,1606992983507
NMEA,$PQGSV,4,1,16,02,40,240,31,03,58,202,22,05,16,255,29,06,68,177,14,0,4*62,1606992983509
NMEA,$PQGSV,4,2,16,07,63,327,11,09,73,289,12,10,49,282,26,12,31,182,18,0,4*60,1606992983509
NMEA,$PQGSV,4,3,16,14,25,264,25,16,71,184,16,21,11,185,24,24,33,317,28,0,4*65,1606992983510
NMEA,$PQGSV,4,4,16,26,51,026,20,29,03,036,14,01,52,129,,04,37,113,,0,4*6D,1606992983511
NMEA,$GNGSA,A,3,03,04,08,09,16,22,27,31,,,,,1.1,0.8,0.7,1*38,1606992983515
NMEA,$GNGSA,A,2,65,71,72,,,,,,,,,,1.1,0.8,0.7,2*3C,1606992983516
NMEA,$GNGSA,A,2,05,,,,,,,,,,,,1.1,0.8,0.7,3*38,1606992983517
NMEA,$PQGSA,A,2,10,21,24,,,,,,,,,,1.1,0.8,0.7,4*36,1606992983517
NMEA,$GNVTG,,T,,M,0.0,N,0.0,K,A*3D,1606992983518
NMEA,$GNRMC,105624.00,A,2255.528256,N,12017.684438,E,0.0,,031220,2.8,W,A*15,1606992983519
NMEA,$GNGGA,105624.00,2255.528256,N,12017.684438,E,1,12,0.8,31.7,M,17.5,M,,*45,1606992983520
NMEA,$GPGSV,3,1,12,03,09,244,34,04,45,302,18,08,31,206,32,09,11,317,28*73,1606992984492
NMEA,$GPGSV,3,2,12,11,00,000,25,16,54,341,16,18,09,068,17,22,06,224,28*7B,1606992984493
NMEA,$GPGSV,3,3,12,27,68,185,22,31,35,092,20,26,39,030,,32,02,153,*79,1606992984493
NMEA,$GLGSV,3,1,09,75,00,000,28,65,27,293,15,85,35,153,19,71,14,192,25*66,1606992984494
NMEA,$GLGSV,3,2,09,72,37,241,27,74,35,018,,73,14,068,,84,42,071,*61,1606992984495
NMEA,$GLGSV,3,3,09,83,03,026,*50,1606992984500
NMEA,$GAGSV,2,1,08,02,11,275,22,03,36,293,23,05,51,217,27,09,16,168,*6F,1606992984503
NMEA,$GAGSV,2,2,08,24,37,035,,25,45,320,,31,01,070,,36,10,178,*6D,1606992984504
NMEA,$PQGSV,1,1,03,193,26,171,14,194,59,037,19,195,59,118,20,0,5*63,1606992984505
NMEA,$PQGSV,4,1,16,02,40,240,31,03,58,202,22,05,16,255,27,06,68,177,14,0,4*6C,1606992984506
Raw,22495552,22500830000000,,,-1291005708611067904,0.0,51.43695307197049,-4.069040279490749,14.044069673035402,2643,10,0.0,207,50191370254091,547,12.0,14.641982078552246,14.456501007080078,0,0.0,0.0,,,,,0,,3,,
Raw,22495552,22500830000000,,,-1291005708611067904,0.0,51.43695307197049,-4.069040279490749,14.044069673035402,2643,1,0.0,207,50191368147017,203,12.0,-67.38286590576172,6.308500289916992,0,0.0,0.0,,,,,0,,3,,
Raw,22495552,22500830000000,,,-1291005708611067904,0.0,51.43695307197049,-4.069040279490749,14.044069673035402,2643,21,0.0,207,50191370148990,110,16.4,-659.169677734375,4.381500244140625,0,0.0,0.0,,,,,0,,3,,
Raw,22495553,22500830000000,,,-1291005708611067904,0.0,51.43695307197049,-4.069040279490749,14.044069673035402,2643,7,0.0,207,50191363924183,70,17.9,737.14599609375,1.281000018119812,0,0.0,0.0,,,,,0,,3,,
Raw,22495553,22500830000000,,,-1291005708611067904,0.0,51.43695307197049,-4.069040279490749,14.044069673035402,2643,8,0.0,207,50191370498613,19,27.3,427.4354248046875,0.2563000023365021,0,0.0,0.0,,,,,0,,3,,
Raw,22495553,22500830000000,,,-1291005708611067904,0.0,51.43695307197049,-4.069040279490749,14.044069673035402,2643,3,0.0,15,385009358158701,10,34.8,325.10638427734375,0.04910000041127205,0,0.0,0.0,,,,,0,,1,,
Raw,22495553,22500830000000,,,-1291005708611067904,0.0,51.43695307197049,-4.069040279490749,14.044069673035402,2643,4,0.0,15,385009369081276,165,14.6,-295.0788879394531,5.87000036239624,0,0.0,0.0,,,,,0,,1,,
Raw,22495553,22500830000000,,,-1291005708611067904,0.0,51.43695307197049,-4.069040279490749,14.044069673035402,2643,8,0.0,15,385009366443521,10,34.4,-613.4964599609375,0.03110000118613243,0,0.0,0.0,,,,,0,,1,,
Raw,22495553,22500830000000,,,-1291005708611067904,0.0,51.43695307197049,-4.069040279490749,14.044069673035402,2643,9,0.0,15,385009359487488,31,23.5,-572.469970703125,0.6949999928474426,0,0.0,0.0,,,,,0,,1,,
Raw,22495553,22500830000000,,,-1291005708611067904,0.0,51.43695307197049,-4.069040279490749,14.044069673035402,2643,16,0.0,15,385009371293085,161,13.6,179.7323760986328,5.003000259399414,0,0.0,0.0,,,,,0,,1,,
Raw,22495554,22500830000000,,,-1291005708611067904,0.0,51.43695307197049,-4.069040279490749,14.044069673035402,2643,18,0.0,15,385009358728977,98,17.3,-17.897119522094727,4.19350004196167,0,0.0,0.0,,,,,0,,1,,
Raw,22495554,22500830000000,,,-1291005708611067904,0.0,51.43695307197049,-4.069040279490749,14.044069673035402,2643,22,0.0,15,385009356888005,146,17.3,271.0543212890625,6.440500259399414,0,0.0,0.0,,,,,0,,1,,
Raw,22495554,22500830000000,,,-1291005708611067904,0.0,51.43695307197049,-4.069040279490749,14.044069673035402,2643,27,0.0,15,385009373419967,98,16.2,-281.1018371582031,3.5260000228881836,0,0.0,0.0,,,,,0,,1,,
Raw,22495554,22500830000000,,,-1291005708611067904,0.0,51.43695307197049,-4.069040279490749,14.044069673035402,2643,31,0.0,15,385009365684340,73,17.6,280.52142333984375,1.8339999914169312,0,0.0,0.0,,,,,0,,1,,
Raw,22495554,22500830000000,,,-1291005708611067904,0.0,51.43695307197049,-4.069040279490749,14.044069673035402,2643,2,0.0,783,384995316019412,48,25.2,4.81058931350708,3.553500175476074,0,0.0,0.0,,,,,0,,5,,
Raw,22495554,22500830000000,,,-1291005708611067904,0.0,51.43695307197049,-4.069040279490749,14.044069673035402,2643,3,0.0,783,384995319360366,1531,21.6,6.308497905731201,26.255001068115234,0,0.0,0.0,,,,,0,,5,,
Raw,22495554,22500830000000,,,-1291005708611067904,0.0,51.43695307197049,-4.069040279490749,14.044069673035402,2643,5,0.0,783,384995307762389,54,27.1,1.0754210948944092,4.205000400543213,0,0.0,0.0,,,,,0,,5,,
Raw,22495555,22500830000000,,,-1291005708611067904,0.0,51.43695307197049,-4.069040279490749,14.044069673035402,2643,6,0.0,15,384995321258834,147,14.8,107.39808654785156,4.918000221252441,0,0.0,0.0,,,,,0,,5,,
Raw,22495555,22500830000000,,,-1291005708611067904,0.0,51.43695307197049,-4.069040279490749,14.044069673035402,2643,7,0.0,15,384995318607764,151,13.1,67.3386459350586,4.383500099182129,0,0.0,0.0,,,,,0,,5,,
Raw,22495555,22500830000000,,,-1291005708611067904,0.0,51.43695307197049,-4.069040279490749,14.044069673035402,2643,9,0.0,15,384995322112935,690,12.3,-13.202714920043945,16.47949981689453,0,0.0,0.0,,,,,0,,5,,
Raw,22495555,22500830000000,,,-1291005708611067904,0.0,51.43695307197049,-4.069040279490749,14.044069673035402,2643,10,0.0,15,384995316261066,27,24.3,53.15653610229492,0.6004999876022339,0,0.0,0.0,,,,,0,,5,,
Raw,22495555,22500830000000,,,-1291005708611067904,0.0,51.43695307197049,-4.069040279490749,14.044069673035402,2643,12,0.0,15,384995361712137,281,14.4,-581.879638671875,9.508000373840332,0,0.0,0.0,,,,,0,,5,,
Raw,22495555,22500830000000,,,-1291005708611067904,0.0,51.43695307197049,-4.069040279490749,14.044069673035402,2643,14,0.0,15,384995358632773,19,27.4,193.81423950195312,0.06830000132322311,0,0.0,0.0,,,,,0,,5,,
Raw,22495555,22500830000000,,,-1291005708611067904,0.0,51.43695307197049,-4.069040279490749,14.044069673035402,2643,16,0.0,15,384995320484377,188,15.7,120.12069702148438,7.166500091552734,0,0.0,0.0,,,,,0,,5,,
Raw,22495556,22500830000000,,,-1291005708611067904,0.0,51.43695307197049,-4.069040279490749,14.044069673035402,2643,21,0.0,15,384995353975447,35,22.0,491.2946472167969,0.6859999895095825,0,0.0,0.0,,,,,0,,5,,
Raw,22495556,22500830000000,,,-1291005708611067904,0.0,51.43695307197049,-4.069040279490749,14.044069673035402,2643,24,0.0,15,384995360825966,24,25.1,-279.40771484375,0.38179999589920044,0,0.0,0.0,,,,,0,,5,,
Raw,22495556,22500830000000,,,-1291005708611067904,0.0,51.43695307197049,-4.069040279490749,14.044069673035402,2643,26,0.0,15,384995366564302,61,18.0,-31.85935401916504,0.9254999756813049,0,0.0,0.0,,,,,0,,5,,
Raw,22495556,22500830000000,,,-1291005708611067904,0.0,51.43695307197049,-4.069040279490749,14.044069673035402,2643,29,0.0,15,384995352207658,330,15.1,533.5145263671875,10.934500694274902,0,0.0,0.0,,,,,0,,5,,
Raw,22495556,22500830000000,,,-1291005708611067904,0.0,51.43695307197049,-4.069040279490749,14.044069673035402,2643,2,0.0,7183,385009349149564,19,27.4,-209.02452087402344,0.06680000573396683,0,0.0,0.0,,,,,0,,6,,
Raw,22495557,22500830000000,,,-1291005708611067904,0.0,51.43695307197049,-4.069040279490749,14.044069673035402,2643,3,0.0,7183,385009356173589,16,29.8,-139.80535888671875,0.050700001418590546,0,0.0,0.0,,,,,0,,6,,
Raw,22495557,22500830000000,,,-1291005708611067904,0.0,51.43695307197049,-4.069040279490749,14.044069673035402,2643,5,0.0,7183,385009359540846,27,24.6,331.89117431640625,0.5489999651908875,0,0.0,0.0,,,,,0,,6,,
NMEA,$PQGSV,4,2,16,07,63,327,15,09,73,289,12,10,49,282,29,12,31,182,18,0,4*6B,1606992984507
NMEA,$PQGSV,4,3,16,14,25,264,28,16,71,184,16,21,11,185,25,24,33,317,28,0,4*69,1606992984508
NMEA,$PQGSV,4,4,16,26,51,026,19,29,03,036,14,01,52,129,,04,37,113,,0,4*67,1606992984509
NMEA,$GNGSA,A,3,03,04,08,09,16,22,27,31,,,,,1.1,0.8,0.7,1*38,1606992984512
NMEA,$GNGSA,A,2,65,71,72,,,,,,,,,,1.1,0.8,0.7,2*3C,1606992984514
NMEA,$GNGSA,A,2,02,03,05,,,,,,,,,,1.1,0.8,0.7,3*39,1606992984515
NMEA,$PQGSA,A,2,10,21,24,,,,,,,,,,1.1,0.8,0.7,4*36,1606992984516
NMEA,$GNVTG,,T,,M,0.0,N,0.0,K,A*3D,1606992984517
NMEA,$GNRMC,105625.00,A,2255.528280,N,12017.684254,E,0.0,,031220,2.8,W,A*13,1606992984520
NMEA,$GNGGA,105625.00,2255.528280,N,12017.684254,E,1,12,0.8,32.3,M,17.5,M,,*44,1606992984522
NMEA,$GPGSV,3,1,12,03,09,244,34,04,45,302,21,08,31,206,33,09,11,317,28*78,1606992985493
NMEA,$GPGSV,3,2,12,11,00,000,27,16,54,341,16,18,09,068,17,22,06,224,25*74,1606992985494
NMEA,$GPGSV,3,3,12,26,39,030,18,27,68,185,23,31,35,092,20,32,02,153,*71,1606992985495
NMEA,$GLGSV,3,1,09,75,00,000,28,65,27,293,23,85,35,153,19,71,14,192,25*63,1606992985495
NMEA,$GLGSV,3,2,09,72,37,241,27,74,35,018,,73,14,068,,84,42,071,*61,1606992985497
NMEA,$GLGSV,3,3,09,83,03,026,*50,1606992985497
NMEA,$GAGSV,2,1,08,02,11,275,24,03,36,293,28,05,51,217,28,09,16,168,*6D,1606992985498
NMEA,$GAGSV,2,2,08,24,37,035,,25,45,320,,31,01,070,,36,10,178,*6D,1606992985499
NMEA,$PQGSV,1,1,03,193,26,171,14,195,59,118,22,194,59,037,,0,5*69,1606992985500
NMEA,$PQGSV,4,1,16,02,40,240,24,03,58,202,22,05,16,255,27,06,68,177,14,0,4*68,1606992985500
NMEA,$PQGSV,4,2,16,07,63,327,15,09,73,289,12,10,49,282,28,12,31,182,18,0,4*6A,1606992985505
NMEA,$PQGSV,4,3,16,14,25,264,29,16,71,184,17,21,11,185,26,24,33,317,28,0,4*6A,1606992985508
NMEA,$PQGSV,4,4,16,26,51,026,19,29,03,036,15,01,52,129,,04,37,113,,0,4*66,1606992985509
NMEA,$GNGSA,A,3,03,04,08,09,16,22,27,31,,,,,1.0,0.7,0.7,1*36,1606992985511
NMEA,$GNGSA,A,3,65,71,72,85,,,,,,,,,1.0,0.7,0.7,2*3E,1606992985512
NMEA,$GNGSA,A,2,02,03,05,,,,,,,,,,1.0,0.7,0.7,3*37,1606992985513
NMEA,$PQGSA,A,2,10,21,24,,,,,,,,,,1.0,0.7,0.7,4*38,1606992985514
NMEA,$GNVTG,,T,,M,0.0,N,0.0,K,A*3D,1606992985524
NMEA,$GNRMC,105626.00,A,2255.528277,N,12017.683829,E,0.0,,031220,2.8,W,A*1F,1606992985525
NMEA,$GNGGA,105626.00,2255.528277,N,12017.683829,E,1,12,0.7,32.6,M,17.5,M,,*42,1606992985525
NMEA,$GPGSV,3,1,12,03,09,244,34,04,45,302,17,08,31,206,36,09,11,317,23*73,1606992986492
Raw,22496595,22501830000000,,,-1291005708611067904,0.0,56.326673075091094,-5.180570011424097,15.91002272220466,2643,10,0.0,207,50192370254042,642,12.0,14.641982078552246,15.956501007080078,0,0.0,0.0,,,,,0,,3,,
Raw,22496596,22501830000000,,,-1291005708611067904,0.0,56.326673075091094,-5.180570011424097,15.91002272220466,2643,1,0.0,207,50192368147242,244,12.0,-67.38286590576172,7.808500289916992,0,0.0,0.0,,,,,0,,3,,
Raw,22496596,22501830000000,,,-1291005708611067904,0.0,56.326673075091094,-5.180570011424097,15.91002272220466,2643,21,0.0,207,50192370150840,56,19.2,-659.0294799804688,1.881500005722046,0,0.0,0.0,,,,,0,,3,,
Raw,22496596,22501830000000,,,-1291005708611067904,0.0,56.326673075091094,-5.180570011424097,15.91002272220466,2643,7,0.0,207,50192363921513,46,20.6,737.9586181640625,1.0509999990463257,0,0.0,0.0,,,,,0,,3,,
Raw,22496597,22501830000000,,,-1291005708611067904,0.0,56.326673075091094,-5.180570011424097,15.91002272220466,2643,8,0.0,207,50192370497196,21,26.7,428.912841796875,0.326200008392334,0,0.0,0.0,,,,,0,,3,,
Raw,22496597,22501830000000,,,-1291005708611067904,0.0,56.326673075091094,-5.180570011424097,15.91002272220466,2643,3,0.0,15,385010358157627,9,35.3,326.4957580566406,0.048600003123283386,0,0.0,0.0,,,,,0,,1,,
Raw,22496598,22501830000000,,,-1291005708611067904,0.0,56.326673075091094,-5.180570011424097,15.91002272220466,2643,4,0.0,15,385010369082260,205,14.6,-295.0788879394531,7.37000036239624,0,0.0,0.0,,,,,0,,1,,
Raw,22496598,22501830000000,,,-1291005708611067904,0.0,56.326673075091094,-5.180570011424097,15.91002272220466,2643,8,0.0,15,385010366445556,10,34.6,-612.0628051757812,0.03110000118613243,0,0.0,0.0,,,,,0,,1,,
Raw,22496599,22501830000000,,,-1291005708611067904,0.0,56.326673075091094,-5.180570011424097,15.91002272220466,2643,9,0.0,15,385010359489429,27,24.2,-571.2426147460938,0.6949999928474426,0,0.0,0.0,,,,,0,,1,,
Raw,22496599,22501830000000,,,-1291005708611067904,0.0,56.326673075091094,-5.180570011424097,15.91002272220466,2643,16,0.0,15,385010371292568,46,20.6,179.77993774414062,0.8629999756813049,0,0.0,0.0,,,,,0,,1,,
Raw,22496599,22501830000000,,,-1291005708611067904,0.0,56.326673075091094,-5.180570011424097,15.91002272220466,2643,18,0.0,15,385010358729037,127,17.3,-17.897119522094727,5.69350004196167,0,0.0,0.0,,,,,0,,1,,
Raw,22496600,22501830000000,,,-1291005708611067904,0.0,56.326673075091094,-5.180570011424097,15.91002272220466,2643,22,0.0,15,385010356887142,125,14.2,271.0543212890625,3.750500202178955,0,0.0,0.0,,,,,0,,1,,
Raw,22496600,22501830000000,,,-1291005708611067904,0.0,56.326673075091094,-5.180570011424097,15.91002272220466,2643,26,0.0,15,385010367432793,562,20.1,340.0643005371094,1.3619999885559082,0,0.0,0.0,,,,,0,,1,,
Raw,22496601,22501830000000,,,-1291005708611067904,0.0,56.326673075091094,-5.180570011424097,15.91002272220466,2643,27,0.0,15,385010373420766,110,14.2,-281.3016052246094,2.246000051498413,0,0.0,0.0,,,,,0,,1,,
Raw,22496601,22501830000000,,,-1291005708611067904,0.0,56.326673075091094,-5.180570011424097,15.91002272220466,2643,31,0.0,15,385010365683404,87,17.6,280.52142333984375,3.3340001106262207,0,0.0,0.0,,,,,0,,1,,
Raw,22496601,22501830000000,,,-1291005708611067904,0.0,56.326673075091094,-5.180570011424097,15.91002272220466,2643,2,0.0,783,384996316019396,75,25.2,4.81058931350708,5.053500175476074,0,0.0,0.0,,,,,0,,5,,
Raw,22496602,22501830000000,,,-1291005708611067904,0.0,56.326673075091094,-5.180570011424097,15.91002272220466,2643,3,0.0,783,384996319360345,1709,21.6,6.308497905731201,27.755001068115234,0,0.0,0.0,,,,,0,,5,,
Raw,22496602,22501830000000,,,-1291005708611067904,0.0,56.326673075091094,-5.180570011424097,15.91002272220466,2643,5,0.0,783,384996307762353,34,24.5,5.117852210998535,2.075000047683716,0,0.0,0.0,,,,,0,,5,,
Raw,22496603,22501830000000,,,-1291005708611067904,0.0,56.326673075091094,-5.180570011424097,15.91002272220466,2643,6,0.0,15,384996321258476,181,14.8,107.39808654785156,6.418000221252441,0,0.0,0.0,,,,,0,,5,,
Raw,22496603,22501830000000,,,-1291005708611067904,0.0,56.326673075091094,-5.180570011424097,15.91002272220466,2643,7,0.0,15,384996318607541,96,15.1,68.21243286132812,1.94350004196167,0,0.0,0.0,,,,,0,,5,,
Raw,22496603,22501830000000,,,-1291005708611067904,0.0,56.326673075091094,-5.180570011424097,15.91002272220466,2643,9,0.0,15,384996322112979,800,12.3,-13.202714920043945,17.979501724243164,0,0.0,0.0,,,,,0,,5,,
Raw,22496604,22501830000000,,,-1291005708611067904,0.0,56.326673075091094,-5.180570011424097,15.91002272220466,2643,10,0.0,15,384996316260877,27,24.4,54.84648132324219,0.6004999876022339,0,0.0,0.0,,,,,0,,5,,
Raw,22496604,22501830000000,,,-1291005708611067904,0.0,56.326673075091094,-5.180570011424097,15.91002272220466,2643,12,0.0,15,384996361714078,345,14.4,-581.879638671875,11.008000373840332,0,0.0,0.0,,,,,0,,5,,
Raw,22496605,22501830000000,,,-1291005708611067904,0.0,56.326673075091094,-5.180570011424097,15.91002272220466,2643,14,0.0,15,384996358632127,21,26.4,195.3089599609375,0.13819999992847443,0,0.0,0.0,,,,,0,,5,,
Raw,22496605,22501830000000,,,-1291005708611067904,0.0,56.326673075091094,-5.180570011424097,15.91002272220466,2643,16,0.0,15,384996320483989,110,15.2,118.55558776855469,3.4165000915527344,0,0.0,0.0,,,,,0,,5,,
Raw,22496606,22501830000000,,,-1291005708611067904,0.0,56.326673075091094,-5.180570011424097,15.91002272220466,2643,21,0.0,15,384996353973844,40,21.4,492.4468688964844,0.7459999918937683,0,0.0,0.0,,,,,0,,5,,
Raw,22496606,22501830000000,,,-1291005708611067904,0.0,56.326673075091094,-5.180570011424097,15.91002272220466,2643,24,0.0,15,384996360826915,24,25.6,-278.037109375,0.38179999589920044,0,0.0,0.0,,,,,0,,5,,
Raw,22496606,22501830000000,,,-1291005708611067904,0.0,56.326673075091094,-5.180570011424097,15.91002272220466,2643,26,0.0,15,384996366564408,69,18.0,-31.85935401916504,2.4255001544952393,0,0.0,0.0,,,,,0,,5,,
Raw,22496607,22501830000000,,,-1291005708611067904,0.0,56.326673075091094,-5.180570011424097,15.91002272220466,2643,29,0.0,15,384996352205878,404,15.1,533.5145263671875,12.434500694274902,0,0.0,0.0,,,,,0,,5,,
Raw,22496607,22501830000000,,,-1291005708611067904,0.0,56.326673075091094,-5.180570011424097,15.91002272220466,2643,2,0.0,7183,385010349150255,19,27.9,-206.67794799804688,0.44200000166893005,0,0.0,0.0,,,,,0,,6,,
Raw,22496608,22501830000000,,,-1291005708611067904,0.0,56.326673075091094,-5.180570011424097,15.91002272220466,2643,3,0.0,7183,385010356174048,14,30.5,-138.0580596923828,0.3605000078678131,0,0.0,0.0,,,,,0,,6,,
Raw,22496608,22501830000000,,,-1291005708611067904,0.0,56.326673075091094,-5.180570011424097,15.91002272220466,2643,5,0.0,7183,385010359539726,31,23.7,333.2042236328125,0.5989999771118164,0,0.0,0.0,,,,,0,,6,,
NMEA,$GPGSV,3,2,12,11,00,000,22,16,54,341,16,18,09,068,17,22,06,224,23*77,1606992986492
NMEA,$GPGSV,3,3,12,27,68,185,16,31,35,092,19,26,39,030,,32,02,153,*74,1606992986493
NMEA,$GLGSV,3,1,09,75,00,000,28,65,27,293,23,85,35,153,19,71,14,192,22*64,1606992986494
NMEA,$GLGSV,3,2,09,72,37,241,31,74,35,018,,73,14,068,,84,42,071,*66,1606992986494
NMEA,$GLGSV,3,3,09,83,03,026,*50,1606992986497
NMEA,$GAGSV,2,1,08,02,11,275,25,03,36,293,30,05,51,217,28,09,16,168,*65,1606992986498
NMEA,$GAGSV,2,2,08,24,37,035,,25,45,320,,31,01,070,,36,10,178,*6D,1606992986499
NMEA,$PQGSV,1,1,03,193,26,171,14,195,59,118,22,194,59,037,,0,5*69,1606992986500
NMEA,$PQGSV,4,1,16,02,40,240,24,03,58,202,22,05,16,255,26,06,68,177,15,0,4*68,1606992986501
NMEA,$PQGSV,4,2,16,07,63,327,17,09,73,289,12,10,49,282,25,12,31,182,18,0,4*65,1606992986501
NMEA,$PQGSV,4,3,16,14,25,264,29,16,71,184,17,21,11,185,25,24,33,317,29,0,4*68,1606992986502
NMEA,$PQGSV,4,4,16,26,51,026,15,29,03,036,15,01,52,129,,04,37,113,,0,4*6A,1606992986503
NMEA,$GNGSA,A,3,03,04,08,09,16,22,26,27,31,,,,1.0,0.7,0.7,1*32,1606992986507
NMEA,$GNGSA,A,3,65,71,72,85,,,,,,,,,1.0,0.7,0.7,2*3E,1606992986508
NMEA,$GNGSA,A,2,02,03,05,,,,,,,,,,1.0,0.7,0.7,3*37,1606992986508
NMEA,$PQGSA,A,2,10,21,24,,,,,,,,,,1.0,0.7,0.7,4*38,1606992986509
NMEA,$GNVTG,,T,,M,0.0,N,0.0,K,A*3D,1606992986510
NMEA,$GNRMC,105627.00,A,2255.528276,N,12017.683749,E,0.0,,031220,2.8,W,A*16,1606992986511
NMEA,$GNGGA,105627.00,2255.528276,N,12017.683749,E,1,12,0.7,32.4,M,17.5,M,,*49,1606992986511
NMEA,$GPGSV,3,1,12,03,09,244,32,04,45,302,17,08,31,206,37,09,11,317,25*72,1606992987490
NMEA,$GPGSV,3,2,12,11,00,000,21,16,54,341,16,18,09,068,17,22,06,224,23*74,1606992987491
NMEA,$GPGSV,3,3,12,27,68,185,16,31,35,092,19,26,39,030,,32,02,153,*74,1606992987492
NMEA,$GLGSV,3,1,09,75,00,000,28,65,27,293,23,85,35,153,19,71,14,192,23*65,1606992987493
NMEA,$GLGSV,3,2,09,72,37,241,30,74,35,018,,73,14,068,,84,42,071,*67,1606992987502
NMEA,$GLGSV,3,3,09,83,03,026,*50,1606992987503
NMEA,$GAGSV,2,1,08,02,11,275,24,03,36,293,29,05,51,217,27,09,16,168,*63,1606992987504
NMEA,$GAGSV,2,2,08,24,37,035,,25,45,320,,31,01,070,,36,10,178,*6D,1606992987504
NMEA,$PQGSV,1,1,03,193,26,171,13,195,59,118,22,194,59,037,,0,5*6E,1606992987505
NMEA,$PQGSV,4,1,16,02,40,240,26,03,58,202,22,05,16,255,28,06,68,177,15,0,4*64,1606992987506
NMEA,$PQGSV,4,2,16,07,63,327,17,09,73,289,12,10,49,282,25,12,31,182,14,0,4*69,1606992987507
NMEA,$PQGSV,4,3,16,14,25,264,27,16,71,184,17,21,11,185,25,24,33,317,29,0,4*66,1606992987509
Raw,22497607,22502830000000,,,-1291005708611067904,0.0,61.35448347777128,-0.4490583858797367,17.38079538526761,2643,10,0.0,207,50193370253993,748,12.0,14.641982078552246,17.456501007080078,0,0.0,0.0,,,,,0,,3,,
Raw,22497607,22502830000000,,,-1291005708611067904,0.0,61.35448347777128,-0.4490583858797367,17.38079538526761,2643,1,0.0,207,50193368147514,79,17.5,-68.02825164794922,2.7885000705718994,0,0.0,0.0,,,,,0,,3,,
Raw,22497608,22502830000000,,,-1291005708611067904,0.0,61.35448347777128,-0.4490583858797367,17.38079538526761,2643,21,0.0,207,50193370153102,46,20.7,-660.4684448242188,1.0614999532699585,0,0.0,0.0,,,,,0,,3,,
Raw,22497608,22502830000000,,,-1291005708611067904,0.0,61.35448347777128,-0.4490583858797367,17.38079538526761,2643,7,0.0,207,50193363919080,53,19.2,736.025146484375,1.121000051498413,0,0.0,0.0,,,,,0,,3,,
Raw,22497609,22502830000000,,,-1291005708611067904,0.0,61.35448347777128,-0.4490583858797367,17.38079538526761,2643,8,0.0,207,50193370495704,21,26.6,427.08111572265625,0.7414999604225159,0,0.0,0.0,,,,,0,,3,,
Raw,22497610,22502830000000,,,-1291005708611067904,0.0,61.35448347777128,-0.4490583858797367,17.38079538526761,2643,3,0.0,15,385011358156538,11,33.9,324.4886169433594,0.04990000277757645,0,0.0,0.0,,,,,0,,1,,
Raw,22497611,22502830000000,,,-1291005708611067904,0.0,61.35448347777128,-0.4490583858797367,17.38079538526761,2643,4,0.0,15,385011369083287,111,15.1,-296.448974609375,3.620000123977661,0,0.0,0.0,,,,,0,,1,,
Raw,22497611,22502830000000,,,-1291005708611067904,0.0,61.35448347777128,-0.4490583858797367,17.38079538526761,2643,8,0.0,15,385011366447616,10,34.1,-614.0516357421875,0.03110000118613243,0,0.0,0.0,,,,,0,,1,,
Raw,22497612,22502830000000,,,-1291005708611067904,0.0,61.35448347777128,-0.4490583858797367,17.38079538526761,2643,9,0.0,15,385011359491327,14,30.1,-573.14453125,0.05430000275373459,0,0.0,0.0,,,,,0,,1,,
Raw,22497613,22502830000000,,,-1291005708611067904,0.0,61.35448347777128,-0.4490583858797367,17.38079538526761,2643,16,0.0,15,385011371291803,61,18.1,177.98167419433594,1.0929999351501465,0,0.0,0.0,,,,,0,,1,,
Raw,22497613,22502830000000,,,-1291005708611067904,0.0,61.35448347777128,-0.4490583858797367,17.38079538526761,2643,18,0.0,15,385011358729096,167,17.3,-17.897119522094727,7.19350004196167,0,0.0,0.0,,,,,0,,1,,
Raw,22497614,22502830000000,,,-1291005708611067904,0.0,61.35448347777128,-0.4490583858797367,17.38079538526761,2643,22,0.0,15,385011356886343,61,18.9,268.91351318359375,1.0205000638961792,0,0.0,0.0,,,,,0,,1,,
Raw,22497614,22502830000000,,,-1291005708611067904,0.0,61.35448347777128,-0.4490583858797367,17.38079538526761,2643,26,0.0,15,385011367431614,567,20.4,339.4934387207031,2.111999988555908,0,0.0,0.0,,,,,0,,1,,
Raw,22497615,22502830000000,,,-1291005708611067904,0.0,61.35448347777128,-0.4490583858797367,17.38079538526761,2643,27,0.0,15,385011373421705,125,14.2,-281.3016052246094,3.746000051498413,0,0.0,0.0,,,,,0,,1,,
Raw,22497616,22502830000000,,,-1291005708611067904,0.0,61.35448347777128,-0.4490583858797367,17.38079538526761,2643,31,0.0,15,385011365682469,110,17.6,280.52142333984375,4.834000110626221,0,0.0,0.0,,,,,0,,1,,
Raw,22497616,22502830000000,,,-1291005708611067904,0.0,61.35448347777128,-0.4490583858797367,17.38079538526761,2643,2,0.0,783,384997316019408,42,22.5,6.337303161621094,2.19350004196167,0,0.0,0.0,,,,,0,,5,,
Raw,22497617,22502830000000,,,-1291005708611067904,0.0,61.35448347777128,-0.4490583858797367,17.38079538526761,2643,3,0.0,783,384997319360324,1897,21.6,6.308497905731201,29.255001068115234,0,0.0,0.0,,,,,0,,5,,
Raw,22497618,22502830000000,,,-1291005708611067904,0.0,61.35448347777128,-0.4490583858797367,17.38079538526761,2643,5,0.0,783,384997307762336,51,24.5,5.117852210998535,3.575000047683716,0,0.0,0.0,,,,,0,,5,,
Raw,22497618,22502830000000,,,-1291005708611067904,0.0,61.35448347777128,-0.4490583858797367,17.38079538526761,2643,6,0.0,15,384997321258117,225,14.8,107.39808654785156,7.918000221252441,0,0.0,0.0,,,,,0,,5,,
Raw,22497619,22502830000000,,,-1291005708611067904,0.0,61.35448347777128,-0.4490583858797367,17.38079538526761,2643,7,0.0,15,384997318607313,110,15.1,68.21243286132812,3.44350004196167,0,0.0,0.0,,,,,0,,5,,
Raw,22497619,22502830000000,,,-1291005708611067904,0.0,61.35448347777128,-0.4490583858797367,17.38079538526761,2643,9,0.0,15,384997322113023,920,12.3,-13.202714920043945,19.479501724243164,0,0.0,0.0,,,,,0,,5,,
Raw,22497620,22502830000000,,,-1291005708611067904,0.0,61.35448347777128,-0.4490583858797367,17.38079538526761,2643,10,0.0,15,384997316260670,40,21.7,52.551605224609375,0.750499963760376,0,0.0,0.0,,,,,0,,5,,
Raw,22497621,22502830000000,,,-1291005708611067904,0.0,61.35448347777128,-0.4490583858797367,17.38079538526761,2643,12,0.0,15,384997361716019,420,14.4,-581.879638671875,12.508000373840332,0,0.0,0.0,,,,,0,,5,,
Raw,22497621,22502830000000,,,-1291005708611067904,0.0,61.35448347777128,-0.4490583858797367,17.38079538526761,2643,14,0.0,15,384997358631467,24,25.1,193.41299438476562,0.40880000591278076,0,0.0,0.0,,,,,0,,5,,
Raw,22497622,22502830000000,,,-1291005708611067904,0.0,61.35448347777128,-0.4490583858797367,17.38079538526761,2643,16,0.0,15,384997320483594,134,15.2,118.55558776855469,4.916500091552734,0,0.0,0.0,,,,,0,,5,,
Raw,22497622,22502830000000,,,-1291005708611067904,0.0,61.35448347777128,-0.4490583858797367,17.38079538526761,2643,21,0.0,15,384997353972218,46,20.7,490.98736572265625,0.8059999942779541,0,0.0,0.0,,,,,0,,5,,
Raw,22497623,22502830000000,,,-1291005708611067904,0.0,61.35448347777128,-0.4490583858797367,17.38079538526761,2643,24,0.0,15,384997360827845,24,25.0,-280.0206604003906,0.38179999589920044,0,0.0,0.0,,,,,0,,5,,
Raw,22497624,22502830000000,,,-1291005708611067904,0.0,61.35448347777128,-0.4490583858797367,17.38079538526761,2643,26,0.0,15,384997366564496,96,15.5,-30.275028228759766,1.9255000352859497,0,0.0,0.0,,,,,0,,5,,
Raw,22497624,22502830000000,,,-1291005708611067904,0.0,61.35448347777128,-0.4490583858797367,17.38079538526761,2643,29,0.0,15,384997352204098,489,15.1,533.5145263671875,13.934500694274902,0,0.0,0.0,,,,,0,,5,,
Raw,22497625,22502830000000,,,-1291005708611067904,0.0,61.35448347777128,-0.4490583858797367,17.38079538526761,2643,2,0.0,7183,385011349150938,19,27.1,-208.40011596679688,0.44200000166893005,0,0.0,0.0,,,,,0,,6,,
Raw,22497625,22502830000000,,,-1291005708611067904,0.0,61.35448347777128,-0.4490583858797367,17.38079538526761,2643,3,0.0,7183,385011356174506,17,28.2,-139.96099853515625,0.41050001978874207,0,0.0,0.0,,,,,0,,6,,
Raw,22497626,22502830000000,,,-1291005708611067904,0.0,61.35448347777128,-0.4490583858797367,17.38079538526761,2643,5,0.0,7183,385011359538654,21,26.1,331.4417419433594,0.13369999825954437,0,0.0,0.0,,,,,0,,6,,
NMEA,$PQGSV,4,4,16,26,51,026,15,29,03,036,15,01,52,129,,04,37,113,,0,4*6A,1606992987510
NMEA,$GNGSA,A,3,03,04,08,09,16,22,26,27,31,,,,1.0,0.7,0.7,1*32,1606992987514
NMEA,$GNGSA,A,3,65,71,72,85,,,,,,,,,1.0,0.7,0.7,2*3E,1606992987515
NMEA,$GNGSA,A,2,02,03,05,,,,,,,,,,1.0,0.7,0.7,3*37,1606992987516
NMEA,$PQGSA,A,2,10,21,24,,,,,,,,,,1.0,0.7,0.7,4*38,1606992987516
NMEA,$GNVTG,,T,,M,0.0,N,0.0,K,A*3D,1606992987517
NMEA,$GNRMC,105628.00,A,2255.528243,N,12017.683684,E,0.0,,031220,2.8,W,A*1F,1606992987518
NMEA,$GNGGA,105628.00,2255.528243,N,12017.683684,E,1,12,0.7,32.6,M,17.5,M,,*42,1606992987519
NMEA,$GPGSV,3,1,12,03,09,244,33,04,45,302,17,08,31,206,37,09,11,317,25*73,1606992988477
NMEA,$GPGSV,3,2,12,11,00,000,22,16,54,341,16,18,09,068,16,22,06,224,17*71,1606992988477
NMEA,$GPGSV,3,3,12,27,68,185,16,31,35,092,21,26,39,030,,32,02,153,*7F,1606992988477
NMEA,$GLGSV,3,1,09,74,35,018,10,75,00,000,28,65,27,293,23,85,35,153,19*60,1606992988477
NMEA,$GLGSV,3,2,09,71,14,192,21,72,37,241,29,73,14,068,,84,42,071,*69,1606992988478
NMEA,$GLGSV,3,3,09,83,03,026,*50,1606992988478
NMEA,$GAGSV,2,1,08,02,11,275,24,03,36,293,29,05,51,217,29,09,16,168,*6D,1606992988478
NMEA,$GAGSV,2,2,08,24,37,035,,25,45,320,,31,01,070,,36,10,178,*6D,1606992988478
NMEA,$PQGSV,1,1,03,193,26,171,13,195,59,118,23,194,59,037,,0,5*6F,1606992988479
NMEA,$PQGSV,4,1,16,02,40,240,26,03,58,202,22,05,16,255,28,06,68,177,15,0,4*64,1606992988479
NMEA,$PQGSV,4,2,16,07,63,327,17,09,73,289,12,10,49,282,25,12,31,182,14,0,4*69,1606992988479
NMEA,$PQGSV,4,3,16,14,25,264,25,16,71,184,16,21,11,185,25,24,33,317,29,0,4*65,1606992988480
NMEA,$PQGSV,4,4,16,26,51,026,17,29,03,036,15,01,52,129,,04,37,113,,0,4*68,1606992988480
NMEA,$GNGSA,A,3,03,04,08,09,16,22,26,27,31,,,,1.0,0.7,0.7,1*32,1606992988481
NMEA,$GNGSA,A,3,65,71,72,85,,,,,,,,,1.0,0.7,0.7,2*3E,1606992988481
NMEA,$GNGSA,A,2,02,03,05,,,,,,,,,,1.0,0.7,0.7,3*37,1606992988481
NMEA,$PQGSA,A,2,10,21,24,,,,,,,,,,1.0,0.7,0.7,4*38,1606992988481
NMEA,$GNVTG,,T,,M,0.0,N,0.0,K,A*3D,1606992988482
NMEA,$GNRMC,105629.00,A,2255.528234,N,12017.683604,E,0.0,,031220,2.8,W,A*16,1606992988482
NMEA,$GNGGA,105629.00,2255.528234,N,12017.683604,E,1,12,0.7,32.7,M,17.5,M,,*4A,1606992988482
Raw,22498581,22503830000000,,,-1291005708611067904,0.0,64.97847061837092,-4.9020375374510925,17.268584731065918,2643,10,0.0,207,50194370253945,863,12.0,14.641982078552246,18.956501007080078,0,0.0,0.0,,,,,0,,3,,
Raw,22498582,22503830000000,,,-1291005708611067904,0.0,64.97847061837092,-4.9020375374510925,17.268584731065918,2643,1,0.0,207,50194368147685,93,15.6,-68.29950714111328,1.468500018119812,0,0.0,0.0,,,,,0,,3,,
Raw,22498582,22503830000000,,,-1291005708611067904,0.0,64.97847061837092,-4.9020375374510925,17.268584731065918,2643,21,0.0,207,50194370155333,40,21.6,-660.51513671875,1.0015000104904175,0,0.0,0.0,,,,,0,,3,,
Raw,22498582,22503830000000,,,-1291005708611067904,0.0,64.97847061837092,-4.9020375374510925,17.268584731065918,2643,7,0.0,207,50194363916688,35,22.7,735.4086303710938,0.9309999942779541,0,0.0,0.0,,,,,0,,3,,
Raw,22498583,22503830000000,,,-1291005708611067904,0.0,64.97847061837092,-4.9020375374510925,17.268584731065918,2643,8,0.0,207,50194370494296,21,26.5,426.4474792480469,0.326200008392334,0,0.0,0.0,,,,,0,,3,,
Raw,22498583,22503830000000,,,-1291005708611067904,0.0,64.97847061837092,-4.9020375374510925,17.268584731065918,2643,3,0.0,15,385012358155436,14,30.6,323.85919189453125,0.052800003439188004,0,0.0,0.0,,,,,0,,1,,
Raw,22498584,22503830000000,,,-1291005708611067904,0.0,64.97847061837092,-4.9020375374510925,17.268584731065918,2643,4,0.0,15,385012369084240,46,20.5,-296.0683898925781,0.8600000143051147,0,0.0,0.0,,,,,0,,1,,
Raw,22498584,22503830000000,,,-1291005708611067904,0.0,64.97847061837092,-4.9020375374510925,17.268584731065918,2643,8,0.0,15,385012366449655,11,33.2,-614.5614624023438,0.03189999982714653,0,0.0,0.0,,,,,0,,1,,
Raw,22498585,22503830000000,,,-1291005708611067904,0.0,64.97847061837092,-4.9020375374510925,17.268584731065918,2643,9,0.0,15,385012359493241,19,27.7,-573.7529907226562,0.06980000436306,0,0.0,0.0,,,,,0,,1,,
Raw,22498585,22503830000000,,,-1291005708611067904,0.0,64.97847061837092,-4.9020375374510925,17.268584731065918,2643,16,0.0,15,385012371291328,46,20.4,177.3822479248047,0.9329999685287476,0,0.0,0.0,,,,,0,,1,,
Raw,22498586,22503830000000,,,-1291005708611067904,0.0,64.97847061837092,-4.9020375374510925,17.268584731065918,2643,18,0.0,15,385012358729156,216,17.3,-17.897119522094727,8.693500518798828,0,0.0,0.0,,,,,0,,1,,
Raw,22498586,22503830000000,,,-1291005708611067904,0.0,64.97847061837092,-4.9020375374510925,17.268584731065918,2643,22,0.0,15,385012356885350,17,28.0,268.379150390625,0.05730000138282776,0,0.0,0.0,,,,,0,,1,,
Raw,22498587,22503830000000,,,-1291005708611067904,0.0,64.97847061837092,-4.9020375374510925,17.268584731065918,2643,26,0.0,15,385012367430456,499,20.8,338.9701232910156,2.7920000553131104,0,0.0,0.0,,,,,0,,1,,
Raw,22498587,22503830000000,,,-1291005708611067904,0.0,64.97847061837092,-4.9020375374510925,17.268584731065918,2643,27,0.0,15,385012373422643,150,14.2,-281.3016052246094,5.246000289916992,0,0.0,0.0,,,,,0,,1,,
Raw,22498588,22503830000000,,,-1291005708611067904,0.0,64.97847061837092,-4.9020375374510925,17.268584731065918,2643,31,0.0,15,385012365681649,102,15.7,279.5223693847656,2.764000177383423,0,0.0,0.0,,,,,0,,1,,
Raw,22498588,22503830000000,,,-1291005708611067904,0.0,64.97847061837092,-4.9020375374510925,17.268584731065918,2643,2,0.0,783,384998316019387,60,22.5,6.337303161621094,3.69350004196167,0,0.0,0.0,,,,,0,,5,,
Raw,22498589,22503830000000,,,-1291005708611067904,0.0,64.97847061837092,-4.9020375374510925,17.268584731065918,2643,3,0.0,783,384998319360303,2095,21.6,6.308497905731201,30.755001068115234,0,0.0,0.0,,,,,0,,5,,
Raw,22498589,22503830000000,,,-1291005708611067904,0.0,64.97847061837092,-4.9020375374510925,17.268584731065918,2643,5,0.0,783,384998307762319,78,24.5,5.117852210998535,5.075000286102295,0,0.0,0.0,,,,,0,,5,,
Raw,22498589,22503830000000,,,-1291005708611067904,0.0,64.97847061837092,-4.9020375374510925,17.268584731065918,2643,6,0.0,15,384998321257862,123,14.8,105.11282348632812,3.4179999828338623,0,0.0,0.0,,,,,0,,5,,
Raw,22498590,22503830000000,,,-1291005708611067904,0.0,64.97847061837092,-4.9020375374510925,17.268584731065918,2643,7,0.0,15,384998318607086,134,15.1,68.21243286132812,4.94350004196167,0,0.0,0.0,,,,,0,,5,,
Raw,22498591,22503830000000,,,-1291005708611067904,0.0,64.97847061837092,-4.9020375374510925,17.268584731065918,2643,9,0.0,15,384998322113067,1050,12.3,-13.202714920043945,20.979501724243164,0,0.0,0.0,,,,,0,,5,,
Raw,22498591,22503830000000,,,-1291005708611067904,0.0,64.97847061837092,-4.9020375374510925,17.268584731065918,2643,10,0.0,15,384998316260551,31,23.5,52.07150650024414,0.640500009059906,0,0.0,0.0,,,,,0,,5,,
Raw,22498592,22503830000000,,,-1291005708611067904,0.0,64.97847061837092,-4.9020375374510925,17.268584731065918,2643,12,0.0,15,384998361717959,504,14.4,-581.879638671875,14.008000373840332,0,0.0,0.0,,,,,0,,5,,
Raw,22498592,22503830000000,,,-1291005708611067904,0.0,64.97847061837092,-4.9020375374510925,17.268584731065918,2643,14,0.0,15,384998358630845,17,28.2,192.77328491210938,0.06030000001192093,0,0.0,0.0,,,,,0,,5,,
Raw,22498592,22503830000000,,,-1291005708611067904,0.0,64.97847061837092,-4.9020375374510925,17.268584731065918,2643,16,0.0,15,384998320483198,168,15.2,118.55558776855469,6.416500091552734,0,0.0,0.0,,,,,0,,5,,
Raw,22498593,22503830000000,,,-1291005708611067904,0.0,64.97847061837092,-4.9020375374510925,17.268584731065918,2643,21,0.0,15,384998353970564,46,20.7,489.6239013671875,0.8059999942779541,0,0.0,0.0,,,,,0,,5,,
Raw,22498593,22503830000000,,,-1291005708611067904,0.0,64.97847061837092,-4.9020375374510925,17.268584731065918,2643,24,0.0,15,384998360828770,27,24.0,-280.3392639160156,0.5764999985694885,0,0.0,0.0,,,,,0,,5,,
Raw,22498594,22503830000000,,,-1291005708611067904,0.0,64.97847061837092,-4.9020375374510925,17.268584731065918,2643,26,0.0,15,384998366564597,110,15.5,-30.275028228759766,3.4255001544952393,0,0.0,0.0,,,,,0,,5,,
Raw,22498594,22503830000000,,,-1291005708611067904,0.0,64.97847061837092,-4.9020375374510925,17.268584731065918,2643,29,0.0,15,384998352202137,285,10.5,534.5131225585938,7.744500160217285,0,0.0,0.0,,,,,0,,5,,
Raw,22498595,22503830000000,,,-1291005708611067904,0.0,64.97847061837092,-4.9020375374510925,17.268584731065918,2643,2,0.0,7183,385012349151636,46,20.9,-209.36111450195312,0.7519999742507935,0,0.0,0.0,,,,,0,,6,,
Raw,22498595,22503830000000,,,-1291005708611067904,0.0,64.97847061837092,-4.9020375374510925,17.268584731065918,2643,3,0.0,7183,385012356174983,16,29.3,-140.40818786621094,0.390500009059906,0,0.0,0.0,,,,,0,,6,,
Raw,22498596,22503830000000,,,-1291005708611067904,0.0,64.97847061837092,-4.9020375374510925,17.268584731065918,2643,5,0.0,7183,385012359537549,17,28.5,331.3369445800781,0.055800002068281174,0,0.0,0.0,,,,,0,,6,,
Fix,gps,22.925470,120.294727,49.693054,0.180000,5.360000,1606992990000
Raw,22499547,22504830000000,,,-1291005708611067904,0.0,60.90305760153569,-7.2039834866012535,16.203832103828397,2643,10,0.0,207,50195370253896,989,12.0,14.641982078552246,20.456501007080078,0,0.0,0.0,,,,,0,,3,,
Raw,22499547,22504830000000,,,-1291005708611067904,0.0,60.90305760153569,-7.2039834866012535,16.203832103828397,2643,1,0.0,207,50195368148011,27,24.8,-68.37433624267578,0.8285000324249268,0,0.0,0.0,,,,,0,,3,,
Raw,22499547,22504830000000,,,-1291005708611067904,0.0,60.90305760153569,-7.2039834866012535,16.203832103828397,2643,21,0.0,207,50195370157479,61,18.6,-660.8795166015625,1.2115000486373901,0,0.0,0.0,,,,,0,,3,,
Raw,22499548,22504830000000,,,-1291005708611067904,0.0,60.90305760153569,-7.2039834866012535,16.203832103828397,2643,7,0.0,207,50195363914202,24,25.2,735.5975341796875,0.5863000154495239,0,0.0,0.0,,,,,0,,3,,
Raw,22499548,22504830000000,,,-1291005708611067904,0.0,60.90305760153569,-7.2039834866012535,16.203832103828397,2643,8,0.0,207,50195370492862,19,27.1,427.07354736328125,0.2563000023365021,0,0.0,0.0,,,,,0,,3,,
Raw,22499548,22504830000000,,,-1291005708611067904,0.0,60.90305760153569,-7.2039834866012535,16.203832103828397,2643,3,0.0,15,385013358154374,10,34.3,324.3459777832031,0.04910000041127205,0,0.0,0.0,,,,,0,,1,,
Raw,22499548,22504830000000,,,-1291005708611067904,0.0,60.90305760153569,-7.2039834866012535,16.203832103828397,2643,4,0.0,15,385013369085198,53,19.5,-297.1245422363281,0.9300000071525574,0,0.0,0.0,,,,,0,,1,,
Raw,22499548,22504830000000,,,-1291005708611067904,0.0,60.90305760153569,-7.2039834866012535,16.203832103828397,2643,8,0.0,15,385013366451734,13,31.5,-614.0712890625,0.03420000150799751,0,0.0,0.0,,,,,0,,1,,
Raw,22499548,22504830000000,,,-1291005708611067904,0.0,60.90305760153569,-7.2039834866012535,16.203832103828397,2643,9,0.0,15,385013359495159,16,29.1,-573.0966186523438,0.0552000030875206,0,0.0,0.0,,,,,0,,1,,
Raw,22499548,22504830000000,,,-1291005708611067904,0.0,60.90305760153569,-7.2039834866012535,16.203832103828397,2643,16,0.0,15,385013371290704,46,20.3,178.5715789794922,0.9329999685287476,0,0.0,0.0,,,,,0,,1,,
Raw,22499549,22504830000000,,,-1291005708611067904,0.0,60.90305760153569,-7.2039834866012535,16.203832103828397,2643,18,0.0,15,385013358729218,167,13.1,-19.200632095336914,5.373500347137451,0,0.0,0.0,,,,,0,,1,,
Raw,22499549,22504830000000,,,-1291005708611067904,0.0,60.90305760153569,-7.2039834866012535,16.203832103828397,2643,22,0.0,15,385013356884440,19,27.5,268.832763671875,0.06530000269412994,0,0.0,0.0,,,,,0,,1,,
Raw,22499549,22504830000000,,,-1291005708611067904,0.0,60.90305760153569,-7.2039834866012535,16.203832103828397,2643,26,0.0,15,385013367429233,53,19.1,338.4468078613281,1.1330000162124634,0,0.0,0.0,,,,,0,,1,,
Raw,22499549,22504830000000,,,-1291005708611067904,0.0,60.90305760153569,-7.2039834866012535,16.203832103828397,2643,27,0.0,15,385013373423803,116,14.4,-284.0038146972656,2.996000051498413,0,0.0,0.0,,,,,0,,1,,
Raw,22499549,22504830000000,,,-1291005708611067904,0.0,60.90305760153569,-7.2039834866012535,16.203832103828397,2643,31,0.0,15,385013365680717,121,15.7,279.5223693847656,4.263999938964844,0,0.0,0.0,,,,,0,,1,,
Raw,22499549,22504830000000,,,-1291005708611067904,0.0,60.90305760153569,-7.2039834866012535,16.203832103828397,2643,2,0.0,783,384999316019366,87,22.5,6.337303161621094,5.19350004196167,0,0.0,0.0,,,,,0,,5,,
Raw,22499549,22504830000000,,,-1291005708611067904,0.0,60.90305760153569,-7.2039834866012535,16.203832103828397,2643,3,0.0,783,384999319360282,2303,21.6,6.308497905731201,32.255001068115234,0,0.0,0.0,,,,,0,,5,,
Raw,22499550,22504830000000,,,-1291005708611067904,0.0,60.90305760153569,-7.2039834866012535,16.203832103828397,2643,5,0.0,783,384999307762327,34,24.7,5.444319725036621,2.075000047683716,0,0.0,0.0,,,,,0,,5,,
Raw,22499550,22504830000000,,,-1291005708611067904,0.0,60.90305760153569,-7.2039834866012535,16.203832103828397,2643,6,0.0,15,384999321257512,147,14.8,105.11282348632812,4.918000221252441,0,0.0,0.0,,,,,0,,5,,
Raw,22499550,22504830000000,,,-1291005708611067904,0.0,60.90305760153569,-7.2039834866012535,16.203832103828397,2643,7,0.0,15,384999318606935,132,13.6,64.76531982421875,2.883500099182129,0,0.0,0.0,,,,,0,,5,,
Raw,22499550,22504830000000,,,-1291005708611067904,0.0,60.90305760153569,-7.2039834866012535,16.203832103828397,2643,9,0.0,15,384999322113215,370,8.7,-12.559383392333984,10.279500007629395,0,0.0,0.0,,,,,0,,5,,
Raw,22499550,22504830000000,,,-1291005708611067904,0.0,60.90305760153569,-7.2039834866012535,16.203832103828397,2643,10,0.0,15,384999316260371,40,21.8,52.772457122802734,0.6904999613761902,0,0.0,0.0,,,,,0,,5,,
Raw,22499551,22504830000000,,,-1291005708611067904,0.0,60.90305760153569,-7.2039834866012535,16.203832103828397,2643,12,0.0,15,384999361720002,239,11.5,-583.8673095703125,6.848000526428223,0,0.0,0.0,,,,,0,,5,,
Raw,22499551,22504830000000,,,-1291005708611067904,0.0,60.90305760153569,-7.2039834866012535,16.203832103828397,2643,14,0.0,15,384999358630195,16,29.8,193.29190063476562,0.053700003772974014,0,0.0,0.0,,,,,0,,5,,
Raw,22499551,22504830000000,,,-1291005708611067904,0.0,60.90305760153569,-7.2039834866012535,16.203832103828397,2643,16,0.0,15,384999320482817,101,15.2,118.31553649902344,2.6665000915527344,0,0.0,0.0,,,,,0,,5,,
Raw,22499551,22504830000000,,,-1291005708611067904,0.0,60.90305760153569,-7.2039834866012535,16.203832103828397,2643,21,0.0,15,384999353968960,40,21.3,490.5264892578125,0.7459999918937683,0,0.0,0.0,,,,,0,,5,,
Raw,22499551,22504830000000,,,-1291005708611067904,0.0,60.90305760153569,-7.2039834866012535,16.203832103828397,2643,24,0.0,15,384999360829715,19,27.1,-280.269287109375,0.04130000248551369,0,0.0,0.0,,,,,0,,5,,
Raw,22499551,22504830000000,,,-1291005708611067904,0.0,60.90305760153569,-7.2039834866012535,16.203832103828397,2643,26,0.0,15,384999366564754,110,14.5,-31.763334274291992,2.015500068664551,0,0.0,0.0,,,,,0,,5,,
Raw,22499551,22504830000000,,,-1291005708611067904,0.0,60.90305760153569,-7.2039834866012535,16.203832103828397,2643,29,0.0,15,384999352200354,336,10.5,534.5131225585938,9.244500160217285,0,0.0,0.0,,,,,0,,5,,
Raw,22499552,22504830000000,,,-1291005708611067904,0.0,60.90305760153569,-7.2039834866012535,16.203832103828397,2643,2,0.0,7183,385013349152327,24,25.2,-209.85240173339844,0.4072999954223633,0,0.0,0.0,,,,,0,,6,,
Raw,22499552,22504830000000,,,-1291005708611067904,0.0,60.90305760153569,-7.2039834866012535,16.203832103828397,2643,3,0.0,7183,385013356175441,13,31.6,-140.76930236816406,0.04920000210404396,0,0.0,0.0,,,,,0,,6,,
Raw,22499552,22504830000000,,,-1291005708611067904,0.0,60.90305760153569,-7.2039834866012535,16.203832103828397,2643,5,0.0,7183,385013359536435,17,28.0,330.3318786621094,0.055800002068281174,0,0.0,0.0,,,,,0,,6,,
Fix,gps,22.925467,120.294733,46.406860,0.550000,4.288000,1606992991000
Fix,gps,22.925467,120.294737,45.812622,0.490000,4.288000,1606992992000
