# 
# Header Description:
# 
# Version: v2.0.0.1 Platform: 8.0.0 Manufacturer: Sony Model: G8142
# 
# Raw,ElapsedRealtimeMillis,TimeNanos,LeapSecond,TimeUncertaintyNanos,FullBiasNanos,BiasNanos,BiasUncertaintyNanos,DriftNanosPerSecond,DriftUncertaintyNanosPerSecond,HardwareClockDiscontinuityCount,Svid,TimeOffsetNanos,State,ReceivedSvTimeNanos,ReceivedSvTimeUncertaintyNanos,Cn0DbHz,PseudorangeRateMetersPerSecond,PseudorangeRateUncertaintyMetersPerSecond,AccumulatedDeltaRangeState,AccumulatedDeltaRangeMeters,AccumulatedDeltaRangeUncertaintyMeters,CarrierFrequencyHz,CarrierCycles,CarrierPhase,CarrierPhaseUncertainty,MultipathIndicator,SnrInDb,ConstellationType,AgcDb,CarrierFrequencyHz
# 
# Fix,Provider,Latitude,Longitude,Altitude,Speed,Accuracy,(UTC)TimeInMs
# 
# Nav,Svid,Type,Status,MessageId,Sub-messageId,Data(Bytes)
# 
Fix,gps,22.925460,120.294696,52.147949,0.000000,5.360000,1606993445000
NMEA,$GPGSV,3,1,11,03,07,240,24,04,48,296,23,08,35,209,28,09,14,316,32*7D,1606993444332
NMEA,$GPGSV,3,2,11,11,00,000,30,18,09,066,16,22,04,220,28,27,73,187,15*79,1606993444333
NMEA,$GPGSV,3,3,11,16,52,348,,26,36,035,,31,33,097,*4D,1606993444333
NMEA,$GLGSV,3,1,09,86,02,184,17,65,28,289,24,71,10,191,30,72,33,237,24*6D,1606993444333
NMEA,$GLGSV,3,2,09,74,35,023,,73,13,073,,84,42,066,,83,00,000,*6A,1606993444333
NMEA,$GLGSV,3,3,09,85,40,151,*50,1606993444333
NMEA,$GAGSV,1,1,03,02,12,278,20,03,37,291,21,05,48,215,30*57,1606993444333
NMEA,$PQGSV,1,1,01,195,60,116,14,0,5*63,1606993444334
NMEA,$PQGSV,4,1,16,02,40,240,26,05,16,255,29,10,49,285,23,12,35,182,13,0,4*68,1606993444334
NMEA,$PQGSV,4,2,16,14,23,260,30,16,69,187,18,21,09,184,16,29,01,035,15,0,4*6E,1606993444337
NMEA,$PQGSV,4,3,16,01,52,129,,03,58,202,,04,37,113,,06,66,180,,0,4*65,1606993444339
NMEA,$PQGSV,4,4,16,07,62,329,,08,06,168,,09,73,282,,24,35,322,,0,4*60,1606993444340
NMEA,$GNGSA,A,3,03,04,08,09,22,27,,,,,,,1.6,1.4,0.8,1*38,1606993444342
NMEA,$GNGSA,A,2,65,71,72,,,,,,,,,,1.6,1.4,0.8,2*39,1606993444343
NMEA,$GNGSA,A,2,05,,,,,,,,,,,,1.6,1.4,0.8,3*3D,1606993444343
NMEA,$PQGSA,A,2,10,14,21,,,,,,,,,,1.6,1.4,0.8,4*30,1606993444343
NMEA,$GNVTG,,T,,M,0.0,N,0.0,K,A*3D,1606993444344
NMEA,$GNRMC,110405.00,A,2255.527582,N,12017.681786,E,0.0,,031220,2.8,W,A*12,1606993444345
Raw,22948592,22953834000000,,,-1291005708610465792,0.0,64.59895666921511,-15.188221342727626,20.26476252799921,2645,22,0.0,207,50644363167417,857,17.4,-820.6246948242188,7.746000289916992,0,0.0,0.0,,,,,0,,3,,
Raw,22948592,22953834000000,,,-1291005708610465792,0.0,64.59895666921511,-15.188221342727626,20.26476252799921,2645,1,0.0,207,50644371597131,31,23.9,-6.042382717132568,0.8829999566078186,0,0.0,0.0,,,,,0,,3,,
Raw,22948593,22953834000000,,,-1291005708610465792,0.0,64.59895666921511,-15.188221342727626,20.26476252799921,2645,7,0.0,207,50644366213262,14,30.2,725.0435180664062,0.23479999601840973,0,0.0,0.0,,,,,0,,3,,
Raw,22948593,22953834000000,,,-1291005708610465792,0.0,64.59895666921511,-15.188221342727626,20.26476252799921,2645,8,0.0,207,50644373215008,27,24.1,468.6034240722656,0.8360000252723694,0,0.0,0.0,,,,,0,,3,,
Raw,22948593,22953834000000,,,-1291005708610465792,0.0,64.59895666921511,-15.188221342727626,20.26476252799921,2645,3,0.0,15,385462361062891,27,24.0,322.7475891113281,0.6679999828338623,0,0.0,0.0,,,,,0,,1,,
Raw,22948594,22953834000000,,,-1291005708610465792,0.0,64.59895666921511,-15.188221342727626,20.26476252799921,2645,4,0.0,15,385462372888025,35,22.7,-249.332275390625,0.7444999814033508,0,0.0,0.0,,,,,0,,1,,
Raw,22948594,22953834000000,,,-1291005708610465792,0.0,64.59895666921511,-15.188221342727626,20.26476252799921,2645,8,0.0,15,385462370744654,17,28.4,-586.4651489257812,0.04830000177025795,0,0.0,0.0,,,,,0,,1,,
Raw,22948594,22953834000000,,,-1291005708610465792,0.0,64.59895666921511,-15.188221342727626,20.26476252799921,2645,9,0.0,15,385462363728672,12,32.3,-547.8784790039062,0.0284000001847744,0,0.0,0.0,,,,,0,,1,,
Raw,22948594,22953834000000,,,-1291005708610465792,0.0,64.59895666921511,-15.188221342727626,20.26476252799921,2645,18,0.0,15,385462362124306,1024,16.3,15.328155517578125,4.559500217437744,0,0.0,0.0,,,,,0,,1,,
Raw,22948595,22953834000000,,,-1291005708610465792,0.0,64.59895666921511,-15.188221342727626,20.26476252799921,2645,22,0.0,15,385462359887965,17,28.0,251.5478057861328,0.03180000185966492,0,0.0,0.0,,,,,0,,1,,
Raw,22948595,22953834000000,,,-1291005708610465792,0.0,64.59895666921511,-15.188221342727626,20.26476252799921,2645,27,0.0,15,385462377201362,1255,15.4,-232.7101287841797,7.8470001220703125,0,0.0,0.0,,,,,0,,1,,
Raw,22948595,22953834000000,,,-1291005708610465792,0.0,64.59895666921511,-15.188221342727626,20.26476252799921,2645,2,0.0,783,385448319414478,26,25.6,-3.9656152725219727,1.3050000667572021,0,0.0,0.0,,,,,0,,5,,
Raw,22948595,22953834000000,,,-1291005708610465792,0.0,64.59895666921511,-15.188221342727626,20.26476252799921,2645,5,0.0,783,385448311154120,17,28.8,-1.7667632102966309,0.4150000214576721,0,0.0,0.0,,,,,0,,5,,
Raw,22948596,22953834000000,,,-1291005708610465792,0.0,64.59895666921511,-15.188221342727626,20.26476252799921,2645,10,0.0,15,385448319576766,35,22.7,50.68882751464844,0.6649999618530273,0,0.0,0.0,,,,,0,,5,,
Raw,22948596,22953834000000,,,-1291005708610465792,0.0,64.59895666921511,-15.188221342727626,20.26476252799921,2645,12,0.0,15,385448365978372,1245,13.4,-572.8154296875,7.529000282287598,0,0.0,0.0,,,,,0,,5,,
Raw,22948596,22953834000000,,,-1291005708610465792,0.0,64.59895666921511,-15.188221342727626,20.26476252799921,2645,14,0.0,15,385448361714349,16,29.9,219.31756591796875,0.028200000524520874,0,0.0,0.0,,,,,0,,5,,
Raw,22948597,22953834000000,,,-1291005708610465792,0.0,64.59895666921511,-15.188221342727626,20.26476252799921,2645,16,0.0,15,385448323691509,746,17.5,125.99711608886719,7.196000099182129,0,0.0,0.0,,,,,0,,5,,
Raw,22948597,22953834000000,,,-1291005708610465792,0.0,64.59895666921511,-15.188221342727626,20.26476252799921,2645,21,0.0,15,385448356642381,846,16.2,467.18408203125,7.265500068664551,0,0.0,0.0,,,,,0,,5,,
Raw,22948597,22953834000000,,,-1291005708610465792,0.0,64.59895666921511,-15.188221342727626,20.26476252799921,2645,29,0.0,15,385448354786627,1093,14.5,542.7131958007812,7.442500114440918,0,0.0,0.0,,,,,0,,5,,
Raw,22948597,22953834000000,,,-1291005708610465792,0.0,64.59895666921511,-15.188221342727626,20.26476252799921,2645,2,0.0,7183,385462352858562,367,20.4,-203.35733032226562,1.0295000076293945,0,0.0,0.0,,,,,0,,6,,
Raw,22948598,22953834000000,,,-1291005708610465792,0.0,64.59895666921511,-15.188221342727626,20.26476252799921,2645,3,0.0,7183,385462359753167,318,21.3,-114.775634765625,0.9710000157356262,0,0.0,0.0,,,,,0,,6,,
Raw,22948598,22953834000000,,,-1291005708610465792,0.0,64.59895666921511,-15.188221342727626,20.26476252799921,2645,5,0.0,7183,385462362416032,14,30.1,353.92938232421875,0.052800003439188004,0,0.0,0.0,,,,,0,,6,,
NMEA,$GNGGA,110405.00,2255.527582,N,12017.681786,E,1,12,1.4,34.7,M,17.5,M,,*4A,1606993444345
NMEA,$GPGSV,3,1,11,03,07,240,31,04,48,296,25,08,35,209,30,09,14,316,33*77,1606993445334
Fix,gps,22.925462,120.294699,52.006714,0.000000,5.360000,1606993446000
NMEA,$GPGSV,3,2,11,11,00,000,31,16,52,348,12,22,04,220,35,27,73,187,16*7C,1606993445334
NMEA,$GPGSV,3,3,11,18,09,066,,26,36,035,,31,33,097,*42,1606993445334
NMEA,$GLGSV,3,1,09,86,02,184,17,65,28,289,26,71,10,191,32,72,33,237,33*6B,1606993445334
NMEA,$GLGSV,3,2,09,74,35,023,,73,13,073,,84,42,066,,83,00,000,*6A,1606993445338
NMEA,$GLGSV,3,3,09,85,40,151,*50,1606993445339
NMEA,$GAGSV,1,1,03,02,12,278,21,03,37,291,20,05,48,215,26*50,1606993445339
NMEA,$PQGSV,1,1,01,195,60,116,14,0,5*63,1606993445339
NMEA,$PQGSV,4,1,16,02,40,240,26,05,16,255,32,10,49,285,25,12,35,182,15,0,4*62,1606993445339
NMEA,$PQGSV,4,2,16,14,23,260,34,16,69,187,17,21,09,184,16,24,35,322,13,0,4*6C,1606993445340
NMEA,$PQGSV,4,3,16,29,01,035,15,01,52,129,,03,58,202,,04,37,113,,0,4*62,1606993445340
NMEA,$PQGSV,4,4,16,06,66,180,,07,62,329,,08,06,168,,09,73,282,,0,4*6C,1606993445340
NMEA,$GNGSA,A,3,03,04,08,09,22,27,,,,,,,1.3,1.1,0.8,1*38,1606993445341
Raw,22949594,22954834000000,,,-1291005708610465792,0.0,57.21477646147832,-15.219453530825156,17.80987373392915,2645,22,0.0,207,50645363170137,997,16.9,-820.3062133789062,8.586000442504883,0,0.0,0.0,,,,,0,,3,,
Raw,22949594,22954834000000,,,-1291005708610465792,0.0,57.21477646147832,-15.219453530825156,17.80987373392915,2645,1,0.0,207,50645371597033,21,26.2,-5.942643642425537,0.3276999890804291,0,0.0,0.0,,,,,0,,3,,
Raw,22949595,22954834000000,,,-1291005708610465792,0.0,57.21477646147832,-15.219453530825156,17.80987373392915,2645,7,0.0,207,50645366210871,13,31.5,724.7385864257812,0.23420000076293945,0,0.0,0.0,,,,,0,,3,,
Raw,22949595,22954834000000,,,-1291005708610465792,0.0,57.21477646147832,-15.219453530825156,17.80987373392915,2645,8,0.0,207,50645373213478,12,32.9,468.426025390625,0.5559999942779541,0,0.0,0.0,,,,,0,,3,,
Raw,22949595,22954834000000,,,-1291005708610465792,0.0,57.21477646147832,-15.219453530825156,17.80987373392915,2645,3,0.0,15,385463361061768,13,31.0,322.4143981933594,0.02670000120997429,0,0.0,0.0,,,,,0,,1,,
Raw,22949596,22954834000000,,,-1291005708610465792,0.0,57.21477646147832,-15.219453530825156,17.80987373392915,2645,4,0.0,15,385463372888893,24,25.3,-249.86952209472656,0.39980000257492065,0,0.0,0.0,,,,,0,,1,,
Raw,22949596,22954834000000,,,-1291005708610465792,0.0,57.21477646147832,-15.219453530825156,17.80987373392915,2645,8,0.0,15,385463370746646,16,29.5,-586.6520385742188,0.04170000180602074,0,0.0,0.0,,,,,0,,1,,
Raw,22949596,22954834000000,,,-1291005708610465792,0.0,57.21477646147832,-15.219453530825156,17.80987373392915,2645,9,0.0,15,385463363730503,12,32.8,-548.1242065429688,0.0284000001847744,0,0.0,0.0,,,,,0,,1,,
Raw,22949596,22954834000000,,,-1291005708610465792,0.0,57.21477646147832,-15.219453530825156,17.80987373392915,2645,16,0.0,15,385463374406112,1893,12.2,191.48300170898438,8.96250057220459,0,0.0,0.0,,,,,0,,1,,
Raw,22949597,22954834000000,,,-1291005708610465792,0.0,57.21477646147832,-15.219453530825156,17.80987373392915,2645,22,0.0,15,385463359887124,9,35.0,251.21676635742188,0.020100001245737076,0,0.0,0.0,,,,,0,,1,,
Raw,22949597,22954834000000,,,-1291005708610465792,0.0,57.21477646147832,-15.219453530825156,17.80987373392915,2645,27,0.0,15,385463377202130,1128,16.3,-231.4351806640625,8.497000694274902,0,0.0,0.0,,,,,0,,1,,
Raw,22949597,22954834000000,,,-1291005708610465792,0.0,57.21477646147832,-15.219453530825156,17.80987373392915,2645,2,0.0,783,385449319414491,38,25.6,-3.9656152725219727,2.805000066757202,0,0.0,0.0,,,,,0,,5,,
Raw,22949598,22954834000000,,,-1291005708610465792,0.0,57.21477646147832,-15.219453530825156,17.80987373392915,2645,5,0.0,783,385449311154122,13,31.9,0.019203949719667435,0.33500000834465027,0,0.0,0.0,,,,,0,,5,,
Raw,22949598,22954834000000,,,-1291005708610465792,0.0,57.21477646147832,-15.219453530825156,17.80987373392915,2645,10,0.0,15,385449319576650,24,25.2,49.556907653808594,0.38030001521110535,0,0.0,0.0,,,,,0,,5,,
Raw,22949598,22954834000000,,,-1291005708610465792,0.0,57.21477646147832,-15.219453530825156,17.80987373392915,2645,12,0.0,15,385449365980125,984,15.3,-570.5877075195312,8.089000701904297,0,0.0,0.0,,,,,0,,5,,
Raw,22949599,22954834000000,,,-1291005708610465792,0.0,57.21477646147832,-15.219453530825156,17.80987373392915,2645,14,0.0,15,385449361713622,11,33.9,219.0558319091797,0.024400001391768456,0,0.0,0.0,,,,,0,,5,,
Raw,22949599,22954834000000,,,-1291005708610465792,0.0,57.21477646147832,-15.219453530825156,17.80987373392915,2645,16,0.0,15,385449323691065,770,17.3,126.84208679199219,7.946000576019287,0,0.0,0.0,,,,,0,,5,,
Raw,22949599,22954834000000,,,-1291005708610465792,0.0,57.21477646147832,-15.219453530825156,17.80987373392915,2645,21,0.0,15,385449356640811,869,15.9,467.2897033691406,8.01550006866455,0,0.0,0.0,,,,,0,,5,,
Raw,22949600,22954834000000,,,-1291005708610465792,0.0,57.21477646147832,-15.219453530825156,17.80987373392915,2645,24,0.0,15,385449364648461,1269,13.0,-286.46533203125,8.27750015258789,0,0.0,0.0,,,,,0,,5,,
Raw,22949600,22954834000000,,,-1291005708610465792,0.0,57.21477646147832,-15.219453530825156,17.80987373392915,2645,29,0.0,15,385449354784814,1117,14.7,542.9244995117188,8.192500114440918,0,0.0,0.0,,,,,0,,5,,
Raw,22949600,22954834000000,,,-1291005708610465792,0.0,57.21477646147832,-15.219453530825156,17.80987373392915,2645,2,0.0,7183,385463352859224,367,20.8,-203.55715942382812,1.1404999494552612,0,0.0,0.0,,,,,0,,6,,
Raw,22949601,22954834000000,,,-1291005708610465792,0.0,57.21477646147832,-15.219453530825156,17.80987373392915,2645,3,0.0,7183,385463359753556,423,19.6,-114.34747314453125,1.1990000009536743,0,0.0,0.0,,,,,0,,6,,
Raw,22949601,22954834000000,,,-1291005708610465792,0.0,57.21477646147832,-15.219453530825156,17.80987373392915,2645,5,0.0,7183,385463362414859,21,26.4,355.1692199707031,0.13819999992847443,0,0.0,0.0,,,,,0,,6,,
NMEA,$GNGSA,A,2,65,71,72,,,,,,,,,,1.3,1.1,0.8,2*39,1606993445341
NMEA,$GNGSA,A,2,02,03,05,,,,,,,,,,1.3,1.1,0.8,3*3C,1606993445341
NMEA,$PQGSA,A,2,10,14,21,,,,,,,,,,1.3,1.1,0.8,4*30,1606993445342
NMEA,$GNVTG,,T,,M,0.0,N,0.0,K,A*3D,1606993445342
NMEA,$GNRMC,110406.00,A,2255.527698,N,12017.681945,E,0.0,,031220,2.8,W,A*18,1606993445342
NMEA,$GNGGA,110406.00,2255.527698,N,12017.681945,E,1,12,1.1,34.5,M,17.5,M,,*47,1606993445342
Fix,gps,22.925463,120.294702,51.915222,0.000000,4.288000,1606993447000
NMEA,$GPGSV,3,1,11,03,07,240,31,04,48,296,26,08,35,209,35,09,14,316,34*76,1606993446334
NMEA,$GPGSV,3,2,11,11,00,000,32,16,52,348,14,22,04,220,36,27,73,187,24*7B,1606993446334
NMEA,$GPGSV,3,3,11,18,09,066,,26,36,035,,31,33,097,*42,1606993446334
NMEA,$GLGSV,3,1,09,86,02,184,17,65,28,289,29,71,10,191,31,72,33,237,34*60,1606993446335
NMEA,$GLGSV,3,2,09,74,35,023,,73,13,073,,84,42,066,,83,00,000,*6A,1606993446335
NMEA,$GLGSV,3,3,09,85,40,151,*50,1606993446335
NMEA,$GAGSV,1,1,04,02,12,278,21,03,37,291,19,05,48,215,29,25,45,323,15*62,1606993446337
NMEA,$PQGSV,1,1,01,195,60,116,14,0,5*63,1606993446337
NMEA,$PQGSV,4,1,16,02,40,240,28,05,16,255,33,10,49,285,24,12,35,182,18,0,4*61,1606993446337
NMEA,$PQGSV,4,2,16,14,23,260,33,16,69,187,17,21,09,184,17,24,35,322,13,0,4*6A,1606993446338
NMEA,$PQGSV,4,3,16,29,01,035,14,01,52,129,,03,58,202,,04,37,113,,0,4*63,1606993446338
NMEA,$PQGSV,4,4,16,06,66,180,,07,62,329,,08,06,168,,09,73,282,,0,4*6C,1606993446340
NMEA,$GNGSA,A,3,03,04,08,09,16,22,27,,,,,,1.3,1.1,0.8,1*3F,1606993446342
NMEA,$GNGSA,A,2,65,71,72,,,,,,,,,,1.3,1.1,0.8,2*39,1606993446342
NMEA,$GNGSA,A,2,02,03,05,,,,,,,,,,1.3,1.1,0.8,3*3C,1606993446343
NMEA,$PQGSA,A,3,10,14,21,24,,,,,,,,,1.3,1.1,0.8,4*37,1606993446343
NMEA,$GNVTG,,T,,M,0.0,N,0.0,K,A*3D,1606993446343
NMEA,$GNRMC,110407.00,A,2255.527769,N,12017.682091,E,0.0,,031220,2.8,W,A*15,1606993446343
NMEA,$GNGGA,110407.00,2255.527769,N,12017.682091,E,1,12,1.1,34.4,M,17.5,M,,*4B,1606993446343
Raw,22950574,22955834000000,,,-1291005708610465792,0.0,54.29355223895982,-15.694013872695539,18.66419082532091,2645,22,0.0,207,50646363172867,1025,16.9,-820.0626831054688,9.336000442504883,0,0.0,0.0,,,,,0,,3,,
Raw,22950575,22955834000000,,,-1291005708610465792,0.0,54.29355223895982,-15.694013872695539,18.66419082532091,2645,1,0.0,207,50646371597123,16,29.2,-5.120234489440918,0.24320000410079956,0,0.0,0.0,,,,,0,,3,,
Raw,22950575,22955834000000,,,-1291005708610465792,0.0,54.29355223895982,-15.694013872695539,18.66419082532091,2645,7,0.0,207,50646366208476,14,30.6,725.5750732421875,0.23479999601840973,0,0.0,0.0,,,,,0,,3,,
Raw,22950575,22955834000000,,,-1291005708610465792,0.0,54.29355223895982,-15.694013872695539,18.66419082532091,2645,8,0.0,207,50646373211908,10,34.1,469.4250793457031,0.5060000419616699,0,0.0,0.0,,,,,0,,3,,
Raw,22950576,22955834000000,,,-1291005708610465792,0.0,54.29355223895982,-15.694013872695539,18.66419082532091,2645,3,0.0,15,385464361060700,14,30.5,323.30718994140625,0.027300000190734863,0,0.0,0.0,,,,,0,,1,,
Raw,22950576,22955834000000,,,-1291005708610465792,0.0,54.29355223895982,-15.694013872695539,18.66419082532091,2645,4,0.0,15,385464372889698,21,26.4,-248.72760009765625,0.12919999659061432,0,0.0,0.0,,,,,0,,1,,
Raw,22950576,22955834000000,,,-1291005708610465792,0.0,54.29355223895982,-15.694013872695539,18.66419082532091,2645,8,0.0,15,385464370748600,10,34.7,-585.7704467773438,0.03710000216960907,0,0.0,0.0,,,,,0,,1,,
Raw,22950577,22955834000000,,,-1291005708610465792,0.0,54.29355223895982,-15.694013872695539,18.66419082532091,2645,9,0.0,15,385464363732311,11,33.6,-547.1654052734375,0.027400000020861626,0,0.0,0.0,,,,,0,,1,,
Raw,22950578,22955834000000,,,-1291005708610465792,0.0,54.29355223895982,-15.694013872695539,18.66419082532091,2645,16,0.0,15,385464374405505,1484,13.5,192.08242797851562,9.46250057220459,0,0.0,0.0,,,,,0,,1,,
Raw,22950578,22955834000000,,,-1291005708610465792,0.0,54.29355223895982,-15.694013872695539,18.66419082532091,2645,22,0.0,15,385464359886278,8,36.3,252.08203125,0.019700000062584877,0,0.0,0.0,,,,,0,,1,,
Raw,22950578,22955834000000,,,-1291005708610465792,0.0,54.29355223895982,-15.694013872695539,18.66419082532091,2645,27,0.0,15,385464377203075,32,23.7,-228.7425079345703,1.1480000019073486,0,0.0,0.0,,,,,0,,1,,
Raw,22950579,22955834000000,,,-1291005708610465792,0.0,54.29355223895982,-15.694013872695539,18.66419082532091,2645,2,0.0,783,385450319414502,21,27.7,-1.9395989179611206,1.2350000143051147,0,0.0,0.0,,,,,0,,5,,
Raw,22950579,22955834000000,,,-1291005708610465792,0.0,54.29355223895982,-15.694013872695539,18.66419082532091,2645,5,0.0,783,385450311154119,12,32.8,0.4800987243652344,0.3150000274181366,0,0.0,0.0,,,,,0,,5,,
Raw,22950579,22955834000000,,,-1291005708610465792,0.0,54.29355223895982,-15.694013872695539,18.66419082532091,2645,10,0.0,15,385450319576476,27,24.0,50.44877624511719,0.574999988079071,0,0.0,0.0,,,,,0,,5,,
Raw,22950580,22955834000000,,,-1291005708610465792,0.0,54.29355223895982,-15.694013872695539,18.66419082532091,2645,12,0.0,15,385450365982027,217,17.8,-570.280517578125,8.589000701904297,0,0.0,0.0,,,,,0,,5,,
Raw,22950580,22955834000000,,,-1291005708610465792,0.0,54.29355223895982,-15.694013872695539,18.66419082532091,2645,14,0.0,15,385450361712892,11,33.1,220.01156616210938,0.024400001391768456,0,0.0,0.0,,,,,0,,5,,
Raw,22950580,22955834000000,,,-1291005708610465792,0.0,54.29355223895982,-15.694013872695539,18.66419082532091,2645,16,0.0,15,385450323690646,796,17.2,127.23576354980469,8.696000099182129,0,0.0,0.0,,,,,0,,5,,
Raw,22950581,22955834000000,,,-1291005708610465792,0.0,54.29355223895982,-15.694013872695539,18.66419082532091,2645,21,0.0,15,385450356639170,796,16.8,467.4913635253906,8.685500144958496,0,0.0,0.0,,,,,0,,5,,
Raw,22950581,22955834000000,,,-1291005708610465792,0.0,54.29355223895982,-15.694013872695539,18.66419082532091,2645,24,0.0,15,385450364649361,1296,13.0,-286.1868591308594,9.02750015258789,0,0.0,0.0,,,,,0,,5,,
Raw,22950581,22955834000000,,,-1291005708610465792,0.0,54.29355223895982,-15.694013872695539,18.66419082532091,2645,29,0.0,15,385450354783012,1144,14.0,542.8956298828125,8.942500114440918,0,0.0,0.0,,,,,0,,5,,
Raw,22950581,22955834000000,,,-1291005708610465792,0.0,54.29355223895982,-15.694013872695539,18.66419082532091,2645,2,0.0,7183,385464352859952,371,20.6,-213.4238739013672,1.8905000686645508,0,0.0,0.0,,,,,0,,6,,
Raw,22950582,22955834000000,,,-1291005708610465792,0.0,54.29355223895982,-15.694013872695539,18.66419082532091,2645,3,0.0,7183,385464359753914,492,18.6,-114.10009002685547,2.009000062942505,0,0.0,0.0,,,,,0,,6,,
Raw,22950582,22955834000000,,,-1291005708610465792,0.0,54.29355223895982,-15.694013872695539,18.66419082532091,2645,5,0.0,7183,385464362413684,16,29.0,355.65887451171875,0.3935000002384186,0,0.0,0.0,,,,,0,,6,,
Raw,22950583,22955834000000,,,-1291005708610465792,0.0,54.29355223895982,-15.694013872695539,18.66419082532091,2645,25,0.0,7183,385464361441557,751,15.4,-34.37655258178711,2.242000102996826,0,0.0,0.0,,,,,0,,6,,
NMEA,$GPGSV,3,1,11,03,07,240,34,04,48,296,33,08,35,209,31,09,14,316,26*70,1606993447339
NMEA,$GPGSV,3,2,11,11,00,000,30,16,52,348,14,22,04,220,36,27,73,187,23*7E,1606993447340
Raw,22951580,22956834000000,,,-1291005708610465792,0.0,50.79945549368858,-12.955758502611562,18.643741026870618,2645,22,0.0,207,50647363175604,276,16.3,-819.9127807617188,10.086000442504883,0,0.0,0.0,,,,,0,,3,,
Raw,22951581,22956834000000,,,-1291005708610465792,0.0,50.79945549368858,-12.955758502611562,18.643741026870618,2645,1,0.0,207,50647371597117,16,29.9,-3.896360397338867,0.24320000410079956,0,0.0,0.0,,,,,0,,3,,
Raw,22951582,22956834000000,,,-1291005708610465792,0.0,50.79945549368858,-12.955758502611562,18.643741026870618,2645,7,0.0,207,50647366206049,11,33.4,726.6127319335938,0.23190000653266907,0,0.0,0.0,,,,,0,,3,,
Raw,22951582,22956834000000,,,-1291005708610465792,0.0,50.79945549368858,-12.955758502611562,18.643741026870618,2645,8,0.0,207,50647373210364,9,35.0,470.4419860839844,0.2410999983549118,0,0.0,0.0,,,,,0,,3,,
Raw,22951582,22956834000000,,,-1291005708610465792,0.0,50.79945549368858,-12.955758502611562,18.643741026870618,2645,3,0.0,15,385465361059600,11,33.9,324.3672790527344,0.024400001391768456,0,0.0,0.0,,,,,0,,1,,
Raw,22951583,22956834000000,,,-1291005708610465792,0.0,50.79945549368858,-12.955758502611562,18.643741026870618,2645,4,0.0,15,385465372890519,12,32.5,-247.53884887695312,0.04190000146627426,0,0.0,0.0,,,,,0,,1,,
Raw,22951583,22956834000000,,,-1291005708610465792,0.0,50.79945549368858,-12.955758502611562,18.643741026870618,2645,8,0.0,15,385465370750528,13,31.4,-584.6162109375,0.04020000249147415,0,0.0,0.0,,,,,0,,1,,
Raw,22951583,22956834000000,,,-1291005708610465792,0.0,50.79945549368858,-12.955758502611562,18.643741026870618,2645,9,0.0,15,385465363734114,21,26.3,-546.0413208007812,0.11569999903440475,0,0.0,0.0,,,,,0,,1,,
Raw,22951583,22956834000000,,,-1291005708610465792,0.0,50.79945549368858,-12.955758502611562,18.643741026870618,2645,16,0.0,15,385465374404868,305,14.2,192.69137573242188,10.21250057220459,0,0.0,0.0,,,,,0,,1,,
Raw,22951583,22956834000000,,,-1291005708610465792,0.0,50.79945549368858,-12.955758502611562,18.643741026870618,2645,22,0.0,15,385465359885449,8,36.0,253.11614990234375,0.019700000062584877,0,0.0,0.0,,,,,0,,1,,
Raw,22951583,22956834000000,,,-1291005708610465792,0.0,50.79945549368858,-12.955758502611562,18.643741026870618,2645,27,0.0,15,385465377203784,31,23.4,-228.30482482910156,0.7519999742507935,0,0.0,0.0,,,,,0,,1,,
Raw,22951584,22956834000000,,,-1291005708610465792,0.0,50.79945549368858,-12.955758502611562,18.643741026870618,2645,2,0.0,7183,385465352860625,12,32.1,-207.03001403808594,0.6195000410079956,0,0.0,0.0,,,,,0,,6,,
Raw,22951584,22956834000000,,,-1291005708610465792,0.0,50.79945549368858,-12.955758502611562,18.643741026870618,2645,3,0.0,7183,385465359754232,57,20.7,-96.22199249267578,2.639000177383423,0,0.0,0.0,,,,,0,,6,,
Raw,22951584,22956834000000,,,-1291005708610465792,0.0,50.79945549368858,-12.955758502611562,18.643741026870618,2645,5,0.0,7183,385465362412490,14,30.6,354.82659912109375,0.052800003439188004,0,0.0,0.0,,,,,0,,6,,
Raw,22951584,22956834000000,,,-1291005708610465792,0.0,50.79945549368858,-12.955758502611562,18.643741026870618,2645,25,0.0,7183,385465361441673,758,15.5,-34.16722869873047,2.992000102996826,0,0.0,0.0,,,,,0,,6,,
Fix,gps,22.925462,120.294711,51.132751,0.570000,4.288000,1606993448000
NMEA,$GPGSV,3,3,11,18,09,066,,26,36,035,,31,33,097,*42,1606993447340
NMEA,$GLGSV,3,1,09,86,02,184,16,65,28,289,30,71,10,191,33,72,33,237,35*6A,1606993447341
NMEA,$GLGSV,3,2,09,74,35,023,,73,13,073,,84,42,066,,83,00,000,*6A,1606993447347
NMEA,$GLGSV,3,3,09,85,40,151,*50,1606993447352
NMEA,$GAGSV,1,1,04,02,12,278,32,03,37,291,21,05,48,215,31,25,45,323,16*61,1606993447353
NMEA,$PQGSV,1,1,01,195,60,116,13,0,5*64,1606993447354
NMEA,$PQGSV,4,1,16,02,40,240,28,05,16,255,32,10,49,285,26,12,35,182,24,0,4*6D,1606993447362
NMEA,$PQGSV,4,2,16,14,23,260,32,16,69,187,17,21,09,184,16,24,35,322,15,0,4*6C,1606993447363
NMEA,$PQGSV,4,3,16,29,01,035,14,01,52,129,,03,58,202,,04,37,113,,0,4*63,1606993447364
NMEA,$PQGSV,4,4,16,06,66,180,,07,62,329,,08,06,168,,09,73,282,,0,4*6C,1606993447365
NMEA,$GNGSA,A,3,03,04,08,09,16,22,27,,,,,,1.3,1.1,0.8,1*3F,1606993447366
NMEA,$GNGSA,A,2,65,71,72,,,,,,,,,,1.3,1.1,0.8,2*39,1606993447367
NMEA,$GNGSA,A,2,02,03,05,,,,,,,,,,1.3,1.1,0.8,3*3C,1606993447367
NMEA,$PQGSA,A,3,10,14,21,24,,,,,,,,,1.3,1.1,0.8,4*37,1606993447367
NMEA,$GNVTG,101.0,T,101.0,M,1.1,N,2.1,K,A*3E,1606993447367
NMEA,$GNRMC,110408.00,A,2255.527743,N,12017.682682,E,1.1,101.0,031220,2.8,W,A*38,1606993447368
NMEA,$GNGGA,110408.00,2255.527743,N,12017.682682,E,1,12,1.1,33.7,M,17.5,M,,*4C,1606993447368
Fix,gps,22.925462,120.294718,50.029541,0.000000,4.288000,1606993449000
NMEA,$GPGSV,3,1,11,03,07,240,35,04,48,296,34,08,35,209,34,09,14,316,31*75,1606993448346
NMEA,$GPGSV,3,2,11,11,00,000,27,16,52,348,14,22,04,220,36,27,73,187,21*7A,1606993448347
NMEA,$GPGSV,3,3,11,18,09,066,,26,36,035,,31,33,097,*42,1606993448350
NMEA,$GLGSV,3,1,09,86,02,184,16,65,28,289,28,71,10,191,32,72,33,237,34*63,1606993448370
NMEA,$GLGSV,3,2,09,74,35,023,,73,13,073,,84,42,066,,83,00,000,*6A,1606993448371
NMEA,$GLGSV,3,3,09,85,40,151,*50,1606993448371
NMEA,$GAGSV,1,1,04,02,12,278,31,03,37,291,29,05,48,215,32,25,45,323,15*6A,1606993448371
NMEA,$PQGSV,1,1,01,195,60,116,13,0,5*64,1606993448371
NMEA,$PQGSV,4,1,16,02,40,240,28,05,16,255,32,09,73,282,21,10,49,285,24,0,4*61,1606993448371
Raw,22952603,22957834000000,,,-1291005708610465792,0.0,51.565581088652834,-10.647560469362585,21.991775603299885,2645,22,0.0,207,50648363178339,344,16.3,-819.9127807617188,11.586000442504883,0,0.0,0.0,,,,,0,,3,,
Raw,22952603,22957834000000,,,-1291005708610465792,0.0,51.565581088652834,-10.647560469362585,21.991775603299885,2645,1,0.0,207,50648371597140,17,28.4,-3.193108558654785,0.24980001151561737,0,0.0,0.0,,,,,0,,3,,
Raw,22952603,22957834000000,,,-1291005708610465792,0.0,51.565581088652834,-10.647560469362585,21.991775603299885,2645,7,0.0,207,50648366203613,13,31.9,727.1712036132812,0.23420000076293945,0,0.0,0.0,,,,,0,,3,,
Raw,22952603,22957834000000,,,-1291005708610465792,0.0,51.565581088652834,-10.647560469362585,21.991775603299885,2645,8,0.0,207,50648373208759,10,34.4,471.1274108886719,0.24160000681877136,0,0.0,0.0,,,,,0,,3,,
Raw,22952604,22957834000000,,,-1291005708610465792,0.0,51.565581088652834,-10.647560469362585,21.991775603299885,2645,3,0.0,15,385466361058521,9,35.3,324.9533996582031,0.023100001737475395,0,0.0,0.0,,,,,0,,1,,
Raw,22952604,22957834000000,,,-1291005708610465792,0.0,51.565581088652834,-10.647560469362585,21.991775603299885,2645,4,0.0,15,385466372891333,11,33.8,-246.82772827148438,0.04090000316500664,0,0.0,0.0,,,,,0,,1,,
Raw,22952604,22957834000000,,,-1291005708610465792,0.0,51.565581088652834,-10.647560469362585,21.991775603299885,2645,8,0.0,15,385466370752486,10,34.1,-583.9463500976562,0.03710000216960907,0,0.0,0.0,,,,,0,,1,,
Raw,22952604,22957834000000,,,-1291005708610465792,0.0,51.565581088652834,-10.647560469362585,21.991775603299885,2645,9,0.0,15,385466363735931,14,30.6,-545.40576171875,0.030300000682473183,0,0.0,0.0,,,,,0,,1,,
Raw,22952604,22957834000000,,,-1291005708610465792,0.0,51.565581088652834,-10.647560469362585,21.991775603299885,2645,16,0.0,15,385466374404226,373,14.2,192.69137573242188,11.71250057220459,0,0.0,0.0,,,,,0,,1,,
Raw,22952605,22957834000000,,,-1291005708610465792,0.0,51.565581088652834,-10.647560469362585,21.991775603299885,2645,22,0.0,15,385466359884595,8,36.4,253.6630859375,0.019700000062584877,0,0.0,0.0,,,,,0,,1,,
Raw,22952605,22957834000000,,,-1291005708610465792,0.0,51.565581088652834,-10.647560469362585,21.991775603299885,2645,27,0.0,15,385466377204479,46,20.7,-227.3057861328125,0.871999979019165,0,0.0,0.0,,,,,0,,1,,
Raw,22952605,22957834000000,,,-1291005708610465792,0.0,51.565581088652834,-10.647560469362585,21.991775603299885,2645,2,0.0,783,385452319414510,26,27.6,-1.8627829551696777,1.9850000143051147,0,0.0,0.0,,,,,0,,5,,
Raw,22952605,22957834000000,,,-1291005708610465792,0.0,51.565581088652834,-10.647560469362585,21.991775603299885,2645,5,0.0,783,385452311154108,12,32.4,0.8833816051483154,0.33500000834465027,0,0.0,0.0,,,,,0,,5,,
Raw,22952605,22957834000000,,,-1291005708610465792,0.0,51.565581088652834,-10.647560469362585,21.991775603299885,2645,9,0.0,15,385452325522225,40,21.1,-2.1892502307891846,0.8989999890327454,0,0.0,0.0,,,,,0,,5,,
Raw,22952605,22957834000000,,,-1291005708610465792,0.0,51.565581088652834,-10.647560469362585,21.991775603299885,2645,10,0.0,15,385452319576121,31,23.9,53.04130935668945,0.574999988079071,0,0.0,0.0,,,,,0,,5,,
Raw,22952606,22957834000000,,,-1291005708610465792,0.0,51.565581088652834,-10.647560469362585,21.991775603299885,2645,12,0.0,15,385452365986013,24,25.0,-567.8167114257812,0.38929998874664307,0,0.0,0.0,,,,,0,,5,,
Raw,22952606,22957834000000,,,-1291005708610465792,0.0,51.565581088652834,-10.647560469362585,21.991775603299885,2645,14,0.0,15,385452361711399,13,31.2,221.7967071533203,0.02670000120997429,0,0.0,0.0,,,,,0,,5,,
Raw,22952606,22957834000000,,,-1291005708610465792,0.0,51.565581088652834,-10.647560469362585,21.991775603299885,2645,16,0.0,15,385452323689798,323,16.8,127.5910415649414,10.946000099182129,0,0.0,0.0,,,,,0,,5,,
Raw,22952606,22957834000000,,,-1291005708610465792,0.0,51.565581088652834,-10.647560469362585,21.991775603299885,2645,21,0.0,15,385452356636002,336,15.8,470.1415100097656,11.01550006866455,0,0.0,0.0,,,,,0,,5,,
Raw,22952606,22957834000000,,,-1291005708610465792,0.0,51.565581088652834,-10.647560469362585,21.991775603299885,2645,24,0.0,15,385452364651422,318,22.1,-284.9482116699219,0.9424999952316284,0,0.0,0.0,,,,,0,,5,,
Raw,22952607,22957834000000,,,-1291005708610465792,0.0,51.565581088652834,-10.647560469362585,21.991775603299885,2645,29,0.0,15,385452354779399,372,13.7,542.9148559570312,11.292500495910645,0,0.0,0.0,,,,,0,,5,,
Raw,22952607,22957834000000,,,-1291005708610465792,0.0,51.565581088652834,-10.647560469362585,21.991775603299885,2645,2,0.0,7183,385466352861329,14,30.5,-207.3102264404297,0.049800001084804535,0,0.0,0.0,,,,,0,,6,,
Raw,22952607,22957834000000,,,-1291005708610465792,0.0,51.565581088652834,-10.647560469362585,21.991775603299885,2645,3,0.0,7183,385466359754642,17,28.6,-103.25334930419922,0.39399999380111694,0,0.0,0.0,,,,,0,,6,,
Raw,22952607,22957834000000,,,-1291005708610465792,0.0,51.565581088652834,-10.647560469362585,21.991775603299885,2645,5,0.0,7183,385466362411304,12,32.1,355.8128967285156,0.05090000107884407,0,0.0,0.0,,,,,0,,6,,
Raw,22952607,22957834000000,,,-1291005708610465792,0.0,51.565581088652834,-10.647560469362585,21.991775603299885,2645,25,0.0,7183,385466361441798,882,14.7,-33.9864501953125,3.8320000171661377,0,0.0,0.0,,,,,0,,6,,
NMEA,$PQGSV,4,2,16,12,35,182,25,14,23,260,31,16,69,187,17,21,09,184,16,0,4*61,1606993448371
NMEA,$PQGSV,4,3,16,24,35,322,22,29,01,035,14,01,52,129,,03,58,202,,0,4*63,1606993448371
NMEA,$PQGSV,4,4,16,04,37,113,,06,66,180,,07,62,329,,08,06,168,,0,4*6A,1606993448372
NMEA,$GNGSA,A,3,03,04,08,09,16,22,27,,,,,,1.3,1.1,0.8,1*3F,1606993448372
NMEA,$GNGSA,A,2,65,71,72,,,,,,,,,,1.3,1.1,0.8,2*39,1606993448373
NMEA,$GNGSA,A,2,02,03,05,,,,,,,,,,1.3,1.1,0.8,3*3C,1606993448373
NMEA,$PQGSA,A,3,10,14,21,24,,,,,,,,,1.3,1.1,0.8,4*37,1606993448373
NMEA,$GNVTG,,T,,M,0.0,N,0.0,K,A*3D,1606993448373
NMEA,$GNRMC,110409.00,A,2255.527695,N,12017.683103,E,0.0,,031220,2.8,W,A*12,1606993448373
NMEA,$GNGGA,110409.00,2255.527695,N,12017.683103,E,1,12,1.1,32.6,M,17.5,M,,*48,1606993448373
Fix,gps,22.925466,120.294732,48.945313,0.000000,3.216000,1606993450000
NMEA,$GPGSV,3,1,11,03,07,240,34,04,48,296,32,08,35,209,33,09,14,316,30*74,1606993449344
NMEA,$GPGSV,3,2,11,11,00,000,31,16,52,348,19,22,04,220,37,27,73,187,19*7A,1606993449344
NMEA,$GPGSV,3,3,11,18,09,066,,26,36,035,,31,33,097,*42,1606993449345
NMEA,$GLGSV,3,1,09,86,02,184,16,65,28,289,31,71,10,191,33,72,33,237,34*6A,1606993449346
NMEA,$GLGSV,3,2,09,74,35,023,,73,13,073,,84,42,066,,83,00,000,*6A,1606993449346
NMEA,$GLGSV,3,3,09,85,40,151,*50,1606993449346
NMEA,$GAGSV,1,1,04,02,12,278,32,03,37,291,27,05,48,215,30,25,45,323,14*64,1606993449346
NMEA,$PQGSV,1,1,01,195,60,116,13,0,5*64,1606993449346
NMEA,$PQGSV,4,1,16,02,40,240,26,05,16,255,32,09,73,282,22,10,49,285,26,0,4*6E,1606993449347
NMEA,$PQGSV,4,2,16,12,35,182,26,14,23,260,31,16,69,187,22,21,09,184,16,0,4*64,1606993449351
NMEA,$PQGSV,4,3,16,24,35,322,20,29,01,035,14,01,52,129,,03,58,202,,0,4*61,1606993449353
NMEA,$PQGSV,4,4,16,04,37,113,,06,66,180,,07,62,329,,08,06,168,,0,4*6A,1606993449353
NMEA,$GNGSA,A,3,03,04,08,09,16,22,27,,,,,,1.3,1.1,0.8,1*3F,1606993449354
NMEA,$GNGSA,A,2,65,71,72,,,,,,,,,,1.3,1.1,0.8,2*39,1606993449354
NMEA,$GNGSA,A,2,02,03,05,,,,,,,,,,1.3,1.1,0.8,3*3C,1606993449354
NMEA,$PQGSA,A,3,10,14,21,24,,,,,,,,,1.3,1.1,0.8,4*37,1606993449354
NMEA,$GNVTG,,T,,M,0.0,N,0.0,K,A*3D,1606993449354
Raw,22953583,22958834000000,,,-1291005708610465792,0.0,41.38679287279956,-7.391046574494319,15.970535484283012,2645,22,0.0,207,50649363181074,422,16.3,-819.9127807617188,13.086000442504883,0,0.0,0.0,,,,,0,,3,,
Raw,22953583,22958834000000,,,-1291005708610465792,0.0,41.38679287279956,-7.391046574494319,15.970535484283012,2645,1,0.0,207,50649371597209,14,30.7,-2.171543836593628,0.24230000376701355,0,0.0,0.0,,,,,0,,3,,
Raw,22953584,22958834000000,,,-1291005708610465792,0.0,41.38679287279956,-7.391046574494319,15.970535484283012,2645,7,0.0,207,50649366201195,12,32.8,727.9994506835938,0.232900008559227,0,0.0,0.0,,,,,0,,3,,
Raw,22953584,22958834000000,,,-1291005708610465792,0.0,41.38679287279956,-7.391046574494319,15.970535484283012,2645,8,0.0,207,50649373207205,11,33.7,472.050048828125,0.24240000545978546,0,0.0,0.0,,,,,0,,3,,
Raw,22953584,22958834000000,,,-1291005708610465792,0.0,41.38679287279956,-7.391046574494319,15.970535484283012,2645,3,0.0,15,385467361057419,10,34.0,325.77783203125,0.023600000888109207,0,0.0,0.0,,,,,0,,1,,
Raw,22953585,22958834000000,,,-1291005708610465792,0.0,41.38679287279956,-7.391046574494319,15.970535484283012,2645,4,0.0,15,385467372892169,12,32.0,-245.89028930664062,0.04190000146627426,0,0.0,0.0,,,,,0,,1,,
Raw,22953586,22958834000000,,,-1291005708610465792,0.0,41.38679287279956,-7.391046574494319,15.970535484283012,2645,8,0.0,15,385467370754435,11,33.1,-583.0493774414062,0.03790000081062317,0,0.0,0.0,,,,,0,,1,,
Raw,22953587,22958834000000,,,-1291005708610465792,0.0,41.38679287279956,-7.391046574494319,15.970535484283012,2645,9,0.0,15,385467363737784,14,30.1,-544.4463500976562,0.030300000682473183,0,0.0,0.0,,,,,0,,1,,
Raw,22953587,22958834000000,,,-1291005708610465792,0.0,41.38679287279956,-7.391046574494319,15.970535484283012,2645,16,0.0,15,385467374403793,57,19.2,195.3935546875,1.977500081062317,0,0.0,0.0,,,,,0,,1,,
Raw,22953588,22958834000000,,,-1291005708610465792,0.0,41.38679287279956,-7.391046574494319,15.970535484283012,2645,22,0.0,15,385467359883751,7,37.1,254.43695068359375,0.019100001081824303,0,0.0,0.0,,,,,0,,1,,
Raw,22953588,22958834000000,,,-1291005708610465792,0.0,41.38679287279956,-7.391046574494319,15.970535484283012,2645,27,0.0,15,385467377205336,61,18.9,-227.04888916015625,1.0220000743865967,0,0.0,0.0,,,,,0,,1,,
Raw,22953588,22958834000000,,,-1291005708610465792,0.0,41.38679287279956,-7.391046574494319,15.970535484283012,2645,2,0.0,783,385453319414519,26,25.8,0.2400493621826172,1.274999976158142,0,0.0,0.0,,,,,0,,5,,
Raw,22953589,22958834000000,,,-1291005708610465792,0.0,41.38679287279956,-7.391046574494319,15.970535484283012,2645,5,0.0,783,385453311154090,12,32.2,2.5253193378448486,0.33500000834465027,0,0.0,0.0,,,,,0,,5,,
Raw,22953589,22958834000000,,,-1291005708610465792,0.0,41.38679287279956,-7.391046574494319,15.970535484283012,2645,9,0.0,15,385453325522235,40,21.9,-1.1906448602676392,0.6710000038146973,0,0.0,0.0,,,,,0,,5,,
Raw,22953590,22958834000000,,,-1291005708610465792,0.0,41.38679287279956,-7.391046574494319,15.970535484283012,2645,10,0.0,15,385453319575952,24,25.6,53.28483581542969,0.38030001521110535,0,0.0,0.0,,,,,0,,5,,
Raw,22953590,22958834000000,,,-1291005708610465792,0.0,41.38679287279956,-7.391046574494319,15.970535484283012,2645,12,0.0,15,385453365987906,24,25.7,-567.3870239257812,0.38929998874664307,0,0.0,0.0,,,,,0,,5,,
Raw,22953590,22958834000000,,,-1291005708610465792,0.0,41.38679287279956,-7.391046574494319,15.970535484283012,2645,14,0.0,15,385453361710666,13,31.2,222.71466064453125,0.02670000120997429,0,0.0,0.0,,,,,0,,5,,
Raw,22953591,22958834000000,,,-1291005708610465792,0.0,41.38679287279956,-7.391046574494319,15.970535484283012,2645,16,0.0,15,385453323689334,35,22.1,132.82411193847656,0.6739999651908875,0,0.0,0.0,,,,,0,,5,,
Raw,22953591,22958834000000,,,-1291005708610465792,0.0,41.38679287279956,-7.391046574494319,15.970535484283012,2645,21,0.0,15,385453356634488,96,15.9,474.2799072265625,1.910499930381775,0,0.0,0.0,,,,,0,,5,,
Raw,22953591,22958834000000,,,-1291005708610465792,0.0,41.38679287279956,-7.391046574494319,15.970535484283012,2645,24,0.0,15,385453364652359,491,19.5,-284.9962158203125,1.8725000619888306,0,0.0,0.0,,,,,0,,5,,
Raw,22953591,22958834000000,,,-1291005708610465792,0.0,41.38679287279956,-7.391046574494319,15.970535484283012,2645,29,0.0,15,385453354777588,447,13.7,542.9148559570312,12.792500495910645,0,0.0,0.0,,,,,0,,5,,
Raw,22953591,22958834000000,,,-1291005708610465792,0.0,41.38679287279956,-7.391046574494319,15.970535484283012,2645,2,0.0,7183,385467352862013,13,31.5,-205.83114624023438,0.3305000066757202,0,0.0,0.0,,,,,0,,6,,
Raw,22953592,22958834000000,,,-1291005708610465792,0.0,41.38679287279956,-7.391046574494319,15.970535484283012,2645,3,0.0,7183,385467359754957,19,27.2,-102.35897064208984,0.4390000104904175,0,0.0,0.0,,,,,0,,6,,
Raw,22953592,22958834000000,,,-1291005708610465792,0.0,41.38679287279956,-7.391046574494319,15.970535484283012,2645,5,0.0,7183,385467362410103,14,30.1,358.0090026855469,0.3634999990463257,0,0.0,0.0,,,,,0,,6,,
Raw,22953592,22958834000000,,,-1291005708610465792,0.0,41.38679287279956,-7.391046574494319,15.970535484283012,2645,25,0.0,7183,385467361441917,894,14.4,-33.68198013305664,4.582000255584717,0,0.0,0.0,,,,,0,,6,,
NMEA,$GNRMC,110410.00,A,2255.527965,N,12017.683891,E,0.0,,031220,2.8,W,A*18,1606993449355
NMEA,$GNGGA,110410.00,2255.527965,N,12017.683891,E,1,12,1.1,31.5,M,17.5,M,,*42,1606993449355
Fix,gps,22.925472,120.294743,48.928772,0.000000,3.216000,1606993451000
Raw,22954541,22960161000000,,,-1291005708610174464,0.0,4086.1936286091805,-6.166469157447364,7.8648999135326925,2646,1,0.0,207,50650698305799,13,31.6,-1.18290114402771,0.2508000135421753,0,0.0,0.0,,,,,0,,3,,
Raw,22954541,22960161000000,,,-1291005708610174464,0.0,4086.1936286091805,-6.166469157447364,7.8648999135326925,2646,7,0.0,207,50650692906575,13,31.4,728.7890625,0.24180001020431519,0,0.0,0.0,,,,,0,,3,,
Raw,22954542,22960161000000,,,-1291005708610174464,0.0,4086.1936286091805,-6.166469157447364,7.8648999135326925,2646,8,0.0,207,50650699913751,11,33.2,472.99981689453125,0.2475000023841858,0,0.0,0.0,,,,,0,,3,,
Raw,22954543,22960161000000,,,-1291005708610174464,0.0,4086.1936286091805,-6.166469157447364,7.8648999135326925,2646,3,0.0,15,385468687764624,10,34.1,326.5685729980469,0.02759999968111515,0,0.0,0.0,,,,,0,,1,,
Raw,22954543,22960161000000,,,-1291005708610174464,0.0,4086.1936286091805,-6.166469157447364,7.8648999135326925,2646,4,0.0,15,385468699601882,11,33.6,-244.9188690185547,0.04750000312924385,0,0.0,0.0,,,,,0,,1,,
Raw,22954544,22960161000000,,,-1291005708610174464,0.0,4086.1936286091805,-6.166469157447364,7.8648999135326925,2646,8,0.0,15,385468697465648,9,35.4,-582.126708984375,0.04050000011920929,0,0.0,0.0,,,,,0,,1,,
Raw,22954544,22960161000000,,,-1291005708610174464,0.0,4086.1936286091805,-6.166469157447364,7.8648999135326925,2646,9,0.0,15,385468690448814,21,26.9,-543.5673828125,0.11270000040531158,0,0.0,0.0,,,,,0,,1,,
Raw,22954545,22960161000000,,,-1291005708610174464,0.0,4086.1936286091805,-6.166469157447364,7.8648999135326925,2646,22,0.0,15,385468686591231,6,38.4,255.22610473632812,0.020200001075863838,0,0.0,0.0,,,,,0,,1,,
NMEA,$GPGSV,3,1,11,03,07,240,34,04,48,296,34,08,35,209,35,09,14,316,27*72,1606993450332
NMEA,$GPGSV,3,2,11,11,00,000,31,16,52,348,19,22,04,220,38,27,73,187,19*75,1606993450333
NMEA,$GPGSV,3,3,11,18,09,066,,26,36,035,,31,33,097,*42,1606993450334
NMEA,$GLGSV,3,1,09,86,02,184,16,65,28,289,32,71,10,191,31,72,33,237,33*6C,1606993450334
NMEA,$GLGSV,3,2,09,74,35,023,,73,13,073,,84,42,066,,83,00,000,*6A,1606993450335
NMEA,$GLGSV,3,3,09,85,40,151,*50,1606993450336
NMEA,$GAGSV,1,1,0,*74,1606993450337
NMEA,$PQGSV,1,1,01,195,60,116,13,0,5*64,1606993450337
NMEA,$PQGSV,1,1,0,*73,1606993450337
NMEA,$GNGSA,A,3,03,04,08,09,16,22,27,,,,,,1.3,1.1,0.8,1*3F,1606993450339
NMEA,$GNGSA,A,2,65,71,72,,,,,,,,,,1.3,1.1,0.8,2*39,1606993450339
NMEA,$GNVTG,,T,,M,0.0,N,0.0,K,A*3D,1606993450339
NMEA,$GNRMC,110411.00,A,2255.528310,N,12017.684562,E,0.0,,031220,2.8,W,A*18,1606993450340
NMEA,$GNGGA,110411.00,2255.528310,N,12017.684562,E,1,10,1.1,31.5,M,17.5,M,,*40,1606993450340
Fix,gps,22.925475,120.294751,48.595398,0.000000,3.216000,1606993452000
Raw,22955534,22961172000000,,,-1291005708609839104,0.0,4121.046047657728,-1.5195241467304523,14.87389376867885,2647,1,0.0,207,50651708970403,13,31.3,-0.3958042562007904,0.23580001294612885,0,0.0,0.0,,,,,0,,3,,
Raw,22955535,22961172000000,,,-1291005708609839104,0.0,4121.046047657728,-1.5195241467304523,14.87389376867885,2647,7,0.0,207,50651703568735,12,32.3,729.3707885742188,0.22589999437332153,0,0.0,0.0,,,,,0,,3,,
Raw,22955535,22961172000000,,,-1291005708609839104,0.0,4121.046047657728,-1.5195241467304523,14.87389376867885,2647,8,0.0,207,50651710576708,11,33.2,473.7028503417969,0.23399999737739563,0,0.0,0.0,,,,,0,,3,,
Raw,22955536,22961172000000,,,-1291005708609839104,0.0,4121.046047657728,-1.5195241467304523,14.87389376867885,2647,3,0.0,15,385469698428132,10,34.1,327.2048645019531,0.04410000145435333,0,0.0,0.0,,,,,0,,1,,
Raw,22955536,22961172000000,,,-1291005708609839104,0.0,4121.046047657728,-1.5195241467304523,14.87389376867885,2647,4,0.0,15,385469710267310,11,33.5,-244.14903259277344,0.03400000184774399,0,0.0,0.0,,,,,0,,1,,
Raw,22955536,22961172000000,,,-1291005708609839104,0.0,4121.046047657728,-1.5195241467304523,14.87389376867885,2647,8,0.0,15,385469708132198,9,35.9,-581.433349609375,0.027000000700354576,0,0.0,0.0,,,,,0,,1,,
Raw,22955537,22961172000000,,,-1291005708609839104,0.0,4121.046047657728,-1.5195241467304523,14.87389376867885,2647,9,0.0,15,385469701115244,17,28.6,-542.8840942382812,0.0723000019788742,0,0.0,0.0,,,,,0,,1,,
Raw,22955537,22961172000000,,,-1291005708609839104,0.0,4121.046047657728,-1.5195241467304523,14.87389376867885,2647,22,0.0,15,385469697254981,6,38.7,255.7899932861328,0.03670000284910202,0,0.0,0.0,,,,,0,,1,,
NMEA,$GPGSV,3,1,11,03,07,240,34,04,48,296,34,08,35,209,36,09,14,316,29*7F,1606993451332
NMEA,$GPGSV,3,2,11,11,00,000,31,22,04,220,39,16,52,348,,18,09,066,*7B,1606993451333
NMEA,$GPGSV,3,3,11,26,36,035,,27,73,187,,31,33,097,*4D,1606993451334
NMEA,$GLGSV,3,1,09,65,28,289,31,71,10,191,32,72,33,237,33,74,35,023,*6E,1606993451334
NMEA,$GLGSV,3,2,09,86,02,184,,73,13,073,,84,42,066,,83,00,000,*6F,1606993451334
NMEA,$GLGSV,3,3,09,85,40,151,*50,1606993451335
NMEA,$GAGSV,1,1,0,*74,1606993451335
NMEA,$PQGSV,1,1,01,195,60,116,,0,5*66,1606993451336
NMEA,$PQGSV,1,1,0,*73,1606993451336
NMEA,$GNGSA,A,3,03,04,08,09,16,22,27,,,,,,1.6,1.4,0.8,1*3F,1606993451337
NMEA,$GNGSA,A,2,65,71,72,,,,,,,,,,1.6,1.4,0.8,2*39,1606993451337
NMEA,$GNVTG,,T,,M,0.0,N,0.0,K,A*3D,1606993451338
NMEA,$GNRMC,110412.00,A,2255.528503,N,12017.685046,E,0.0,,031220,2.8,W,A*1D,1606993451338
NMEA,$GNGGA,110412.00,2255.528503,N,12017.685046,E,1,10,1.4,31.1,M,17.5,M,,*44,1606993451338
Fix,gps,22.925476,120.294756,48.693176,0.000000,3.216000,1606993453000
Raw,22956544,22962166000000,,,-1291005708609059840,0.0,4118.924494832754,0.47878352069643415,14.006066481437609,2648,1,0.0,207,50652702191111,13,31.6,0.7671789526939392,0.25679999589920044,0,0.0,0.0,,,,,0,,3,,
Raw,22956544,22962166000000,,,-1291005708609059840,0.0,4118.924494832754,0.47878352069643415,14.006066481437609,2648,7,0.0,207,50652696787012,11,33.5,730.4487915039062,0.24300000071525574,0,0.0,0.0,,,,,0,,3,,
Raw,22956544,22962166000000,,,-1291005708609059840,0.0,4118.924494832754,0.47878352069643415,14.006066481437609,2648,8,0.0,207,50652703795890,9,35.7,474.8546142578125,0.21950000524520874,0,0.0,0.0,,,,,0,,3,,
Raw,22956545,22962166000000,,,-1291005708609059840,0.0,4118.924494832754,0.47878352069643415,14.006066481437609,2648,3,0.0,15,385470691647742,9,35.5,328.3160095214844,0.03150000050663948,0,0.0,0.0,,,,,0,,1,,
Raw,22956545,22962166000000,,,-1291005708609059840,0.0,4118.924494832754,0.47878352069643415,14.006066481437609,2648,4,0.0,15,385470703488825,12,32.9,-242.97415161132812,0.02590000070631504,0,0.0,0.0,,,,,0,,1,,
Raw,22956545,22962166000000,,,-1291005708609059840,0.0,4118.924494832754,0.47878352069643415,14.006066481437609,2648,8,0.0,15,385470701354851,9,35.0,-580.2608032226562,0.04650000110268593,0,0.0,0.0,,,,,0,,1,,
Raw,22956545,22962166000000,,,-1291005708609059840,0.0,4118.924494832754,0.47878352069643415,14.006066481437609,2648,9,0.0,15,385470694337765,17,28.6,-541.7640991210938,0.061799999326467514,0,0.0,0.0,,,,,0,,1,,
Raw,22956546,22962166000000,,,-1291005708609059840,0.0,4118.924494832754,0.47878352069643415,14.006066481437609,2648,22,0.0,15,385470690474864,7,37.8,256.8466491699219,0.02759999968111515,0,0.0,0.0,,,,,0,,1,,
Raw,22956546,22962166000000,,,-1291005708609059840,0.0,4118.924494832754,0.47878352069643415,14.006066481437609,2648,27,0.0,15,385470707801695,35,22.8,-223.3857421875,0.722000002861023,0,0.0,0.0,,,,,0,,1,,
NMEA,$GPGSV,3,1,11,03,07,240,36,04,48,296,33,08,35,209,35,09,14,316,29*79,1606993452330
NMEA,$GPGSV,3,2,11,11,00,000,31,22,04,220,38,27,73,187,23,16,52,348,*74,1606993452330
NMEA,$GPGSV,3,3,11,18,09,066,,26,36,035,,31,33,097,*42,1606993452330
NMEA,$GLGSV,3,1,09,65,28,289,32,71,10,191,34,72,33,237,36,74,35,023,*6E,1606993452331
NMEA,$GLGSV,3,2,09,86,02,184,,73,13,073,,84,42,066,,83,00,000,*6F,1606993452331
NMEA,$GLGSV,3,3,09,85,40,151,*50,1606993452331
NMEA,$GAGSV,1,1,0,*74,1606993452331
NMEA,$PQGSV,1,1,01,195,60,116,,0,5*66,1606993452331
NMEA,$PQGSV,1,1,0,*73,1606993452331
NMEA,$GNGSA,A,3,03,04,08,09,22,27,,,,,,,1.6,1.4,0.8,1*38,1606993452332
NMEA,$GNGSA,A,2,65,71,72,,,,,,,,,,1.6,1.4,0.8,2*39,1606993452332
NMEA,$GNVTG,,T,,M,0.0,N,0.0,K,A*3D,1606993452332
NMEA,$GNRMC,110413.00,A,2255.528570,N,12017.685365,E,0.0,,031220,2.8,W,A*1A,1606993452332
NMEA,$GNGGA,110413.00,2255.528570,N,12017.685365,E,1,09,1.4,31.2,M,17.5,M,,*48,1606993452332
Fix,gps,22.925479,120.294762,47.915466,0.000000,3.216000,1606993454000
NMEA,$GPGSV,3,1,11,03,07,240,33,04,48,296,26,08,35,209,27,09,14,316,32*71,1606993453338
NMEA,$GPGSV,3,2,11,11,00,000,31,16,52,348,21,22,04,220,36,27,73,187,21*7B,1606993453339
NMEA,$GPGSV,3,3,11,18,09,066,,26,36,035,,31,33,097,*42,1606993453340
NMEA,$GLGSV,3,1,09,86,02,184,23,65,28,289,23,71,10,191,35,72,33,237,36*6B,1606993453341
NMEA,$GLGSV,3,2,09,74,35,023,,73,13,073,,84,42,066,,83,00,000,*6A,1606993453349
NMEA,$GLGSV,3,3,09,85,40,151,*50,1606993453350
NMEA,$GAGSV,1,1,0,*74,1606993453351
Raw,22957582,22963159000000,,,-1291005708608558080,0.0,4114.23621699214,3.8074826333555865,15.945966141772187,2649,22,0.0,207,50653686285131,31,23.0,-812.7847900390625,0.8604999780654907,0,0.0,0.0,,,,,0,,3,,
Raw,22957582,22963159000000,,,-1291005708608558080,0.0,4114.23621699214,3.8074826333555865,15.945966141772187,2649,1,0.0,207,50653694689707,35,22.9,1.0663028955459595,0.9324999451637268,0,0.0,0.0,,,,,0,,3,,
Raw,22957582,22963159000000,,,-1291005708608558080,0.0,4114.23621699214,3.8074826333555865,15.945966141772187,2649,7,0.0,207,50653689283077,9,35.0,730.2504272460938,0.22850000858306885,0,0.0,0.0,,,,,0,,3,,
Raw,22957583,22963159000000,,,-1291005708608558080,0.0,4114.23621699214,3.8074826333555865,15.945966141772187,2649,8,0.0,207,50653696292781,9,35.9,474.82940673828125,0.23900000751018524,0,0.0,0.0,,,,,0,,3,,
Raw,22957583,22963159000000,,,-1291005708608558080,0.0,4114.23621699214,3.8074826333555865,15.945966141772187,2649,3,0.0,15,385471684145151,12,32.5,328.09173583984375,0.027400000020861626,0,0.0,0.0,,,,,0,,1,,
Raw,22957583,22963159000000,,,-1291005708608558080,0.0,4114.23621699214,3.8074826333555865,15.945966141772187,2649,4,0.0,15,385471695988134,24,25.6,-242.7506866455078,0.20190000534057617,0,0.0,0.0,,,,,0,,1,,
Raw,22957583,22963159000000,,,-1291005708608558080,0.0,4114.23621699214,3.8074826333555865,15.945966141772187,2649,8,0.0,15,385471693855273,21,26.6,-580.4000854492188,0.11719999462366104,0,0.0,0.0,,,,,0,,1,,
Raw,22957584,22963159000000,,,-1291005708608558080,0.0,4114.23621699214,3.8074826333555865,15.945966141772187,2649,9,0.0,15,385471686838046,12,32.4,-541.8382568359375,0.030400000512599945,0,0.0,0.0,,,,,0,,1,,
Raw,22957584,22963159000000,,,-1291005708608558080,0.0,4114.23621699214,3.8074826333555865,15.945966141772187,2649,16,0.0,15,385471697493506,46,20.7,197.99105834960938,0.8569999933242798,0,0.0,0.0,,,,,0,,1,,
Raw,22957584,22963159000000,,,-1291005708608558080,0.0,4114.23621699214,3.8074826333555865,15.945966141772187,2649,22,0.0,15,385471682972492,8,36.2,256.6861877441406,0.04700000211596489,0,0.0,0.0,,,,,0,,1,,
Raw,22957584,22963159000000,,,-1291005708608558080,0.0,4114.23621699214,3.8074826333555865,15.945966141772187,2649,27,0.0,15,385471700300987,46,20.6,-222.0727081298828,0.8614999651908875,0,0.0,0.0,,,,,0,,1,,
NMEA,$PQGSV,1,1,01,195,60,116,,0,5*66,1606993453352
NMEA,$PQGSV,1,1,0,*73,1606993453352
NMEA,$GNGSA,A,3,03,04,08,09,22,27,,,,,,,1.4,1.2,0.8,1*3C,1606993453355
NMEA,$GNGSA,A,2,65,71,72,,,,,,,,,,1.4,1.2,0.8,2*3D,1606993453356
NMEA,$GNVTG,,T,,M,0.0,N,0.0,K,A*3D,1606993453356
NMEA,$GNRMC,110414.00,A,2255.528747,N,12017.685694,E,0.0,,031220,2.8,W,A*10,1606993453357
NMEA,$GNGGA,110414.00,2255.528747,N,12017.685694,E,1,09,1.2,30.4,M,17.5,M,,*43,1606993453359
NMEA,$GPGSV,3,1,10,03,07,240,33,04,48,296,27,08,35,209,28,09,14,316,33*7F,1606993454339
Fix,gps,22.925483,120.294769,47.217407,0.000000,3.216000,1606993455000
NMEA,$GPGSV,3,2,10,11,00,000,31,22,04,220,36,27,73,187,22,18,09,066,*75,1606993454340
NMEA,$GPGSV,3,3,10,26,36,035,,31,33,097,*73,1606993454341
NMEA,$GLGSV,3,1,09,86,02,184,22,65,28,289,23,85,40,151,21,71,10,191,34*62,1606993454348
NMEA,$GLGSV,3,2,09,72,33,237,37,74,35,023,,73,13,073,,84,42,066,*66,1606993454349
NMEA,$GLGSV,3,3,09,83,00,000,*57,1606993454350
NMEA,$GAGSV,1,1,0,*74,1606993454351
NMEA,$PQGSV,1,1,01,195,60,116,,0,5*66,1606993454351
NMEA,$PQGSV,1,1,0,*73,1606993454352
NMEA,$GNGSA,A,3,03,04,08,09,22,27,,,,,,,1.3,1.0,0.8,1*39,1606993454355
NMEA,$GNGSA,A,2,65,71,72,,,,,,,,,,1.3,1.0,0.8,2*38,1606993454356
NMEA,$GNVTG,,T,,M,0.0,N,0.0,K,A*3D,1606993454358
NMEA,$GNRMC,110415.00,A,2255.528957,N,12017.686127,E,0.0,,031220,2.8,W,A*12,1606993454359
NMEA,$GNGGA,110415.00,2255.528957,N,12017.686127,E,1,09,1.0,29.7,M,17.5,M,,*48,1606993454360
Raw,22958566,22964171000000,,,-1291005708608393216,0.0,4112.635739147663,3.434442410738307,15.706919656675135,2650,22,0.0,207,50654698123276,35,22.4,-813.0001831054688,0.9384999871253967,0,0.0,0.0,,,,,0,,3,,
Raw,22958567,22964171000000,,,-1291005708608393216,0.0,4112.635739147663,3.434442410738307,15.706919656675135,2650,1,0.0,207,50654706524693,35,22.6,0.579919159412384,0.9204999804496765,0,0.0,0.0,,,,,0,,3,,
Raw,22958567,22964171000000,,,-1291005708608393216,0.0,4112.635739147663,3.434442410738307,15.706919656675135,2650,21,0.0,207,50654709464961,40,21.0,-620.113037109375,0.98499995470047,0,0.0,0.0,,,,,0,,3,,
Raw,22958567,22964171000000,,,-1291005708608393216,0.0,4112.635739147663,3.434442410738307,15.706919656675135,2650,7,0.0,207,50654701115769,10,34.4,729.6644897460938,0.24860000610351562,0,0.0,0.0,,,,,0,,3,,
Raw,22958567,22964171000000,,,-1291005708608393216,0.0,4112.635739147663,3.434442410738307,15.706919656675135,2650,8,0.0,207,50654708126323,8,36.6,474.3390808105469,0.22600001096725464,0,0.0,0.0,,,,,0,,3,,
Raw,22958568,22964171000000,,,-1291005708608393216,0.0,4112.635739147663,3.434442410738307,15.706919656675135,2650,3,0.0,15,385472695979176,12,32.6,327.5461120605469,0.04390000179409981,0,0.0,0.0,,,,,0,,1,,
Raw,22958568,22964171000000,,,-1291005708608393216,0.0,4112.635739147663,3.434442410738307,15.706919656675135,2650,4,0.0,15,385472707824085,21,26.7,-243.4791259765625,0.10819999873638153,0,0.0,0.0,,,,,0,,1,,
Raw,22958569,22964171000000,,,-1291005708608393216,0.0,4112.635739147663,3.434442410738307,15.706919656675135,2650,8,0.0,15,385472705692371,19,27.6,-580.807373046875,0.07110000401735306,0,0.0,0.0,,,,,0,,1,,
Raw,22958569,22964171000000,,,-1291005708608393216,0.0,4112.635739147663,3.434442410738307,15.706919656675135,2650,9,0.0,15,385472698675019,11,33.4,-542.3436889648438,0.04600000008940697,0,0.0,0.0,,,,,0,,1,,
Raw,22958569,22964171000000,,,-1291005708608393216,0.0,4112.635739147663,3.434442410738307,15.706919656675135,2650,22,0.0,15,385472694806775,8,36.3,256.0428161621094,0.03500000014901161,0,0.0,0.0,,,,,0,,1,,
Raw,22958569,22964171000000,,,-1291005708608393216,0.0,4112.635739147663,3.434442410738307,15.706919656675135,2650,27,0.0,15,385472712136928,40,21.6,-224.6511993408203,0.7894999980926514,0,0.0,0.0,,,,,0,,1,,
Fix,gps,22.925484,120.294771,47.331543,0.000000,3.216000,1606993456000
Raw,22959564,22965163000000,,,-1291005708608224768,0.0,4110.021982342005,1.40458648160529,18.198683937038382,2651,22,0.0,207,50655689957333,40,21.0,-811.1549072265625,0.98499995470047,0,0.0,0.0,,,,,0,,3,,
Raw,22959565,22965163000000,,,-1291005708608224768,0.0,4110.021982342005,1.40458648160529,18.198683937038382,2651,7,0.0,207,50655692944806,9,35.1,730.573974609375,0.2330000102519989,0,0.0,0.0,,,,,0,,3,,
Raw,22959566,22965163000000,,,-1291005708608224768,0.0,4110.021982342005,1.40458648160529,18.198683937038382,2651,8,0.0,207,50655699956250,9,35.7,475.3741760253906,0.2435000091791153,0,0.0,0.0,,,,,0,,3,,
Raw,22959566,22965163000000,,,-1291005708608224768,0.0,4110.021982342005,1.40458648160529,18.198683937038382,2651,3,0.0,15,385473687809533,13,31.9,328.4549865722656,0.034299999475479126,0,0.0,0.0,,,,,0,,1,,
Raw,22959567,22965163000000,,,-1291005708608224768,0.0,4110.021982342005,1.40458648160529,18.198683937038382,2651,4,0.0,15,385473699656362,17,28.1,-242.42530822753906,0.06930000334978104,0,0.0,0.0,,,,,0,,1,,
Raw,22959567,22965163000000,,,-1291005708608224768,0.0,4110.021982342005,1.40458648160529,18.198683937038382,2651,8,0.0,15,385473697525729,17,28.4,-579.8613891601562,0.06629999727010727,0,0.0,0.0,,,,,0,,1,,
Raw,22959568,22965163000000,,,-1291005708608224768,0.0,4110.021982342005,1.40458648160529,18.198683937038382,2651,9,0.0,15,385473690508261,11,33.5,-541.3395385742188,0.03400000184774399,0,0.0,0.0,,,,,0,,1,,
Raw,22959568,22965163000000,,,-1291005708608224768,0.0,4110.021982342005,1.40458648160529,18.198683937038382,2651,22,0.0,15,385473686637409,7,37.1,256.9309387207031,0.02160000056028366,0,0.0,0.0,,,,,0,,1,,
NMEA,$GPGSV,3,1,10,03,07,240,32,04,48,296,28,08,35,209,28,09,14,316,34*76,1606993455339
NMEA,$GPGSV,3,2,10,11,00,000,31,22,04,220,37,16,52,348,,18,09,066,*74,1606993455339
NMEA,$GPGSV,3,3,10,26,36,035,,31,33,097,*73,1606993455347
NMEA,$GLGSV,2,1,07,86,02,184,21,71,10,191,35,72,33,237,36,74,35,023,*69,1606993455350
NMEA,$GLGSV,2,2,07,73,13,073,,84,42,066,,83,00,000,*51,1606993455350
NMEA,$GAGSV,1,1,0,*74,1606993455351
NMEA,$PQGSV,1,1,01,195,60,116,,0,5*66,1606993455352
NMEA,$PQGSV,1,1,0,*73,1606993455353
NMEA,$GNGSA,A,3,03,04,08,09,16,22,,,,,,,1.4,1.1,0.8,1*3D,1606993455360
NMEA,$GNGSA,A,2,71,72,,,,,,,,,,,1.4,1.1,0.8,2*3D,1606993455361
NMEA,$GNVTG,,T,,M,0.0,N,0.0,K,A*3D,1606993455362
NMEA,$GNRMC,110416.00,A,2255.529037,N,12017.686246,E,0.0,,031220,2.8,W,A*1B,1606993455363
NMEA,$GNGGA,110416.00,2255.529037,N,12017.686246,E,1,08,1.1,29.9,M,17.5,M,,*4F,1606993455364
Fix,gps,22.925484,120.294772,48.005371,0.000000,3.216000,1606993457000
Raw,22960569,22966174000000,,,-1291005708607805952,0.0,4115.300253033638,4.706629589359734,18.351099114490292,2652,22,0.0,207,50656700541131,31,23.0,-812.897216796875,0.8814999461174011,0,0.0,0.0,,,,,0,,3,,
Raw,22960569,22966174000000,,,-1291005708607805952,0.0,4115.300253033638,4.706629589359734,18.351099114490292,2652,1,0.0,207,50656708937350,35,22.2,0.03741413727402687,0.9234999418258667,0,0.0,0.0,,,,,0,,3,,
Raw,22960571,22966174000000,,,-1291005708607805952,0.0,4115.300253033638,4.706629589359734,18.351099114490292,2652,7,0.0,207,50656703523555,10,34.3,729.232177734375,0.2215999960899353,0,0.0,0.0,,,,,0,,3,,
Raw,22960571,22966174000000,,,-1291005708607805952,0.0,4115.300253033638,4.706629589359734,18.351099114490292,2652,8,0.0,207,50656710535842,9,35.9,474.13336181640625,0.23000000417232513,0,0.0,0.0,,,,,0,,3,,
Raw,22960572,22966174000000,,,-1291005708607805952,0.0,4115.300253033638,4.706629589359734,18.351099114490292,2652,3,0.0,15,385474698389601,11,33.1,327.2223815917969,0.04600000008940697,0,0.0,0.0,,,,,0,,1,,
Raw,22960572,22966174000000,,,-1291005708607805952,0.0,4115.300253033638,4.706629589359734,18.351099114490292,2652,4,0.0,15,385474710238392,14,30.2,-243.52462768554688,0.04179999977350235,0,0.0,0.0,,,,,0,,1,,
Raw,22960573,22966174000000,,,-1291005708607805952,0.0,4115.300253033638,4.706629589359734,18.351099114490292,2652,8,0.0,15,385474708108875,13,31.3,-581.1205444335938,0.03579999879002571,0,0.0,0.0,,,,,0,,1,,
Raw,22960573,22966174000000,,,-1291005708607805952,0.0,4115.300253033638,4.706629589359734,18.351099114490292,2652,9,0.0,15,385474701091250,12,32.9,-542.581787109375,0.05290000140666962,0,0.0,0.0,,,,,0,,1,,
Raw,22960574,22966174000000,,,-1291005708607805952,0.0,4115.300253033638,4.706629589359734,18.351099114490292,2652,22,0.0,15,385474697217703,8,36.8,255.63246154785156,0.039500001817941666,0,0.0,0.0,,,,,0,,1,,
Raw,22960575,22966174000000,,,-1291005708607805952,0.0,4115.300253033638,4.706629589359734,18.351099114490292,2652,27,0.0,15,385474714551055,35,22.0,-224.1183624267578,0.7924999594688416,0,0.0,0.0,,,,,0,,1,,
NMEA,$GPGSV,3,1,11,03,07,240,33,04,48,296,30,08,35,209,31,09,14,316,33*70,1606993456339
NMEA,$GPGSV,3,2,11,11,00,000,31,22,04,220,37,27,73,187,22,16,52,348,*7A,1606993456340
NMEA,$GPGSV,3,3,11,18,09,066,,26,36,035,,31,33,097,*42,1606993456341
NMEA,$GLGSV,3,1,09,86,02,184,23,65,28,289,22,71,10,191,34,72,33,237,36*6B,1606993456344
NMEA,$GLGSV,3,2,09,74,35,023,,73,13,073,,84,42,066,,83,00,000,*6A,1606993456345
NMEA,$GLGSV,3,3,09,85,40,151,*50,1606993456346
NMEA,$GAGSV,1,1,0,*74,1606993456347
NMEA,$PQGSV,1,1,01,195,60,116,,0,5*66,1606993456351
NMEA,$PQGSV,1,1,0,*73,1606993456356
NMEA,$GNGSA,A,3,03,04,08,09,16,22,27,,,,,,1.4,1.1,0.8,1*38,1606993456358
NMEA,$GNGSA,A,3,65,71,72,85,,,,,,,,,1.4,1.1,0.8,2*32,1606993456359
NMEA,$GNVTG,,T,,M,0.0,N,0.0,K,A*3D,1606993456360
NMEA,$GNRMC,110417.00,A,2255.529048,N,12017.686338,E,0.0,,031220,2.8,W,A*1A,1606993456360
NMEA,$GNGGA,110417.00,2255.529048,N,12017.686338,E,1,11,1.1,30.5,M,17.5,M,,*42,1606993456361
Fix,gps,22.925484,120.294771,48.655396,0.000000,3.216000,1606993458000
NMEA,$GPGSV,3,1,10,03,07,240,33,04,48,296,32,08,35,209,35,09,14,316,34*70,1606993457332
Raw,22961529,22967169000000,,,-1291005708606852352,0.0,4118.188284337521,0.0933657096823563,16.03069196146964,2653,22,0.0,207,50657694590167,35,22.4,-813.5996704101562,0.9324999451637268,0,0.0,0.0,,,,,0,,3,,
Raw,22961530,22967169000000,,,-1291005708606852352,0.0,4118.188284337521,0.0933657096823563,16.03069196146964,2653,1,0.0,207,50657702983694,40,21.3,0.9821211099624634,1.004499912261963,0,0.0,0.0,,,,,0,,3,,
Raw,22961530,22967169000000,,,-1291005708606852352,0.0,4118.188284337521,0.0933657096823563,16.03069196146964,2653,7,0.0,207,50657697567381,10,34.0,729.2556762695312,0.2425999939441681,0,0.0,0.0,,,,,0,,3,,
Raw,22961530,22967169000000,,,-1291005708606852352,0.0,4118.188284337521,0.0933657096823563,16.03069196146964,2653,8,0.0,207,50657704580538,9,35.4,474.27801513671875,0.22100001573562622,0,0.0,0.0,,,,,0,,3,,
Raw,22961531,22967169000000,,,-1291005708606852352,0.0,4118.188284337521,0.0933657096823563,16.03069196146964,2653,3,0.0,15,385475692434839,12,32.7,327.1582336425781,0.039400000125169754,0,0.0,0.0,,,,,0,,1,,
