# 
# Header Description:
# 
# Version: v2.0.0.1 Platform: 8.0.0 Manufacturer: Sony Model: G8142
# 
# Raw,ElapsedRealtimeMillis,TimeNanos,LeapSecond,TimeUncertaintyNanos,FullBiasNanos,BiasNanos,BiasUncertaintyNanos,DriftNanosPerSecond,DriftUncertaintyNanosPerSecond,HardwareClockDiscontinuityCount,Svid,TimeOffsetNanos,State,ReceivedSvTimeNanos,ReceivedSvTimeUncertaintyNanos,Cn0DbHz,PseudorangeRateMetersPerSecond,PseudorangeRateUncertaintyMetersPerSecond,AccumulatedDeltaRangeState,AccumulatedDeltaRangeMeters,AccumulatedDeltaRangeUncertaintyMeters,CarrierFrequencyHz,CarrierCycles,CarrierPhase,CarrierPhaseUncertainty,MultipathIndicator,SnrInDb,ConstellationType,AgcDb,CarrierFrequencyHz
# 
# Fix,Provider,Latitude,Longitude,Altitude,Speed,Accuracy,(UTC)TimeInMs
# 
# Nav,Svid,Type,Status,MessageId,Sub-messageId,Data(Bytes)
# 
Raw,23370545,23375984000000,,,-1291005708458516480,0.0,44.878863263875246,7.405739349883957,11.274434988280307,3028,10,0.0,207,51066371663963,4693,10.6,10.177162170410156,35.74300003051758,0,0.0,0.0,,,,,0,,3,,
Raw,23370545,23375984000000,,,-1291005708458516480,0.0,44.878863263875246,7.405739349883957,11.274434988280307,3028,22,0.0,207,51066362370898,70,17.6,-821.8892211914062,1.2795000076293945,0,0.0,0.0,,,,,0,,3,,
Raw,23370546,23375984000000,,,-1291005708458516480,0.0,44.878863263875246,7.405739349883957,11.274434988280307,3028,1,0.0,207,51066369607630,19,27.1,60.07364273071289,0.254800021648407,0,0.0,0.0,,,,,0,,3,,
Raw,23370546,23375984000000,,,-1291005708458516480,0.0,44.878863263875246,7.405739349883957,11.274434988280307,3028,21,0.0,207,51066373415778,277,17.6,-580.2247924804688,10.296000480651855,0,0.0,0.0,,,,,0,,3,,
Raw,23370546,23375984000000,,,-1291005708458516480,0.0,44.878863263875246,7.405739349883957,11.274434988280307,3028,7,0.0,207,51066363244953,16,29.7,719.2196655273438,0.23119999468326569,0,0.0,0.0,,,,,0,,3,,
Raw,23370546,23375984000000,,,-1291005708458516480,0.0,44.878863263875246,7.405739349883957,11.274434988280307,3028,8,0.0,207,51066370573821,9,35.0,510.8617858886719,0.23659999668598175,0,0.0,0.0,,,,,0,,3,,
Raw,23370546,23375984000000,,,-1291005708458516480,0.0,44.878863263875246,7.405739349883957,11.274434988280307,3028,3,0.0,15,385884358654255,14,30.6,326.5283508300781,0.052800003439188004,0,0.0,0.0,,,,,0,,1,,
Raw,23370547,23375984000000,,,-1291005708458516480,0.0,44.878863263875246,7.405739349883957,11.274434988280307,3028,4,0.0,15,385884371249526,14,30.1,-194.61489868164062,0.04230000078678131,0,0.0,0.0,,,,,0,,1,,
Raw,23370547,23375984000000,,,-1291005708458516480,0.0,44.878863263875246,7.405739349883957,11.274434988280307,3028,8,0.0,15,385884369592723,6,38.2,-548.66943359375,0.03360000252723694,0,0.0,0.0,,,,,0,,1,,
Raw,23370547,23375984000000,,,-1291005708458516480,0.0,44.878863263875246,7.405739349883957,11.274434988280307,3028,9,0.0,15,385884362523834,11,33.5,-512.1630249023438,0.02590000070631504,0,0.0,0.0,,,,,0,,1,,
Raw,23370547,23375984000000,,,-1291005708458516480,0.0,44.878863263875246,7.405739349883957,11.274434988280307,3028,22,0.0,15,385884357589400,10,34.0,241.56439208984375,0.047600001096725464,0,0.0,0.0,,,,,0,,1,,
Raw,23370547,23375984000000,,,-1291005708458516480,0.0,44.878863263875246,7.405739349883957,11.274434988280307,3028,26,0.0,15,385884367889522,90,16.4,341.0252685546875,2.767000198364258,0,0.0,0.0,,,,,0,,1,,
Raw,23370547,23375984000000,,,-1291005708458516480,0.0,44.878863263875246,7.405739349883957,11.274434988280307,3028,2,0.0,783,385870317462831,26,25.8,4.964221000671387,1.274999976158142,0,0.0,0.0,,,,,0,,5,,
Raw,23370547,23375984000000,,,-1291005708458516480,0.0,44.878863263875246,7.405739349883957,11.274434988280307,3028,3,0.0,783,385870320820467,22,29.9,-2.1124343872070312,1.8935000896453857,0,0.0,0.0,,,,,0,,5,,
Raw,23370548,23375984000000,,,-1291005708458516480,0.0,44.878863263875246,7.405739349883957,11.274434988280307,3028,5,0.0,783,385870309199431,10,34.0,5.991632461547852,0.29500001668930054,0,0.0,0.0,,,,,0,,5,,
Raw,23370548,23375984000000,,,-1291005708458516480,0.0,44.878863263875246,7.405739349883957,11.274434988280307,3028,6,0.0,15,385870322356781,31,23.6,135.2918243408203,0.6195000410079956,0,0.0,0.0,,,,,0,,5,,
Raw,23370548,23375984000000,,,-1291005708458516480,0.0,44.878863263875246,7.405739349883957,11.274434988280307,3028,9,0.0,15,385870323564156,21,26.3,14.615520477294922,0.11569999903440475,0,0.0,0.0,,,,,0,,5,,
Raw,23370548,23375984000000,,,-1291005708458516480,0.0,44.878863263875246,7.405739349883957,11.274434988280307,3028,10,0.0,15,385870317550706,35,22.0,56.133148193359375,0.6919999718666077,0,0.0,0.0,,,,,0,,5,,
Raw,23370548,23375984000000,,,-1291005708458516480,0.0,44.878863263875246,7.405739349883957,11.274434988280307,3028,12,0.0,15,385870364812906,17,28.4,-545.7781982421875,0.03930000215768814,0,0.0,0.0,,,,,0,,5,,
Raw,23370548,23375984000000,,,-1291005708458516480,0.0,44.878863263875246,7.405739349883957,11.274434988280307,3028,14,0.0,15,385870359432554,7,37.4,249.91061401367188,0.04910000041127205,0,0.0,0.0,,,,,0,,5,,
Raw,23370549,23375984000000,,,-1291005708458516480,0.0,44.878863263875246,7.405739349883957,11.274434988280307,3028,16,0.0,15,385870321544626,21,26.8,147.9509735107422,0.11270000040531158,0,0.0,0.0,,,,,0,,5,,
Raw,23370549,23375984000000,,,-1291005708458516480,0.0,44.878863263875246,7.405739349883957,11.274434988280307,3028,21,0.0,15,385870354036659,31,23.6,459.1472473144531,0.6375000476837158,0,0.0,0.0,,,,,0,,5,,
Raw,23370549,23375984000000,,,-1291005708458516480,0.0,44.878863263875246,7.405739349883957,11.274434988280307,3028,24,0.0,15,385870363097137,40,21.8,-283.1046447753906,0.6710000038146973,0,0.0,0.0,,,,,0,,5,,
Raw,23370549,23375984000000,,,-1291005708458516480,0.0,44.878863263875246,7.405739349883957,11.274434988280307,3028,2,0.0,7183,385884351196082,10,34.4,-199.90982055664062,0.05060000345110893,0,0.0,0.0,,,,,0,,6,,
Fix,gps,22.925510,120.294776,49.547852,0.000000,4.288000,1606993867000
NMEA,$GPGSV,3,1,12,03,06,239,31,04,49,292,30,08,38,209,38,09,16,314,34*78,1606993866330
NMEA,$GPGSV,3,2,12,11,00,000,33,22,04,219,34,26,35,036,16,16,51,352,*75,1606993866330
NMEA,$GPGSV,3,3,12,18,09,063,,21,00,000,,27,76,187,,31,32,099,*75,1606993866330
NMEA,$GLGSV,2,1,08,74,35,028,11,86,04,184,18,65,28,285,27,85,42,149,18*62,1606993866330
NMEA,$GLGSV,2,2,08,71,08,189,30,72,31,234,35,73,11,075,,84,41,061,*6C,1606993866330
NMEA,$GAGSV,1,1,04,02,13,281,34,03,37,288,25,05,46,212,,25,45,326,*65,1606993866330
NMEA,$PQGSV,1,1,03,193,24,171,20,194,60,039,16,195,61,115,16,0,5*6E,1606993866331
NMEA,$PQGSV,4,1,16,02,40,240,26,03,58,202,30,05,16,255,34,06,65,181,24,0,4*6C,1606993866331
NMEA,$PQGSV,4,2,16,09,73,277,26,10,49,286,22,12,37,182,28,14,23,258,37,0,4*68,1606993866331
NMEA,$PQGSV,4,3,16,16,67,188,27,21,07,182,24,24,36,323,22,01,52,129,,0,4*6D,1606993866331
NMEA,$PQGSV,4,4,16,04,37,113,,07,61,331,,08,07,168,,26,52,035,,0,4*6B,1606993866331
NMEA,$GNGSA,A,3,03,04,08,09,27,,,,,,,,1.8,1.6,0.8,1*34,1606993866332
NMEA,$GNGSA,A,2,65,71,72,,,,,,,,,,1.8,1.6,0.8,2*35,1606993866332
NMEA,$GNGSA,A,2,02,03,,,,,,,,,,,1.8,1.6,0.8,3*35,1606993866333
NMEA,$PQGSA,A,2,14,,,,,,,,,,,,1.8,1.6,0.8,4*3E,1606993866333
NMEA,$GNVTG,,T,,M,0.0,N,0.0,K,A*3D,1606993866333
NMEA,$GNRMC,111107.00,A,2255.530610,N,12017.686579,E,0.0,,031220,2.8,W,A*1F,1606993866335
NMEA,$GNGGA,111107.00,2255.530610,N,12017.686579,E,1,11,1.6,32.1,M,17.5,M,,*46,1606993866335
Fix,gps,22.925508,120.294774,49.926880,0.000000,4.288000,1606993868000
NMEA,$GPGSV,3,1,12,03,06,239,27,04,49,292,28,08,38,209,34,09,16,314,33*7D,1606993867333
NMEA,$GPGSV,3,2,12,11,00,000,34,22,04,219,32,26,35,036,16,16,51,352,*74,1606993867333
Raw,23371582,23376984000000,,,-1291005708458516480,0.0,44.74036177271046,5.107697424245988,11.39504537691585,3028,10,0.0,207,51067371663929,4930,10.6,10.177162170410156,37.24300003051758,0,0.0,0.0,,,,,0,,3,,
Raw,23371582,23376984000000,,,-1291005708458516480,0.0,44.74036177271046,5.107697424245988,11.39504537691585,3028,22,0.0,207,51067362373852,46,20.0,-823.63134765625,1.0494999885559082,0,0.0,0.0,,,,,0,,3,,
Raw,23371582,23376984000000,,,-1291005708458516480,0.0,44.74036177271046,5.107697424245988,11.39504537691585,3028,1,0.0,207,51067369607467,35,22.0,59.14239501953125,0.9399999976158142,0,0.0,0.0,,,,,0,,3,,
Raw,23371583,23376984000000,,,-1291005708458516480,0.0,44.74036177271046,5.107697424245988,11.39504537691585,3028,21,0.0,207,51067373417713,346,17.6,-580.2247924804688,11.796000480651855,0,0.0,0.0,,,,,0,,3,,
Raw,23371583,23376984000000,,,-1291005708458516480,0.0,44.74036177271046,5.107697424245988,11.39504537691585,3028,7,0.0,207,51067363242633,19,27.7,718.4326782226562,0.24580000340938568,0,0.0,0.0,,,,,0,,3,,
Raw,23371583,23376984000000,,,-1291005708458516480,0.0,44.74036177271046,5.107697424245988,11.39504537691585,3028,8,0.0,207,51067370572099,14,30.1,510.2179260253906,0.24079999327659607,0,0.0,0.0,,,,,0,,3,,
Raw,23371583,23376984000000,,,-1291005708458516480,0.0,44.74036177271046,5.107697424245988,11.39504537691585,3028,3,0.0,15,385885358653142,21,26.6,326.0966491699219,0.13819999992847443,0,0.0,0.0,,,,,0,,1,,
Raw,23371583,23376984000000,,,-1291005708458516480,0.0,44.74036177271046,5.107697424245988,11.39504537691585,3028,4,0.0,15,385885371250169,19,27.6,-195.19686889648438,0.05780000239610672,0,0.0,0.0,,,,,0,,1,,
Raw,23371584,23376984000000,,,-1291005708458516480,0.0,44.74036177271046,5.107697424245988,11.39504537691585,3028,8,0.0,15,385885369594560,10,34.2,-549.33447265625,0.035600002855062485,0,0.0,0.0,,,,,0,,1,,
Raw,23371584,23376984000000,,,-1291005708458516480,0.0,44.74036177271046,5.107697424245988,11.39504537691585,3028,9,0.0,15,385885362525549,12,32.5,-512.8121337890625,0.026900000870227814,0,0.0,0.0,,,,,0,,1,,
Raw,23371584,23376984000000,,,-1291005708458516480,0.0,44.74036177271046,5.107697424245988,11.39504537691585,3028,22,0.0,15,385885357588586,13,31.6,240.9122314453125,0.050700001418590546,0,0.0,0.0,,,,,0,,1,,
Raw,23371584,23376984000000,,,-1291005708458516480,0.0,44.74036177271046,5.107697424245988,11.39504537691585,3028,26,0.0,15,385885367888384,109,16.4,341.0252685546875,4.267000198364258,0,0.0,0.0,,,,,0,,1,,
Raw,23371585,23376984000000,,,-1291005708458516480,0.0,44.74036177271046,5.107697424245988,11.39504537691585,3028,2,0.0,783,385871317462814,38,25.8,4.964221000671387,2.7750000953674316,0,0.0,0.0,,,,,0,,5,,
Raw,23371585,23376984000000,,,-1291005708458516480,0.0,44.74036177271046,5.107697424245988,11.39504537691585,3028,3,0.0,783,385871320820474,39,29.9,-2.1124343872070312,3.3935000896453857,0,0.0,0.0,,,,,0,,5,,
Raw,23371585,23376984000000,,,-1291005708458516480,0.0,44.74036177271046,5.107697424245988,11.39504537691585,3028,5,0.0,783,385871309199424,14,30.1,1.7763652801513672,0.39500001072883606,0,0.0,0.0,,,,,0,,5,,
Raw,23371585,23376984000000,,,-1291005708458516480,0.0,44.74036177271046,5.107697424245988,11.39504537691585,3028,6,0.0,15,385871322356319,31,23.1,135.09017944335938,0.6195000410079956,0,0.0,0.0,,,,,0,,5,,
Raw,23371585,23376984000000,,,-1291005708458516480,0.0,44.74036177271046,5.107697424245988,11.39504537691585,3028,9,0.0,15,385871323564112,35,22.6,14.143709182739258,0.6710000038146973,0,0.0,0.0,,,,,0,,5,,
Raw,23371586,23376984000000,,,-1291005708458516480,0.0,44.74036177271046,5.107697424245988,11.39504537691585,3028,10,0.0,15,385871317550541,70,17.0,56.133148193359375,1.0220000743865967,0,0.0,0.0,,,,,0,,5,,
Raw,23371586,23376984000000,,,-1291005708458516480,0.0,44.74036177271046,5.107697424245988,11.39504537691585,3028,12,0.0,15,385871364814732,19,27.2,-546.1617431640625,0.047300003468990326,0,0.0,0.0,,,,,0,,5,,
Raw,23371586,23376984000000,,,-1291005708458516480,0.0,44.74036177271046,5.107697424245988,11.39504537691585,3028,14,0.0,15,385871359431726,10,34.3,249.2721405029297,0.05060000345110893,0,0.0,0.0,,,,,0,,5,,
Raw,23371586,23376984000000,,,-1291005708458516480,0.0,44.74036177271046,5.107697424245988,11.39504537691585,3028,16,0.0,15,385871321544137,19,27.6,147.9355010986328,0.04280000180006027,0,0.0,0.0,,,,,0,,5,,
Raw,23371586,23376984000000,,,-1291005708458516480,0.0,44.74036177271046,5.107697424245988,11.39504537691585,3028,21,0.0,15,385871354035186,24,25.2,457.8066711425781,0.4027999937534332,0,0.0,0.0,,,,,0,,5,,
Raw,23371587,23376984000000,,,-1291005708458516480,0.0,44.74036177271046,5.107697424245988,11.39504537691585,3028,24,0.0,15,385871363098072,31,23.3,-283.2678527832031,0.6210000514984131,0,0.0,0.0,,,,,0,,5,,
Raw,23371587,23376984000000,,,-1291005708458516480,0.0,44.74036177271046,5.107697424245988,11.39504537691585,3028,2,0.0,7183,385885351196758,14,30.6,-201.22872924804688,0.05430000275373459,0,0.0,0.0,,,,,0,,6,,
NMEA,$GPGSV,3,3,12,18,09,063,,21,00,000,,27,76,187,,31,32,099,*75,1606993867333
NMEA,$GLGSV,2,1,08,74,35,028,11,86,04,184,20,65,28,285,22,85,42,149,18*6C,1606993867333
NMEA,$GLGSV,2,2,08,71,08,189,28,72,31,234,30,73,11,075,,84,41,061,*60,1606993867334
NMEA,$GAGSV,1,1,04,02,13,281,31,03,37,288,20,05,46,212,,25,45,326,*65,1606993867334
NMEA,$PQGSV,1,1,03,193,24,171,20,194,60,039,16,195,61,115,16,0,5*6E,1606993867334
NMEA,$PQGSV,4,1,16,02,40,240,26,03,58,202,30,05,16,255,30,06,65,181,23,0,4*6F,1606993867335
NMEA,$PQGSV,4,2,16,09,73,277,23,10,49,286,17,12,37,182,27,14,23,258,34,0,4*67,1606993867335
NMEA,$PQGSV,4,3,16,16,67,188,28,21,07,182,25,24,36,323,23,01,52,129,,0,4*62,1606993867335
NMEA,$PQGSV,4,4,16,04,37,113,,07,61,331,,08,07,168,,26,52,035,,0,4*6B,1606993867335
NMEA,$GNGSA,A,3,03,04,08,09,27,,,,,,,,1.8,1.6,0.8,1*34,1606993867338
NMEA,$GNGSA,A,2,65,71,72,,,,,,,,,,1.8,1.6,0.8,2*35,1606993867339
NMEA,$GNGSA,A,2,02,03,,,,,,,,,,,1.8,1.6,0.8,3*35,1606993867339
NMEA,$PQGSA,A,2,14,,,,,,,,,,,,1.8,1.6,0.8,4*3E,1606993867339
NMEA,$GNVTG,,T,,M,0.0,N,0.0,K,A*3D,1606993867339
NMEA,$GNRMC,111108.00,A,2255.530469,N,12017.686412,E,0.0,,031220,2.8,W,A*10,1606993867340
NMEA,$GNGGA,111108.00,2255.530469,N,12017.686412,E,1,11,1.6,32.5,M,17.5,M,,*4D,1606993867340
Fix,gps,22.925505,120.294770,50.119507,0.000000,4.288000,1606993869000
Raw,23372524,23377847000000,,,-1291005708458516224,0.0,43.57359284767881,3.163330881845387,10.485932782567586,3028,10,0.0,207,51068234663899,5142,10.6,10.177162170410156,38.53750228881836,0,0.0,0.0,,,,,0,,3,,
Raw,23372524,23377847000000,,,-1291005708458516224,0.0,43.57359284767881,3.163330881845387,10.485932782567586,3028,22,0.0,207,51068225376223,53,20.0,-823.63134765625,2.3440001010894775,0,0.0,0.0,,,,,0,,3,,
Raw,23372524,23377847000000,,,-1291005708458516224,0.0,43.57359284767881,3.163330881845387,10.485932782567586,3028,1,0.0,207,51068232607297,41,22.0,59.14239501953125,2.234499931335449,0,0.0,0.0,,,,,0,,3,,
Raw,23372525,23377847000000,,,-1291005708458516224,0.0,43.57359284767881,3.163330881845387,10.485932782567586,3028,21,0.0,207,51068236419383,414,17.6,-580.2247924804688,13.090500831604004,0,0.0,0.0,,,,,0,,3,,
Raw,23372525,23377847000000,,,-1291005708458516224,0.0,43.57359284767881,3.163330881845387,10.485932782567586,3028,7,0.0,207,51068226240574,24,25.4,718.0446166992188,0.38840001821517944,0,0.0,0.0,,,,,0,,3,,
Raw,23372525,23377847000000,,,-1291005708458516224,0.0,43.57359284767881,3.163330881845387,10.485932782567586,3028,8,0.0,207,51068233570688,12,32.8,509.8293151855469,0.24089999496936798,0,0.0,0.0,,,,,0,,3,,
Raw,23372525,23377847000000,,,-1291005708458516224,0.0,43.57359284767881,3.163330881845387,10.485932782567586,3028,3,0.0,15,385886221652285,19,27.7,325.3592224121094,0.09510000050067902,0,0.0,0.0,,,,,0,,1,,
Raw,23372525,23377847000000,,,-1291005708458516224,0.0,43.57359284767881,3.163330881845387,10.485932782567586,3028,4,0.0,15,385886234250746,17,28.4,-195.50064086914062,0.061799999326467514,0,0.0,0.0,,,,,0,,1,,
Raw,23372526,23377847000000,,,-1291005708458516224,0.0,43.57359284767881,3.163330881845387,10.485932782567586,3028,8,0.0,15,385886232596136,7,37.4,-549.6944580078125,0.03060000017285347,0,0.0,0.0,,,,,0,,1,,
Raw,23372526,23377847000000,,,-1291005708458516224,0.0,43.57359284767881,3.163330881845387,10.485932782567586,3028,9,0.0,15,385886225527017,11,33.5,-513.230224609375,0.026499999687075615,0,0.0,0.0,,,,,0,,1,,
Raw,23372526,23377847000000,,,-1291005708458516224,0.0,43.57359284767881,3.163330881845387,10.485932782567586,3028,22,0.0,15,385886220587895,12,32.0,240.33193969726562,0.05140000209212303,0,0.0,0.0,,,,,0,,1,,
Raw,23372526,23377847000000,,,-1291005708458516224,0.0,43.57359284767881,3.163330881845387,10.485932782567586,3028,26,0.0,15,385886230887403,134,16.4,341.0252685546875,5.561500072479248,0,0.0,0.0,,,,,0,,1,,
NMEA,$GPGSV,3,1,12,03,06,239,28,04,49,292,28,08,38,209,37,09,16,314,34*76,1606993868331
NMEA,$GPGSV,3,2,12,11,00,000,34,22,04,219,32,26,35,036,16,16,51,352,*74,1606993868332
NMEA,$GPGSV,3,3,12,18,09,063,,21,00,000,,27,76,187,,31,32,099,*75,1606993868332
NMEA,$GLGSV,2,1,08,74,35,028,11,86,04,184,20,65,28,285,22,85,42,149,18*6C,1606993868332
NMEA,$GLGSV,2,2,08,71,08,189,25,72,31,234,33,73,11,075,,84,41,061,*6E,1606993868332
NMEA,$GAGSV,1,1,0,*74,1606993868332
NMEA,$PQGSV,1,1,03,193,24,171,20,194,60,039,16,195,61,115,16,0,5*6E,1606993868332
NMEA,$PQGSV,1,1,0,*73,1606993868333
NMEA,$GNGSA,A,3,03,04,08,09,27,,,,,,,,1.8,1.6,0.8,1*34,1606993868334
NMEA,$GNGSA,A,2,65,71,72,,,,,,,,,,1.8,1.6,0.8,2*35,1606993868334
NMEA,$GNVTG,,T,,M,0.0,N,0.0,K,A*3D,1606993868334
NMEA,$GNRMC,111109.00,A,2255.530273,N,12017.686215,E,0.0,,031220,2.8,W,A*1D,1606993868334
NMEA,$GNGGA,111109.00,2255.530273,N,12017.686215,E,1,08,1.6,32.7,M,17.5,M,,*4A,1606993868334
NMEA,$GPGSV,3,1,12,03,06,239,29,04,49,292,31,08,38,209,37,09,16,314,33*78,1606993869337
Raw,23373541,23379320000000,,,-1291005708458377216,0.0,4217.545967549086,0.4703704653430848,12.408742697281168,3029,1,0.0,207,51069705467810,35,22.2,61.80815124511719,0.918999969959259,0,0.0,0.0,,,,,0,,3,,
Raw,23373541,23379320000000,,,-1291005708458377216,0.0,4217.545967549086,0.4703704653430848,12.408742697281168,3029,7,0.0,207,51069699098019,21,26.1,720.083740234375,0.326200008392334,0,0.0,0.0,,,,,0,,3,,
Raw,23373542,23379320000000,,,-1291005708458377216,0.0,4217.545967549086,0.4703704653430848,12.408742697281168,3029,8,0.0,207,51069706429054,13,31.2,512.104736328125,0.23280000686645508,0,0.0,0.0,,,,,0,,3,,
Raw,23373542,23379320000000,,,-1291005708458377216,0.0,4217.545967549086,0.4703704653430848,12.408742697281168,3029,3,0.0,15,385887694511563,16,29.2,327.4400634765625,0.050700001418590546,0,0.0,0.0,,,,,0,,1,,
Raw,23373542,23379320000000,,,-1291005708458377216,0.0,4217.545967549086,0.4703704653430848,12.408742697281168,3029,4,0.0,15,385887707112646,14,30.9,-193.21444702148438,0.037300001829862595,0,0.0,0.0,,,,,0,,1,,
Raw,23373543,23379320000000,,,-1291005708458377216,0.0,4217.545967549086,0.4703704653430848,12.408742697281168,3029,8,0.0,15,385887705459778,7,37.4,-547.429931640625,0.020099999383091927,0,0.0,0.0,,,,,0,,1,,
Raw,23373543,23379320000000,,,-1291005708458377216,0.0,4217.545967549086,0.4703704653430848,12.408742697281168,3029,9,0.0,15,385887698390472,11,33.4,-510.9194641113281,0.04600000008940697,0,0.0,0.0,,,,,0,,1,,
Raw,23373544,23379320000000,,,-1291005708458377216,0.0,4217.545967549086,0.4703704653430848,12.408742697281168,3029,22,0.0,15,385887693447646,13,31.4,242.3715057373047,0.043299999088048935,0,0.0,0.0,,,,,0,,1,,
Fix,gps,22.925502,120.294769,50.359009,0.000000,4.288000,1606993870000
NMEA,$GPGSV,3,2,12,11,00,000,34,22,04,219,31,26,35,036,16,16,51,352,*77,1606993869345
NMEA,$GPGSV,3,3,12,18,09,063,,21,00,000,,27,76,187,,31,32,099,*75,1606993869346
NMEA,$GLGSV,2,1,08,74,35,028,11,86,04,184,20,65,28,285,22,85,42,149,18*6C,1606993869346
NMEA,$GLGSV,2,2,08,71,08,189,26,72,31,234,31,73,11,075,,84,41,061,*6F,1606993869346
NMEA,$GAGSV,1,1,0,*74,1606993869346
NMEA,$PQGSV,1,1,03,193,24,171,21,194,60,039,16,195,61,115,16,0,5*6F,1606993869347
NMEA,$PQGSV,1,1,0,*73,1606993869347
NMEA,$GNGSA,A,3,03,04,08,09,27,,,,,,,,1.8,1.6,0.8,1*34,1606993869348
NMEA,$GNGSA,A,2,65,71,72,,,,,,,,,,1.8,1.6,0.8,2*35,1606993869349
NMEA,$GNVTG,,T,,M,0.0,N,0.0,K,A*3D,1606993869352
NMEA,$GNRMC,111110.00,A,2255.530119,N,12017.686123,E,0.0,,031220,2.8,W,A*1C,1606993869352
NMEA,$GNGGA,111110.00,2255.530119,N,12017.686123,E,1,08,1.6,32.9,M,17.5,M,,*45,1606993869353
Fix,gps,22.925501,120.294768,50.613159,0.000000,4.288000,1606993871000
Raw,23374561,23380313000000,,,-1291005708458267648,0.0,4169.91114616394,7.83300287237829,13.484632408500095,3030,1,0.0,207,51070698357748,31,23.0,62.191650390625,0.8784999847412109,0,0.0,0.0,,,,,0,,3,,
Raw,23374561,23380313000000,,,-1291005708458267648,0.0,4169.91114616394,7.83300287237829,13.484632408500095,3030,7,0.0,207,51070691985565,17,28.1,721.1705932617188,0.2572999894618988,0,0.0,0.0,,,,,0,,3,,
Raw,23374562,23380313000000,,,-1291005708458267648,0.0,4169.91114616394,7.83300287237829,13.484632408500095,3030,8,0.0,207,51070699317354,13,31.6,513.2951049804688,0.2523000240325928,0,0.0,0.0,,,,,0,,3,,
Raw,23374562,23380313000000,,,-1291005708458267648,0.0,4169.91114616394,7.83300287237829,13.484632408500095,3030,3,0.0,15,385888687400451,16,29.0,328.6009826660156,0.04020000249147415,0,0.0,0.0,,,,,0,,1,,
Raw,23374563,23380313000000,,,-1291005708458267648,0.0,4169.91114616394,7.83300287237829,13.484632408500095,3030,4,0.0,15,385888700003326,14,30.7,-192.04190063476562,0.0568000003695488,0,0.0,0.0,,,,,0,,1,,
Raw,23374563,23380313000000,,,-1291005708458267648,0.0,4169.91114616394,7.83300287237829,13.484632408500095,3030,8,0.0,15,385888698351585,6,38.7,-546.2479858398438,0.038200002163648605,0,0.0,0.0,,,,,0,,1,,
Raw,23374563,23380313000000,,,-1291005708458267648,0.0,4169.91114616394,7.83300287237829,13.484632408500095,3030,9,0.0,15,385888691282181,16,29.6,-509.7454833984375,0.04619999974966049,0,0.0,0.0,,,,,0,,1,,
Raw,23374563,23380313000000,,,-1291005708458267648,0.0,4169.91114616394,7.83300287237829,13.484632408500095,3030,22,0.0,15,385888686336822,11,33.0,243.4899444580078,0.02800000086426735,0,0.0,0.0,,,,,0,,1,,
NMEA,$GPGSV,3,1,12,03,06,239,29,04,49,292,31,08,38,209,39,09,16,314,30*75,1606993870336
NMEA,$GPGSV,3,2,12,11,00,000,34,22,04,219,33,16,51,352,,18,09,063,*70,1606993870341
NMEA,$GPGSV,3,3,12,21,00,000,,26,35,036,,27,76,187,,31,32,099,*77,1606993870344
NMEA,$GLGSV,2,1,08,65,28,285,23,71,08,189,28,72,31,234,32,74,35,028,*61,1606993870344
NMEA,$GLGSV,2,2,08,86,04,184,,73,11,075,,84,41,061,,85,42,149,*65,1606993870346
NMEA,$GAGSV,1,1,0,*74,1606993870346
NMEA,$PQGSV,1,1,02,194,60,039,,195,61,115,,0,5*67,1606993870346
NMEA,$PQGSV,1,1,0,*73,1606993870347
NMEA,$GNGSA,A,3,03,04,08,09,27,,,,,,,,2.1,2.0,0.9,1*3A,1606993870350
NMEA,$GNGSA,A,2,65,71,72,,,,,,,,,,2.1,2.0,0.9,2*3B,1606993870350
NMEA,$GNVTG,,T,,M,0.0,N,0.0,K,A*3D,1606993870351
NMEA,$GNRMC,111111.00,A,2255.530061,N,12017.686101,E,0.0,,031220,2.8,W,A*13,1606993870352
NMEA,$GNGGA,111111.00,2255.530061,N,12017.686101,E,1,08,2.0,33.1,M,17.5,M,,*46,1606993870353
Fix,gps,22.925501,120.294768,50.759827,0.000000,4.288000,1606993872000
Raw,23375560,23381325000000,,,-1291005708457383680,0.0,4199.320916086435,11.744397823545684,14.921639125284656,3031,1,0.0,207,51071709473621,14,30.6,63.08225631713867,0.2402999997138977,0,0.0,0.0,,,,,0,,3,,
Raw,23375561,23381325000000,,,-1291005708457383680,0.0,4199.320916086435,11.744397823545684,14.921639125284656,3031,21,0.0,207,51071713293085,40,21.0,-578.0476684570312,0.9909999966621399,0,0.0,0.0,,,,,0,,3,,
Raw,23375561,23381325000000,,,-1291005708457383680,0.0,4199.320916086435,11.744397823545684,14.921639125284656,3031,7,0.0,207,51071703099280,31,23.2,721.5007934570312,0.8559999465942383,0,0.0,0.0,,,,,0,,3,,
Raw,23375562,23381325000000,,,-1291005708457383680,0.0,4199.320916086435,11.744397823545684,14.921639125284656,3031,8,0.0,207,51071710431841,10,34.7,513.563232421875,0.2320999950170517,0,0.0,0.0,,,,,0,,3,,
Raw,23375562,23381325000000,,,-1291005708457383680,0.0,4199.320916086435,11.744397823545684,14.921639125284656,3031,3,0.0,15,385889698515480,17,28.3,328.7621765136719,0.06780000030994415,0,0.0,0.0,,,,,0,,1,,
Raw,23375562,23381325000000,,,-1291005708457383680,0.0,4199.320916086435,11.744397823545684,14.921639125284656,3031,4,0.0,15,385889711120108,13,31.7,-191.71543884277344,0.040300000458955765,0,0.0,0.0,,,,,0,,1,,
Raw,23375563,23381325000000,,,-1291005708457383680,0.0,4199.320916086435,11.744397823545684,14.921639125284656,3031,8,0.0,15,385889709469573,6,39.7,-546.0004272460938,0.023800000548362732,0,0.0,0.0,,,,,0,,1,,
Raw,23375563,23381325000000,,,-1291005708457383680,0.0,4199.320916086435,11.744397823545684,14.921639125284656,3031,9,0.0,15,385889702400007,13,31.3,-509.4757080078125,0.0568000003695488,0,0.0,0.0,,,,,0,,1,,
Raw,23375564,23381325000000,,,-1291005708457383680,0.0,4199.320916086435,11.744397823545684,14.921639125284656,3031,22,0.0,15,385889697452182,16,29.7,243.6488800048828,0.0552000030875206,0,0.0,0.0,,,,,0,,1,,
NMEA,$GPGSV,3,1,11,03,06,239,28,04,49,292,32,08,38,209,40,09,16,314,31*7B,1606993871341
NMEA,$GPGSV,3,2,11,11,00,000,34,22,04,219,30,16,51,352,,18,09,063,*70,1606993871341
NMEA,$GPGSV,3,3,11,21,00,000,,26,35,036,,31,32,099,*4E,1606993871345
NMEA,$GLGSV,2,1,08,65,28,285,31,85,42,149,21,71,08,189,23,72,31,234,35*65,1606993871346
NMEA,$GLGSV,2,2,08,74,35,028,,86,04,184,,73,11,075,,84,41,061,*6D,1606993871347
NMEA,$GAGSV,1,1,0,*74,1606993871348
NMEA,$PQGSV,1,1,03,193,24,171,,194,60,039,,195,61,115,,0,5*6C,1606993871348
NMEA,$PQGSV,1,1,0,*73,1606993871351
NMEA,$GNGSA,A,3,03,04,08,09,,,,,,,,,1.6,1.3,0.9,1*3B,1606993871359
NMEA,$GNGSA,A,2,65,71,72,,,,,,,,,,1.6,1.3,0.9,2*3F,1606993871360
NMEA,$GNVTG,,T,,M,0.0,N,0.0,K,A*3D,1606993871362
NMEA,$GNRMC,111112.00,A,2255.530030,N,12017.686061,E,0.0,,031220,2.8,W,A*13,1606993871366
NMEA,$GNGGA,111112.00,2255.530030,N,12017.686061,E,1,07,1.3,33.3,M,17.5,M,,*4B,1606993871366
Fix,gps,22.925501,120.294767,50.807983,0.000000,5.360000,1606993873000
Raw,23376576,23382319000000,,,-1291005708457201920,0.0,4200.964234769344,12.491857282178112,14.191555712632645,3032,22,0.0,207,51072696073892,35,22.4,-820.7464599609375,0.9354999661445618,0,0.0,0.0,,,,,0,,3,,
Raw,23376576,23382319000000,,,-1291005708457201920,0.0,4200.964234769344,12.491857282178112,14.191555712632645,3032,1,0.0,207,51072703291874,17,28.0,63.062931060791016,0.275299996137619,0,0.0,0.0,,,,,0,,3,,
Raw,23376577,23382319000000,,,-1291005708457201920,0.0,4200.964234769344,12.491857282178112,14.191555712632645,3032,8,0.0,207,51072704248582,13,31.9,513.4739379882812,0.2298000156879425,0,0.0,0.0,,,,,0,,3,,
Raw,23376577,23382319000000,,,-1291005708457201920,0.0,4200.964234769344,12.491857282178112,14.191555712632645,3032,3,0.0,15,385890692332925,17,28.3,328.5545654296875,0.058800000697374344,0,0.0,0.0,,,,,0,,1,,
Raw,23376577,23382319000000,,,-1291005708457201920,0.0,4200.964234769344,12.491857282178112,14.191555712632645,3032,4,0.0,15,385890704939229,14,30.3,-191.75489807128906,0.03280000016093254,0,0.0,0.0,,,,,0,,1,,
Raw,23376578,23382319000000,,,-1291005708457201920,0.0,4200.964234769344,12.491857282178112,14.191555712632645,3032,8,0.0,15,385890703289842,6,39.7,-546.0607299804688,0.04480000212788582,0,0.0,0.0,,,,,0,,1,,
Raw,23376578,23382319000000,,,-1291005708457201920,0.0,4200.964234769344,12.491857282178112,14.191555712632645,3032,9,0.0,15,385890696220151,31,23.2,-509.8157958984375,0.7354999780654907,0,0.0,0.0,,,,,0,,1,,
Raw,23376578,23382319000000,,,-1291005708457201920,0.0,4200.964234769344,12.491857282178112,14.191555712632645,3032,22,0.0,15,385890691269828,12,32.6,243.3998260498047,0.03790000081062317,0,0.0,0.0,,,,,0,,1,,
NMEA,$GPGSV,3,1,12,03,06,239,28,04,49,292,30,08,38,209,40,09,16,314,23*79,1606993872341
NMEA,$GPGSV,3,2,12,11,00,000,34,22,04,219,33,16,51,352,,18,09,063,*70,1606993872349
NMEA,$GPGSV,3,3,12,21,00,000,,26,35,036,,27,76,187,,31,32,099,*77,1606993872350
NMEA,$GLGSV,2,1,06,86,04,184,22,65,28,285,28,72,31,234,32,74,35,028,*67,1606993872350
NMEA,$GLGSV,2,2,06,73,11,075,,84,41,061,*6B,1606993872352
NMEA,$GAGSV,1,1,0,*74,1606993872352
NMEA,$PQGSV,1,1,03,193,24,171,,194,60,039,,195,61,115,,0,5*6C,1606993872353
NMEA,$PQGSV,1,1,0,*73,1606993872354
NMEA,$GNGSA,A,3,03,04,08,09,,,,,,,,,1.6,1.3,0.9,1*3B,1606993872360
NMEA,$GNGSA,A,2,65,72,,,,,,,,,,,1.6,1.3,0.9,2*39,1606993872361
NMEA,$GNVTG,,T,,M,0.0,N,0.0,K,A*3D,1606993872362
NMEA,$GNRMC,111113.00,A,2255.530055,N,12017.686043,E,0.0,,031220,2.8,W,A*11,1606993872363
NMEA,$GNGGA,111113.00,2255.530055,N,12017.686043,E,1,06,1.3,33.3,M,17.5,M,,*48,1606993872363
NMEA,$GPGSV,3,1,12,03,06,239,29,04,49,292,31,08,38,209,38,09,16,314,28*7D,1606993873329
NMEA,$GPGSV,3,2,12,11,00,000,34,22,04,219,32,16,51,352,,18,09,063,*71,1606993873329
Fix,gps,22.925501,120.294769,50.507874,0.000000,4.288000,1606993874000
Raw,23377588,23383310000000,,,-1291005708456878592,0.0,4203.405696898699,12.041314359347894,15.742853532897348,3033,1,0.0,207,51073693968401,16,29.0,61.13344192504883,0.2492000013589859,0,0.0,0.0,,,,,0,,3,,
Raw,23377589,23383310000000,,,-1291005708456878592,0.0,4203.405696898699,12.041314359347894,15.742853532897348,3033,7,0.0,207,51073687589774,17,28.9,719.0616455078125,0.25130000710487366,0,0.0,0.0,,,,,0,,3,,
Raw,23377589,23383310000000,,,-1291005708456878592,0.0,4203.405696898699,12.041314359347894,15.742853532897348,3033,8,0.0,207,51073694923624,11,33.4,511.5367431640625,0.24000000953674316,0,0.0,0.0,,,,,0,,3,,
Raw,23377590,23383310000000,,,-1291005708456878592,0.0,4203.405696898699,12.041314359347894,15.742853532897348,3033,3,0.0,15,385891683008477,17,28.6,326.51397705078125,0.04529999941587448,0,0.0,0.0,,,,,0,,1,,
Raw,23377591,23383310000000,,,-1291005708456878592,0.0,4203.405696898699,12.041314359347894,15.742853532897348,3033,4,0.0,15,385891695616551,13,31.3,-193.6449432373047,0.046300001442432404,0,0.0,0.0,,,,,0,,1,,
Raw,23377591,23383310000000,,,-1291005708456878592,0.0,4203.405696898699,12.041314359347894,15.742853532897348,3033,8,0.0,15,385891693968388,6,38.4,-548.0338745117188,0.03070000186562538,0,0.0,0.0,,,,,0,,1,,
Raw,23377592,23383310000000,,,-1291005708456878592,0.0,4203.405696898699,12.041314359347894,15.742853532897348,3033,9,0.0,15,385891686898586,17,28.1,-511.5107727050781,0.049799997359514236,0,0.0,0.0,,,,,0,,1,,
Raw,23377592,23383310000000,,,-1291005708456878592,0.0,4203.405696898699,12.041314359347894,15.742853532897348,3033,22,0.0,15,385891681945759,13,31.5,241.39039611816406,0.05530000105500221,0,0.0,0.0,,,,,0,,1,,
NMEA,$GPGSV,3,3,12,21,00,000,,26,35,036,,27,76,187,,31,32,099,*77,1606993873329
NMEA,$GLGSV,2,1,07,65,28,285,29,71,08,189,29,72,31,234,33,74,35,028,*64,1606993873330
NMEA,$GLGSV,2,2,07,73,11,075,,84,41,061,,85,42,149,*5D,1606993873330
NMEA,$GAGSV,1,1,0,*74,1606993873331
NMEA,$PQGSV,1,1,03,193,24,171,,194,60,039,,195,61,115,,0,5*6C,1606993873331
NMEA,$PQGSV,1,1,0,*73,1606993873331
NMEA,$GNGSA,A,3,03,04,08,09,,,,,,,,,1.6,1.4,0.9,1*3C,1606993873332
NMEA,$GNGSA,A,3,65,71,72,85,,,,,,,,,1.6,1.4,0.9,2*34,1606993873332
NMEA,$GNVTG,,T,,M,0.0,N,0.0,K,A*3D,1606993873333
NMEA,$GNRMC,111114.00,A,2255.530077,N,12017.686127,E,0.0,,031220,2.8,W,A*15,1606993873333
NMEA,$GNGGA,111114.00,2255.530077,N,12017.686127,E,1,08,1.4,33.0,M,17.5,M,,*46,1606993873333
Fix,gps,22.925501,120.294772,50.373291,0.000000,4.288000,1606993875000
Raw,23378527,23384321000000,,,-1291005708456263680,0.0,4195.5881752073765,5.435513721617289,10.034903944405132,3034,22,0.0,207,51074697141110,27,24.6,-825.3922729492188,0.8270000219345093,0,0.0,0.0,,,,,0,,3,,
Raw,23378528,23384321000000,,,-1291005708456263680,0.0,4195.5881752073765,5.435513721617289,10.034903944405132,3034,1,0.0,207,51074704353149,13,31.6,58.420814514160156,0.2298000156879425,0,0.0,0.0,,,,,0,,3,,
Raw,23378528,23384321000000,,,-1291005708456263680,0.0,4195.5881752073765,5.435513721617289,10.034903944405132,3034,7,0.0,207,51074697972328,14,30.4,716.2595825195312,0.2522999942302704,0,0.0,0.0,,,,,0,,3,,
Raw,23378529,23384321000000,,,-1291005708456263680,0.0,4195.5881752073765,5.435513721617289,10.034903944405132,3034,8,0.0,207,51074705306894,11,33.8,508.8229675292969,0.226500004529953,0,0.0,0.0,,,,,0,,3,,
Raw,23378529,23384321000000,,,-1291005708456263680,0.0,4195.5881752073765,5.435513721617289,10.034903944405132,3034,3,0.0,15,385892693392428,11,33.7,323.7757568359375,0.03849999979138374,0,0.0,0.0,,,,,0,,1,,
Raw,23378530,23384321000000,,,-1291005708456263680,0.0,4195.5881752073765,5.435513721617289,10.034903944405132,3034,4,0.0,15,385892706002195,11,33.7,-196.36012268066406,0.02800000086426735,0,0.0,0.0,,,,,0,,1,,
Raw,23378530,23384321000000,,,-1291005708456263680,0.0,4195.5881752073765,5.435513721617289,10.034903944405132,3034,8,0.0,15,385892704355217,6,38.1,-550.733642578125,0.01720000058412552,0,0.0,0.0,,,,,0,,1,,
Raw,23378531,23384321000000,,,-1291005708456263680,0.0,4195.5881752073765,5.435513721617289,10.034903944405132,3034,9,0.0,15,385892697285308,16,29.2,-513.8568115234375,0.0552000030875206,0,0.0,0.0,,,,,0,,1,,
Raw,23378532,23384321000000,,,-1291005708456263680,0.0,4195.5881752073765,5.435513721617289,10.034903944405132,3034,22,0.0,15,385892692329929,11,33.6,238.5548858642578,0.03700000047683716,0,0.0,0.0,,,,,0,,1,,
NMEA,$GPGSV,3,1,11,03,06,239,34,04,49,292,34,08,38,209,38,09,16,314,29*76,1606993874327
NMEA,$GPGSV,3,2,11,11,00,000,34,22,04,219,34,16,51,352,,18,09,063,*74,1606993874328
NMEA,$GPGSV,3,3,11,21,00,000,,26,35,036,,31,32,099,*4E,1606993874328
NMEA,$GLGSV,2,1,08,86,04,184,25,65,28,285,32,71,08,189,30,72,31,234,34*61,1606993874328
NMEA,$GLGSV,2,2,08,74,35,028,,73,11,075,,84,41,061,,85,42,149,*6D,1606993874328
NMEA,$GAGSV,1,1,0,*74,1606993874328
NMEA,$PQGSV,1,1,03,193,24,171,23,194,60,039,,195,61,115,,0,5*6D,1606993874329
NMEA,$PQGSV,1,1,0,*73,1606993874329
NMEA,$GNGSA,A,3,03,04,08,09,,,,,,,,,1.6,1.4,0.9,1*3C,1606993874329
NMEA,$GNGSA,A,3,65,71,72,85,,,,,,,,,1.6,1.4,0.9,2*34,1606993874330
NMEA,$GNVTG,,T,,M,0.0,N,0.0,K,A*3D,1606993874330
NMEA,$GNRMC,111115.00,A,2255.530084,N,12017.686291,E,0.0,,031220,2.8,W,A*16,1606993874330
NMEA,$GNGGA,111115.00,2255.530084,N,12017.686291,E,1,08,1.4,32.9,M,17.5,M,,*4D,1606993874331
Fix,gps,22.925502,120.294773,50.667969,0.000000,4.288000,1606993876000
Raw,23379531,23385314000000,,,-1291005708455579648,0.0,4179.494455456734,-4.060519662682924,12.318966857355072,3035,22,0.0,207,51075689459973,35,22.3,-826.0667114257812,0.9249999523162842,0,0.0,0.0,,,,,0,,3,,
Raw,23379532,23385314000000,,,-1291005708455579648,0.0,4179.494455456734,-4.060519662682924,12.318966857355072,3035,1,0.0,207,51075696668959,16,29.5,58.32962417602539,0.25370001792907715,0,0.0,0.0,,,,,0,,3,,
Raw,23379533,23385314000000,,,-1291005708455579648,0.0,4179.494455456734,-4.060519662682924,12.318966857355072,3035,7,0.0,207,51075690285882,14,30.2,715.80517578125,0.241799995303154,0,0.0,0.0,,,,,0,,3,,
Raw,23379534,23385314000000,,,-1291005708455579648,0.0,4179.494455456734,-4.060519662682924,12.318966857355072,3035,8,0.0,207,51075697621170,10,34.5,508.54052734375,0.2425999939441681,0,0.0,0.0,,,,,0,,3,,
Raw,23379534,23385314000000,,,-1291005708455579648,0.0,4179.494455456734,-4.060519662682924,12.318966857355072,3035,3,0.0,15,385893685707315,9,35.2,323.2760925292969,0.02250000089406967,0,0.0,0.0,,,,,0,,1,,
Raw,23379535,23385314000000,,,-1291005708455579648,0.0,4179.494455456734,-4.060519662682924,12.318966857355072,3035,4,0.0,15,385893698318820,12,32.3,-196.68673706054688,0.04839999973773956,0,0.0,0.0,,,,,0,,1,,
Raw,23379536,23385314000000,,,-1291005708455579648,0.0,4179.494455456734,-4.060519662682924,12.318966857355072,3035,8,0.0,15,385893696673017,6,38.0,-551.0748291015625,0.03519999980926514,0,0.0,0.0,,,,,0,,1,,
Raw,23379536,23385314000000,,,-1291005708455579648,0.0,4179.494455456734,-4.060519662682924,12.318966857355072,3035,9,0.0,15,385893689603002,12,32.4,-514.5974731445312,0.03490000218153,0,0.0,0.0,,,,,0,,1,,
Raw,23379537,23385314000000,,,-1291005708455579648,0.0,4179.494455456734,-4.060519662682924,12.318966857355072,3035,22,0.0,15,385893684645088,10,34.5,238.0404510498047,0.023099999874830246,0,0.0,0.0,,,,,0,,1,,
Raw,23379538,23385314000000,,,-1291005708455579648,0.0,4179.494455456734,-4.060519662682924,12.318966857355072,3035,27,0.0,15,385893702600824,35,22.8,-172.2538299560547,0.7144999504089355,0,0.0,0.0,,,,,0,,1,,
NMEA,$GPGSV,3,1,12,03,06,239,35,04,49,292,32,08,38,209,38,09,16,314,32*78,1606993875328
NMEA,$GPGSV,3,2,12,11,00,000,34,22,04,219,35,27,76,187,23,16,51,352,*78,1606993875329
NMEA,$GPGSV,3,3,12,18,09,063,,21,00,000,,26,35,036,,31,32,099,*78,1606993875330
NMEA,$GLGSV,2,1,08,86,04,184,22,65,28,285,30,71,08,189,30,72,31,234,35*65,1606993875331
NMEA,$GLGSV,2,2,08,74,35,028,,73,11,075,,84,41,061,,85,42,149,*6D,1606993875331
NMEA,$GAGSV,1,1,0,*74,1606993875331
NMEA,$PQGSV,1,1,03,193,24,171,21,194,60,039,,195,61,115,,0,5*6F,1606993875332
NMEA,$PQGSV,1,1,0,*73,1606993875333
NMEA,$GNGSA,A,3,03,04,08,09,,,,,,,,,1.5,1.3,0.8,1*39,1606993875334
NMEA,$GNGSA,A,3,65,71,72,85,,,,,,,,,1.5,1.3,0.8,2*31,1606993875334
NMEA,$GNVTG,,T,,M,0.0,N,0.0,K,A*3D,1606993875334
NMEA,$GNRMC,111116.00,A,2255.530109,N,12017.686352,E,0.0,,031220,2.8,W,A*1F,1606993875335
NMEA,$GNGGA,111116.00,2255.530109,N,12017.686352,E,1,08,1.3,33.2,M,17.5,M,,*49,1606993875335
Raw,23380585,23386326000000,,,-1291005708454639104,0.0,4168.125335127115,-5.342340053120029,11.631074574336134,3036,22,0.0,207,51076700522033,35,22.5,-825.5796508789062,0.9414999485015869,0,0.0,0.0,,,,,0,,3,,
Raw,23380588,23386326000000,,,-1291005708454639104,0.0,4168.125335127115,-5.342340053120029,11.631074574336134,3036,1,0.0,207,51076707728172,12,32.9,59.01085662841797,0.23189999163150787,0,0.0,0.0,,,,,0,,3,,
Raw,23380590,23386326000000,,,-1291005708454639104,0.0,4168.125335127115,-5.342340053120029,11.631074574336134,3036,7,0.0,207,51076701342929,14,30.0,716.2801513671875,0.2583000063896179,0,0.0,0.0,,,,,0,,3,,
Raw,23380593,23386326000000,,,-1291005708454639104,0.0,4168.125335127115,-5.342340053120029,11.631074574336134,3036,8,0.0,207,51076708678827,11,33.2,509.17742919921875,0.23100000619888306,0,0.0,0.0,,,,,0,,3,,
Raw,23380595,23386326000000,,,-1291005708454639104,0.0,4168.125335127115,-5.342340053120029,11.631074574336134,3036,3,0.0,15,385894696765646,11,33.1,323.8994445800781,0.0430000014603138,0,0.0,0.0,,,,,0,,1,,
Raw,23380597,23386326000000,,,-1291005708454639104,0.0,4168.125335127115,-5.342340053120029,11.631074574336134,3036,4,0.0,15,385894709378889,11,33.3,-195.8614044189453,0.0325000025331974,0,0.0,0.0,,,,,0,,1,,
Raw,23380599,23386326000000,,,-1291005708454639104,0.0,4168.125335127115,-5.342340053120029,11.631074574336134,3036,8,0.0,15,385894707734295,7,37.8,-550.376708984375,0.023099999874830246,0,0.0,0.0,,,,,0,,1,,
Raw,23380602,23386326000000,,,-1291005708454639104,0.0,4168.125335127115,-5.342340053120029,11.631074574336134,3036,9,0.0,15,385894700664137,10,34.2,-513.9185180664062,0.0471000000834465,0,0.0,0.0,,,,,0,,1,,
Raw,23380604,23386326000000,,,-1291005708454639104,0.0,4168.125335127115,-5.342340053120029,11.631074574336134,3036,22,0.0,15,385894695703729,10,34.7,238.61534118652344,0.03959999978542328,0,0.0,0.0,,,,,0,,1,,
Fix,gps,22.925502,120.294774,50.639832,0.000000,4.288000,1606993877000
NMEA,$GPGSV,3,1,11,03,06,239,33,04,49,292,33,08,38,209,38,09,16,314,34*7A,1606993876334
NMEA,$GPGSV,3,2,11,11,00,000,34,22,04,219,35,16,51,352,,18,09,063,*75,1606993876335
NMEA,$GPGSV,3,3,11,21,00,000,,26,35,036,,31,32,099,*4E,1606993876338
NMEA,$GLGSV,2,1,08,86,04,184,23,65,28,285,33,71,08,189,30,72,31,234,33*61,1606993876339
NMEA,$GLGSV,2,2,08,74,35,028,,73,11,075,,84,41,061,,85,42,149,*6D,1606993876340
NMEA,$GAGSV,1,1,0,*74,1606993876342
NMEA,$PQGSV,1,1,02,194,60,039,,195,61,115,,0,5*67,1606993876342
NMEA,$PQGSV,1,1,0,*73,1606993876344
NMEA,$GNGSA,A,3,03,04,08,09,,,,,,,,,1.5,1.3,0.8,1*39,1606993876350
NMEA,$GNGSA,A,3,65,71,72,85,,,,,,,,,1.5,1.3,0.8,2*31,1606993876351
NMEA,$GNVTG,,T,,M,0.0,N,0.0,K,A*3D,1606993876352
NMEA,$GNRMC,111117.00,A,2255.530121,N,12017.686414,E,0.0,,031220,2.8,W,A*11,1606993876352
NMEA,$GNGGA,111117.00,2255.530121,N,12017.686414,E,1,08,1.3,33.2,M,17.5,M,,*47,1606993876353
Raw,23381543,23387321000000,,,-1291005708453751296,0.0,4164.602141827345,-3.8000058199414766,7.203603343346247,3037,22,0.0,207,51077694636481,35,22.0,-826.1884765625,0.9324999451637268,0,0.0,0.0,,,,,0,,3,,
Raw,23381544,23387321000000,,,-1291005708453751296,0.0,4164.602141827345,-3.8000058199414766,7.203603343346247,3037,1,0.0,207,51077701839896,12,32.9,59.06173324584961,0.25290000438690186,0,0.0,0.0,,,,,0,,3,,
Raw,23381544,23387321000000,,,-1291005708453751296,0.0,4164.602141827345,-3.8000058199414766,7.203603343346247,3037,7,0.0,207,51077695452538,14,30.2,716.2545166015625,0.2493000030517578,0,0.0,0.0,,,,,0,,3,,
Raw,23381544,23387321000000,,,-1291005708453751296,0.0,4164.602141827345,-3.8000058199414766,7.203603343346247,3037,8,0.0,207,51077702789143,9,35.3,509.1847229003906,0.24800001084804535,0,0.0,0.0,,,,,0,,3,,
Raw,23381545,23387321000000,,,-1291005708453751296,0.0,4164.602141827345,-3.8000058199414766,7.203603343346247,3037,3,0.0,15,385895690876541,11,33.5,323.7875671386719,0.03400000184774399,0,0.0,0.0,,,,,0,,1,,
Raw,23381545,23387321000000,,,-1291005708453751296,0.0,4164.602141827345,-3.8000058199414766,7.203603343346247,3037,4,0.0,15,385895703491517,12,32.6,-195.7932586669922,0.02590000070631504,0,0.0,0.0,,,,,0,,1,,
Raw,23381546,23387321000000,,,-1291005708453751296,0.0,4164.602141827345,-3.8000058199414766,7.203603343346247,3037,8,0.0,15,385895701848065,6,38.1,-550.4090576171875,0.04270000010728836,0,0.0,0.0,,,,,0,,1,,
Raw,23381547,23387321000000,,,-1291005708453751296,0.0,4164.602141827345,-3.8000058199414766,7.203603343346247,3037,9,0.0,15,385895694777777,11,33.5,-513.9326782226562,0.04000000283122063,0,0.0,0.0,,,,,0,,1,,
Raw,23381547,23387321000000,,,-1291005708453751296,0.0,4164.602141827345,-3.8000058199414766,7.203603343346247,3037,22,0.0,15,385895689814876,9,35.8,238.52452087402344,0.02850000187754631,0,0.0,0.0,,,,,0,,1,,
Fix,gps,22.925502,120.294775,50.597839,0.000000,4.288000,1606993878000
NMEA,$GPGSV,3,1,11,03,06,239,34,04,49,292,33,08,38,209,38,09,16,314,34*7D,1606993877333
NMEA,$GPGSV,3,2,11,11,00,000,34,22,04,219,36,16,51,352,,18,09,063,*76,1606993877333
NMEA,$GPGSV,3,3,11,21,00,000,,26,35,036,,31,32,099,*4E,1606993877334
NMEA,$GLGSV,2,1,08,86,04,184,22,65,28,285,33,71,08,189,30,72,31,234,35*66,1606993877335
NMEA,$GLGSV,2,2,08,74,35,028,,73,11,075,,84,41,061,,85,42,149,*6D,1606993877336
NMEA,$GAGSV,1,1,0,*74,1606993877336
NMEA,$PQGSV,1,1,03,193,24,171,21,194,60,039,,195,61,115,,0,5*6F,1606993877337
NMEA,$PQGSV,1,1,0,*73,1606993877341
NMEA,$GNGSA,A,3,03,04,08,09,,,,,,,,,1.9,1.7,0.8,1*31,1606993877344
NMEA,$GNGSA,A,3,65,71,72,85,,,,,,,,,1.9,1.7,0.8,2*39,1606993877344
NMEA,$GNVTG,,T,,M,0.0,N,0.0,K,A*3D,1606993877346
NMEA,$GNRMC,111118.00,A,2255.530112,N,12017.686473,E,0.0,,031220,2.8,W,A*1F,1606993877346
NMEA,$GNGGA,111118.00,2255.530112,N,12017.686473,E,1,08,1.7,33.1,M,17.5,M,,*4E,1606993877346
Fix,gps,22.925502,120.294775,50.616333,0.000000,4.288000,1606993879000
Raw,23382555,23388313000000,,,-1291005708453197568,0.0,4167.696461081505,-4.30222357181053,8.113631303565876,3038,22,0.0,207,51078686085714,31,23.4,-824.6148681640625,0.8604999780654907,0,0.0,0.0,,,,,0,,3,,
Raw,23382555,23388313000000,,,-1291005708453197568,0.0,4167.696461081505,-4.30222357181053,8.113631303565876,3038,1,0.0,207,51078693285914,12,32.9,59.686012268066406,0.24089999496936798,0,0.0,0.0,,,,,0,,3,,
Raw,23382556,23388313000000,,,-1291005708453197568,0.0,4167.696461081505,-4.30222357181053,8.113631303565876,3038,7,0.0,207,51078686896305,16,29.8,716.6531372070312,0.2387000024318695,0,0.0,0.0,,,,,0,,3,,
Raw,23382556,23388313000000,,,-1291005708453197568,0.0,4167.696461081505,-4.30222357181053,8.113631303565876,3038,8,0.0,207,51078694233655,8,36.0,509.7161865234375,0.23500001430511475,0,0.0,0.0,,,,,0,,3,,
Raw,23382557,23388313000000,,,-1291005708453197568,0.0,4167.696461081505,-4.30222357181053,8.113631303565876,3038,3,0.0,15,385896682321647,10,34.9,324.2825012207031,0.05010000243782997,0,0.0,0.0,,,,,0,,1,,
Raw,23382558,23388313000000,,,-1291005708453197568,0.0,4167.696461081505,-4.30222357181053,8.113631303565876,3038,4,0.0,15,385896694938362,12,32.9,-195.3048095703125,0.04240000247955322,0,0.0,0.0,,,,,0,,1,,
Raw,23382558,23388313000000,,,-1291005708453197568,0.0,4167.696461081505,-4.30222357181053,8.113631303565876,3038,8,0.0,15,385896693296084,6,38.8,-549.8220825195312,0.03070000186562538,0,0.0,0.0,,,,,0,,1,,
Raw,23382559,23388313000000,,,-1291005708453197568,0.0,4167.696461081505,-4.30222357181053,8.113631303565876,3038,9,0.0,15,385896686225697,11,33.9,-513.3574829101562,0.02800000086426735,0,0.0,0.0,,,,,0,,1,,
Raw,23382559,23388313000000,,,-1291005708453197568,0.0,4167.696461081505,-4.30222357181053,8.113631303565876,3038,22,0.0,15,385896681260294,11,33.8,238.95455932617188,0.05050000175833702,0,0.0,0.0,,,,,0,,1,,
NMEA,$GPGSV,3,1,12,03,06,239,35,04,49,292,33,08,38,209,39,09,16,314,34*7E,1606993878335
NMEA,$GPGSV,3,2,12,11,00,000,34,22,04,219,34,16,51,352,,18,09,063,*77,1606993878335
NMEA,$GPGSV,3,3,12,21,00,000,,26,35,036,,27,76,187,,31,32,099,*77,1606993878336
NMEA,$GLGSV,2,1,08,86,04,184,23,65,28,285,33,71,08,189,30,72,31,234,36*64,1606993878337
NMEA,$GLGSV,2,2,08,74,35,028,,73,11,075,,84,41,061,,85,42,149,*6D,1606993878338
NMEA,$GAGSV,1,1,0,*74,1606993878341
NMEA,$PQGSV,1,1,03,193,24,171,23,194,60,039,,195,61,115,,0,5*6D,1606993878341
NMEA,$PQGSV,1,1,0,*73,1606993878343
NMEA,$GNGSA,A,3,03,04,08,09,27,,,,,,,,1.9,1.7,0.8,1*34,1606993878349
NMEA,$GNGSA,A,2,65,71,72,,,,,,,,,,1.9,1.7,0.8,2*35,1606993878349
NMEA,$GNVTG,,T,,M,0.0,N,0.0,K,A*3D,1606993878350
NMEA,$GNRMC,111119.00,A,2255.530109,N,12017.686504,E,0.0,,031220,2.8,W,A*15,1606993878350
NMEA,$GNGGA,111119.00,2255.530109,N,12017.686504,E,1,08,1.7,33.1,M,17.5,M,,*44,1606993878351
Raw,23383605,23389327000000,,,-1291005708452459264,0.0,4167.386796325445,-2.471351462376048,10.964961000602461,3039,22,0.0,207,51079699350187,35,22.7,-824.13720703125,0.9399999976158142,0,0.0,0.0,,,,,0,,3,,
Raw,23383609,23389327000000,,,-1291005708452459264,0.0,4167.386796325445,-2.471351462376048,10.964961000602461,3039,1,0.0,207,51079706547645,12,32.4,60.28420639038086,0.2303999960422516,0,0.0,0.0,,,,,0,,3,,
Raw,23383611,23389327000000,,,-1291005708452459264,0.0,4167.386796325445,-2.471351462376048,10.964961000602461,3039,7,0.0,207,51079700155758,14,30.2,717.11083984375,0.25679999589920044,0,0.0,0.0,,,,,0,,3,,
Raw,23383613,23389327000000,,,-1291005708452459264,0.0,4167.386796325445,-2.471351462376048,10.964961000602461,3039,8,0.0,207,51079707493865,9,35.2,510.28564453125,0.22550000250339508,0,0.0,0.0,,,,,0,,3,,
Raw,23383616,23389327000000,,,-1291005708452459264,0.0,4167.386796325445,-2.471351462376048,10.964961000602461,3039,3,0.0,15,385897695582475,10,34.9,324.7702331542969,0.03959999978542328,0,0.0,0.0,,,,,0,,1,,
Raw,23383618,23389327000000,,,-1291005708452459264,0.0,4167.386796325445,-2.471351462376048,10.964961000602461,3039,4,0.0,15,385897708200961,12,32.3,-194.66903686523438,0.033399999141693115,0,0.0,0.0,,,,,0,,1,,
Raw,23383621,23389327000000,,,-1291005708452459264,0.0,4167.386796325445,-2.471351462376048,10.964961000602461,3039,8,0.0,15,385897706559874,6,38.4,-549.279296875,0.020200001075863838,0,0.0,0.0,,,,,0,,1,,
Raw,23383623,23389327000000,,,-1291005708452459264,0.0,4167.386796325445,-2.471351462376048,10.964961000602461,3039,9,0.0,15,385897699489323,11,33.6,-512.7666015625,0.04750000312924385,0,0.0,0.0,,,,,0,,1,,
Raw,23383627,23389327000000,,,-1291005708452459264,0.0,4167.386796325445,-2.471351462376048,10.964961000602461,3039,22,0.0,15,385897694521404,9,35.2,239.40380859375,0.036000002175569534,0,0.0,0.0,,,,,0,,1,,
Fix,gps,22.925502,120.294775,50.655212,0.000000,4.288000,1606993880000
NMEA,$GPGSV,3,1,11,03,06,239,35,04,49,292,32,08,38,209,38,09,16,314,34*7D,1606993879338
NMEA,$GPGSV,3,2,11,11,00,000,34,22,04,219,35,16,51,352,,18,09,063,*75,1606993879340
NMEA,$GPGSV,3,3,11,21,00,000,,26,35,036,,31,32,099,*4E,1606993879341
NMEA,$GLGSV,2,1,08,86,04,184,23,65,28,285,32,71,08,189,30,72,31,234,35*66,1606993879341
NMEA,$GLGSV,2,2,08,74,35,028,,73,11,075,,84,41,061,,85,42,149,*6D,1606993879342
NMEA,$GAGSV,1,1,0,*74,1606993879343
NMEA,$PQGSV,1,1,02,194,60,039,,195,61,115,,0,5*67,1606993879347
NMEA,$PQGSV,1,1,0,*73,1606993879349
NMEA,$GNGSA,A,3,03,04,08,09,,,,,,,,,1.9,1.7,0.8,1*31,1606993879357
NMEA,$GNGSA,A,2,65,71,72,,,,,,,,,,1.9,1.7,0.8,2*35,1606993879358
NMEA,$GNVTG,,T,,M,0.0,N,0.0,K,A*3D,1606993879359
NMEA,$GNRMC,111120.00,A,2255.530106,N,12017.686510,E,0.0,,031220,2.8,W,A*15,1606993879360
NMEA,$GNGGA,111120.00,2255.530106,N,12017.686510,E,1,07,1.7,33.2,M,17.5,M,,*48,1606993879360
NMEA,$GPGSV,3,1,12,03,06,239,35,04,49,292,33,08,38,209,38,09,16,314,34*7F,1606993880338
NMEA,$GPGSV,3,2,12,11,00,000,34,22,04,219,35,16,51,352,,18,09,063,*76,1606993880339
NMEA,$GPGSV,3,3,12,21,00,000,,26,35,036,,27,76,187,,31,32,099,*77,1606993880340
NMEA,$GLGSV,2,1,08,74,35,028,21,86,04,184,21,65,28,285,31,71,08,189,31*6E,1606993880341
NMEA,$GLGSV,2,2,08,72,31,234,35,73,11,075,,84,41,061,,85,42,149,*66,1606993880341
NMEA,$GAGSV,1,1,0,*74,1606993880348
NMEA,$PQGSV,1,1,03,193,24,171,22,194,60,039,,195,61,115,,0,5*6C,1606993880350
NMEA,$PQGSV,1,1,0,*73,1606993880351
Raw,23384572,23390318000000,,,-1291005708451499008,0.0,4173.613153398037,-0.37862402401949996,7.176608400568122,3040,10,0.0,207,51080698645103,40,21.3,13.403839111328125,0.9984999895095825,0,0.0,0.0,,,,,0,,3,,
Raw,23384573,23390318000000,,,-1291005708451499008,0.0,4173.613153398037,-0.37862402401949996,7.176608400568122,3040,22,0.0,207,51080689392634,40,21.1,-824.9426879882812,0.98499995470047,0,0.0,0.0,,,,,0,,3,,
Raw,23384575,23390318000000,,,-1291005708451499008,0.0,4173.613153398037,-0.37862402401949996,7.176608400568122,3040,1,0.0,207,51080696587113,13,31.1,59.969661712646484,0.24780000746250153,0,0.0,0.0,,,,,0,,3,,
Raw,23384575,23390318000000,,,-1291005708451499008,0.0,4173.613153398037,-0.37862402401949996,7.176608400568122,3040,7,0.0,207,51080690193090,14,30.9,716.6528930664062,0.241799995303154,0,0.0,0.0,,,,,0,,3,,
Raw,23384576,23390318000000,,,-1291005708451499008,0.0,4173.613153398037,-0.37862402401949996,7.176608400568122,3040,8,0.0,207,51080697531777,9,35.4,509.9231872558594,0.24050000309944153,0,0.0,0.0,,,,,0,,3,,
Raw,23384577,23390318000000,,,-1291005708451499008,0.0,4173.613153398037,-0.37862402401949996,7.176608400568122,3040,3,0.0,15,385898685621065,10,34.8,324.3262023925781,0.02459999918937683,0,0.0,0.0,,,,,0,,1,,
Raw,23384577,23390318000000,,,-1291005708451499008,0.0,4173.613153398037,-0.37862402401949996,7.176608400568122,3040,4,0.0,15,385898698241216,12,32.8,-195.00462341308594,0.04839999973773956,0,0.0,0.0,,,,,0,,1,,
Raw,23384578,23390318000000,,,-1291005708451499008,0.0,4173.613153398037,-0.37862402401949996,7.176608400568122,3040,8,0.0,15,385898696601315,6,38.3,-549.6644897460938,0.03519999980926514,0,0.0,0.0,,,,,0,,1,,
Raw,23384578,23390318000000,,,-1291005708451499008,0.0,4173.613153398037,-0.37862402401949996,7.176608400568122,3040,9,0.0,15,385898689530669,11,33.7,-513.193359375,0.0325000025331974,0,0.0,0.0,,,,,0,,1,,
Raw,23384579,23390318000000,,,-1291005708451499008,0.0,4173.613153398037,-0.37862402401949996,7.176608400568122,3040,22,0.0,15,385898684560264,9,35.2,238.87527465820312,0.021000001579523087,0,0.0,0.0,,,,,0,,1,,
Fix,gps,22.925502,120.294775,50.657104,0.000000,4.288000,1606993881000
NMEA,$GNGSA,A,3,03,04,08,09,27,,,,,,,,1.9,1.7,0.8,1*34,1606993880357
NMEA,$GNGSA,A,2,65,71,72,,,,,,,,,,1.9,1.7,0.8,2*35,1606993880358
NMEA,$GNVTG,,T,,M,0.0,N,0.0,K,A*3D,1606993880369
NMEA,$GNRMC,111121.00,A,2255.530104,N,12017.686513,E,0.0,,031220,2.8,W,A*15,1606993880369
NMEA,$GNGGA,111121.00,2255.530104,N,12017.686513,E,1,08,1.7,33.2,M,17.5,M,,*47,1606993880369
Fix,gps,22.925502,120.294775,50.669067,0.000000,5.360000,1606993882000
Raw,23385555,23391332000000,,,-1291005708450622720,0.0,4177.4422861635685,-2.2357590718235714,8.15892879209865,3041,22,0.0,207,51081702519474,27,24.0,-824.1278076171875,0.8044999837875366,0,0.0,0.0,,,,,0,,3,,
Raw,23385556,23391332000000,,,-1291005708450622720,0.0,4177.4422861635685,-2.2357590718235714,8.15892879209865,3041,1,0.0,207,51081709710801,12,32.0,60.81160354614258,0.23489999771118164,0,0.0,0.0,,,,,0,,3,,
Raw,23385557,23391332000000,,,-1291005708450622720,0.0,4177.4422861635685,-2.2357590718235714,8.15892879209865,3041,7,0.0,207,51081703314558,16,29.7,717.2838745117188,0.23420000076293945,0,0.0,0.0,,,,,0,,3,,
Raw,23385557,23391332000000,,,-1291005708450622720,0.0,4177.4422861635685,-2.2357590718235714,8.15892879209865,3041,8,0.0,207,51081710654014,9,35.3,510.701416015625,0.23000000417232513,0,0.0,0.0,,,,,0,,3,,
Raw,23385558,23391332000000,,,-1291005708450622720,0.0,4177.4422861635685,-2.2357590718235714,8.15892879209865,3041,3,0.0,15,385899698743849,10,34.9,324.985595703125,0.04410000145435333,0,0.0,0.0,,,,,0,,1,,
Raw,23385559,23391332000000,,,-1291005708450622720,0.0,4177.4422861635685,-2.2357590718235714,8.15892879209865,3041,4,0.0,15,385899711365806,12,32.2,-194.2007293701172,0.03790000081062317,0,0.0,0.0,,,,,0,,1,,
Raw,23385560,23391332000000,,,-1291005708450622720,0.0,4177.4422861635685,-2.2357590718235714,8.15892879209865,3041,8,0.0,15,385899709727100,6,38.3,-548.8570556640625,0.024700000882148743,0,0.0,0.0,,,,,0,,1,,
Raw,23385561,23391332000000,,,-1291005708450622720,0.0,4177.4422861635685,-2.2357590718235714,8.15892879209865,3041,9,0.0,15,385899702656300,11,33.4,-512.4197387695312,0.02199999988079071,0,0.0,0.0,,,,,0,,1,,
Raw,23385562,23391332000000,,,-1291005708450622720,0.0,4177.4422861635685,-2.2357590718235714,8.15892879209865,3041,22,0.0,15,385899697683356,10,34.7,239.5527801513672,0.04260000213980675,0,0.0,0.0,,,,,0,,1,,
NMEA,$GPGSV,3,1,12,03,06,239,35,04,49,292,32,08,38,209,38,09,16,314,33*79,1606993881339
NMEA,$GPGSV,3,2,12,11,00,000,34,22,04,219,35,16,51,352,,18,09,063,*76,1606993881342
NMEA,$GPGSV,3,3,12,21,00,000,,26,35,036,,27,76,187,,31,32,099,*77,1606993881344
NMEA,$GLGSV,2,1,07,86,04,184,24,65,28,285,32,71,08,189,30,72,31,234,35*6E,1606993881348
NMEA,$GLGSV,2,2,07,73,11,075,,84,41,061,,85,42,149,*5D,1606993881350
NMEA,$GAGSV,1,1,0,*74,1606993881352
NMEA,$PQGSV,1,1,03,193,24,171,24,194,60,039,,195,61,115,,0,5*6A,1606993881352
NMEA,$PQGSV,1,1,0,*73,1606993881353
NMEA,$GNGSA,A,3,03,04,08,09,27,,,,,,,,2.3,2.2,0.9,1*3A,1606993881357
NMEA,$GNGSA,A,2,65,71,72,,,,,,,,,,2.3,2.2,0.9,2*3B,1606993881358
NMEA,$GNVTG,,T,,M,0.0,N,0.0,K,A*3D,1606993881359
NMEA,$GNRMC,111122.00,A,2255.530103,N,12017.686513,E,0.0,,031220,2.8,W,A*11,1606993881360
NMEA,$GNGGA,111122.00,2255.530103,N,12017.686513,E,1,08,2.2,33.2,M,17.5,M,,*45,1606993881361
Raw,23386586,23392324000000,,,-1291005708449990912,0.0,4193.191882222891,0.15629193781355635,10.97814831326882,3042,22,0.0,207,51082693890118,40,21.6,-824.3619384765625,0.9909999966621399,0,0.0,0.0,,,,,0,,3,,
Raw,23386589,23392324000000,,,-1291005708449990912,0.0,4193.191882222891,0.15629193781355635,10.97814831326882,3042,1,0.0,207,51082701078533,12,32.3,60.76555633544922,0.25290000438690186,0,0.0,0.0,,,,,0,,3,,
Raw,23386592,23392324000000,,,-1291005708449990912,0.0,4193.191882222891,0.15629193781355635,10.97814831326882,3042,7,0.0,207,51082694680146,16,29.1,717.0095825195312,0.2506999969482422,0,0.0,0.0,,,,,0,,3,,
Raw,23386594,23392324000000,,,-1291005708449990912,0.0,4193.191882222891,0.15629193781355635,10.97814831326882,3042,8,0.0,207,51082702020271,9,35.7,510.5768127441406,0.24800001084804535,0,0.0,0.0,,,,,0,,3,,
Raw,23386596,23392324000000,,,-1291005708449990912,0.0,4193.191882222891,0.15629193781355635,10.97814831326882,3042,3,0.0,15,385900690110767,9,35.1,324.7398376464844,0.030000001192092896,0,0.0,0.0,,,,,0,,1,,
Raw,23386599,23392324000000,,,-1291005708449990912,0.0,4193.191882222891,0.15629193781355635,10.97814831326882,3042,4,0.0,15,385900702734348,13,31.9,-194.3037109375,0.026799999177455902,0,0.0,0.0,,,,,0,,1,,
Raw,23386602,23392324000000,,,-1291005708449990912,0.0,4193.191882222891,0.15629193781355635,10.97814831326882,3042,8,0.0,15,385900701096862,6,38.5,-549.0013427734375,0.04270000010728836,0,0.0,0.0,,,,,0,,1,,
Raw,23386604,23392324000000,,,-1291005708449990912,0.0,4193.191882222891,0.15629193781355635,10.97814831326882,3042,9,0.0,15,385900694025969,11,33.7,-512.6015625,0.04000000283122063,0,0.0,0.0,,,,,0,,1,,
Raw,23386606,23392324000000,,,-1291005708449990912,0.0,4193.191882222891,0.15629193781355635,10.97814831326882,3042,22,0.0,15,385900689050526,10,34.3,239.26705932617188,0.03060000017285347,0,0.0,0.0,,,,,0,,1,,
Raw,23386608,23392324000000,,,-1291005708449990912,0.0,4193.191882222891,0.15629193781355635,10.97814831326882,3042,27,0.0,15,385900707015790,31,23.3,-169.6658477783203,0.722000002861023,0,0.0,0.0,,,,,0,,1,,
Fix,gps,22.925502,120.294775,50.670837,0.000000,5.360000,1606993883000
NMEA,$GPGSV,3,1,12,03,06,239,35,04,49,292,32,08,38,209,39,09,16,314,34*7F,1606993882336
NMEA,$GPGSV,3,2,12,11,00,000,34,22,04,219,34,27,76,187,23,16,51,352,*79,1606993882336
NMEA,$GPGSV,3,3,12,18,09,063,,21,00,000,,26,35,036,,31,32,099,*78,1606993882337
NMEA,$GLGSV,2,1,08,86,04,184,22,65,28,285,32,71,08,189,29,72,31,234,36*6C,1606993882343
NMEA,$GLGSV,2,2,08,74,35,028,,73,11,075,,84,41,061,,85,42,149,*6D,1606993882344
NMEA,$GAGSV,1,1,0,*74,1606993882345
NMEA,$PQGSV,1,1,03,193,24,171,23,194,60,039,,195,61,115,,0,5*6D,1606993882346
NMEA,$PQGSV,1,1,0,*73,1606993882346
NMEA,$GNGSA,A,3,03,04,08,09,,,,,,,,,1.9,1.7,0.8,1*31,1606993882349
NMEA,$GNGSA,A,2,65,71,72,,,,,,,,,,1.9,1.7,0.8,2*35,1606993882350
NMEA,$GNVTG,,T,,M,0.0,N,0.0,K,A*3D,1606993882351
NMEA,$GNRMC,111123.00,A,2255.530100,N,12017.686512,E,0.0,,031220,2.8,W,A*12,1606993882351
NMEA,$GNGGA,111123.00,2255.530100,N,12017.686512,E,1,07,1.7,33.2,M,17.5,M,,*4F,1606993882352
Fix,gps,22.925502,120.294775,50.671997,0.000000,5.360000,1606993884000
Raw,23387556,23393316000000,,,-1291005708449954560,0.0,4198.202863335609,-0.6481657720181185,11.674473732430203,3043,22,0.0,207,51083685856593,27,24.3,-824.783447265625,0.8090000152587891,0,0.0,0.0,,,,,0,,3,,
Raw,23387557,23393316000000,,,-1291005708449954560,0.0,4198.202863335609,-0.6481657720181185,11.674473732430203,3043,1,0.0,207,51083693042126,13,31.8,60.454105377197266,0.24330000579357147,0,0.0,0.0,,,,,0,,3,,
Raw,23387558,23393316000000,,,-1291005708449954560,0.0,4198.202863335609,-0.6481657720181185,11.674473732430203,3043,7,0.0,207,51083686641525,14,30.2,716.637451171875,0.23579999804496765,0,0.0,0.0,,,,,0,,3,,
Raw,23387558,23393316000000,,,-1291005708449954560,0.0,4198.202863335609,-0.6481657720181185,11.674473732430203,3043,8,0.0,207,51083693982308,9,35.4,510.2002868652344,0.2345000058412552,0,0.0,0.0,,,,,0,,3,,
Raw,23387559,23393316000000,,,-1291005708449954560,0.0,4198.202863335609,-0.6481657720181185,11.674473732430203,3043,3,0.0,15,385901682073431,9,35.4,324.3356628417969,0.04800000041723251,0,0.0,0.0,,,,,0,,1,,
Raw,23387559,23393316000000,,,-1291005708449954560,0.0,4198.202863335609,-0.6481657720181185,11.674473732430203,3043,4,0.0,15,385901694698747,11,33.3,-194.5886993408203,0.04000000283122063,0,0.0,0.0,,,,,0,,1,,
Raw,23387560,23393316000000,,,-1291005708449954560,0.0,4198.202863335609,-0.6481657720181185,11.674473732430203,3043,8,0.0,15,385901693062419,6,38.9,-549.3352661132812,0.03070000186562538,0,0.0,0.0,,,,,0,,1,,
Raw,23387561,23393316000000,,,-1291005708449954560,0.0,4198.202863335609,-0.6481657720181185,11.674473732430203,3043,9,0.0,15,385901685991422,10,34.1,-512.9072265625,0.02459999918937683,0,0.0,0.0,,,,,0,,1,,
Raw,23387561,23393316000000,,,-1291005708449954560,0.0,4198.202863335609,-0.6481657720181185,11.674473732430203,3043,22,0.0,15,385901681013468,9,35.5,238.81288146972656,0.04650000110268593,0,0.0,0.0,,,,,0,,1,,
NMEA,$GPGSV,3,1,11,03,06,239,35,04,49,292,33,08,38,209,39,09,16,314,34*7D,1606993883336
NMEA,$GPGSV,3,2,11,11,00,000,34,22,04,219,36,16,51,352,,18,09,063,*76,1606993883337
NMEA,$GPGSV,3,3,11,21,00,000,,26,35,036,,31,32,099,*4E,1606993883338
NMEA,$GLGSV,2,1,08,86,04,184,24,65,28,285,32,71,08,189,30,72,31,234,35*61,1606993883341
NMEA,$GLGSV,2,2,08,74,35,028,,73,11,075,,84,41,061,,85,42,149,*6D,1606993883341
NMEA,$GAGSV,1,1,0,*74,1606993883347
NMEA,$PQGSV,1,1,02,194,60,039,,195,61,115,,0,5*67,1606993883349
NMEA,$PQGSV,1,1,0,*73,1606993883351
NMEA,$GNGSA,A,3,03,04,08,09,,,,,,,,,1.9,1.7,0.8,1*31,1606993883355
NMEA,$GNGSA,A,2,65,71,72,,,,,,,,,,1.9,1.7,0.8,2*35,1606993883356
NMEA,$GNVTG,,T,,M,0.0,N,0.0,K,A*3D,1606993883357
