# 
# Header Description:
# 
# Version: v2.0.0.1 Platform: 8.0.0 Manufacturer: Sony Model: G8142
# 
# Raw,ElapsedRealtimeMillis,TimeNanos,LeapSecond,TimeUncertaintyNanos,FullBiasNanos,BiasNanos,BiasUncertaintyNanos,DriftNanosPerSecond,DriftUncertaintyNanosPerSecond,HardwareClockDiscontinuityCount,Svid,TimeOffsetNanos,State,ReceivedSvTimeNanos,ReceivedSvTimeUncertaintyNanos,Cn0DbHz,PseudorangeRateMetersPerSecond,PseudorangeRateUncertaintyMetersPerSecond,AccumulatedDeltaRangeState,AccumulatedDeltaRangeMeters,AccumulatedDeltaRangeUncertaintyMeters,CarrierFrequencyHz,CarrierCycles,CarrierPhase,CarrierPhaseUncertainty,MultipathIndicator,SnrInDb,ConstellationType,AgcDb,CarrierFrequencyHz
# 
# Fix,Provider,Latitude,Longitude,Altitude,Speed,Accuracy,(UTC)TimeInMs
# 
# Nav,Svid,Type,Status,MessageId,Sub-messageId,Data(Bytes)
# 
Raw,23810546,23816437000000,,,-1291005708339355136,0.0,4225.912503898144,26.72000218074453,17.472931612601364,3316,1,0.0,207,51506703315261,16,29.4,122.8296127319336,0.26420000195503235,0,0.0,0.0,,,,,0,,3,,
Raw,23810547,23816437000000,,,-1291005708339355136,0.0,4225.912503898144,26.72000218074453,17.472931612601364,3316,8,0.0,207,51506703639803,13,31.0,545.4077758789062,0.2583000063896179,0,0.0,0.0,,,,,0,,3,,
Raw,23810547,23816437000000,,,-1291005708339355136,0.0,4225.912503898144,26.72000218074453,17.472931612601364,3316,3,0.0,15,386324692019138,21,26.0,323.11383056640625,0.11569999903440475,0,0.0,0.0,,,,,0,,1,,
Raw,23810547,23816437000000,,,-1291005708339355136,0.0,4225.912503898144,26.72000218074453,17.472931612601364,3316,4,0.0,15,386324705337615,8,36.1,-139.95083618164062,0.0215000007301569,0,0.0,0.0,,,,,0,,1,,
Raw,23810547,23816437000000,,,-1291005708339355136,0.0,4225.912503898144,26.72000218074453,17.472931612601364,3316,8,0.0,15,386324704213043,8,36.7,-510.1815490722656,0.05000000074505806,0,0.0,0.0,,,,,0,,1,,
Raw,23810547,23816437000000,,,-1291005708339355136,0.0,4225.912503898144,26.72000218074453,17.472931612601364,3316,9,0.0,15,386324697091963,7,37.2,-475.6297302246094,0.038100000470876694,0,0.0,0.0,,,,,0,,1,,
Raw,23810548,23816437000000,,,-1291005708339355136,0.0,4225.912503898144,26.72000218074453,17.472931612601364,3316,21,0.0,15,386324694009884,46,20.6,-547.7507934570312,0.8524999618530273,0,0.0,0.0,,,,,0,,1,,
Raw,23810548,23816437000000,,,-1291005708339355136,0.0,4225.912503898144,26.72000218074453,17.472931612601364,3316,27,0.0,15,386324709581959,31,23.4,-112.09248352050781,0.7249999642372131,0,0.0,0.0,,,,,0,,1,,
Fix,gps,22.925475,120.294645,46.911926,0.000000,4.288000,1606994307000
NMEA,$GPGSV,3,1,12,03,04,236,26,04,51,286,36,08,42,212,37,09,18,313,37*7B,1606994306106
NMEA,$GPGSV,3,2,12,11,00,000,23,16,49,358,21,21,02,187,21,22,02,215,19*7D,1606994306114
NMEA,$GPGSV,3,3,12,26,33,040,11,27,80,187,23,31,30,104,17,18,08,059,*77,1606994306114
NMEA,$GLGSV,2,1,07,74,35,033,14,86,09,182,16,65,27,281,29,85,47,146,12*62,1606994306114
NMEA,$GLGSV,2,2,07,72,28,230,31,73,11,080,,84,40,054,*5B,1606994306115
NMEA,$GAGSV,1,1,0,*74,1606994306118
NMEA,$PQGSV,1,1,03,195,62,112,17,193,23,171,,194,60,039,,0,5*69,1606994306118
NMEA,$PQGSV,1,1,0,*73,1606994306118
NMEA,$GNGSA,A,3,03,04,08,09,16,27,,,,,,,1.4,1.1,0.8,1*38,1606994306119
NMEA,$GNGSA,A,2,65,72,,,,,,,,,,,1.4,1.1,0.8,2*38,1606994306119
NMEA,$GNVTG,,T,,M,0.0,N,0.0,K,A*3D,1606994306119
NMEA,$GNRMC,111827.00,A,2255.528508,N,12017.678685,E,0.0,,031220,2.8,W,A*16,1606994306120
NMEA,$GNGGA,111827.00,2255.528508,N,12017.678685,E,1,08,1.1,29.4,M,17.5,M,,*4F,1606994306120
Fix,gps,22.925475,120.294644,46.912048,0.000000,4.288000,1606994308000
NMEA,$GPGSA,A,1,,,,,,,,,,,,,1.4,1.1,0.8,1*20,1606994307105
NMEA,$GPVTG,,T,,M,0.0,N,0.0,K,A*23,1606994307105
NMEA,$GPRMC,111828.00,A,2255.528474,N,12017.678639,E,0.0,,031220,2.8,W,A*0A,1606994307105
NMEA,$GPGGA,111828.00,2255.528474,N,12017.678639,E,1,00,1.1,29.4,M,17.5,M,,*5B,1606994307105
Raw,23812638,23818107000000,,,-1291005708338970880,0.0,58.12658491777256,19.628035300323585,17.66246404109442,3317,1,0.0,207,51508372930373,12,32.1,124.89370727539062,0.232900008559227,0,0.0,0.0,,,,,0,,3,,
Raw,23812639,23818107000000,,,-1291005708338970880,0.0,58.12658491777256,19.628035300323585,17.66246404109442,3317,7,0.0,207,51508365653049,564,19.1,705.7621459960938,1.784000039100647,0,0.0,0.0,,,,,0,,3,,
Raw,23812639,23818107000000,,,-1291005708338970880,0.0,58.12658491777256,19.628035300323585,17.66246404109442,3317,8,0.0,207,51508373252557,14,30.9,547.1801147460938,0.23330000042915344,0,0.0,0.0,,,,,0,,3,,
Raw,23812640,23818107000000,,,-1291005708338970880,0.0,58.12658491777256,19.628035300323585,17.66246404109442,3317,3,0.0,15,386326361633208,24,25.8,325.3559875488281,0.4072999954223633,0,0.0,0.0,,,,,0,,1,,
Raw,23812640,23818107000000,,,-1291005708338970880,0.0,58.12658491777256,19.628035300323585,17.66246404109442,3317,4,0.0,15,386326374954257,7,37.8,-137.9270782470703,0.026600001379847527,0,0.0,0.0,,,,,0,,1,,
Raw,23812641,23818107000000,,,-1291005708338970880,0.0,58.12658491777256,19.628035300323585,17.66246404109442,3317,8,0.0,15,386326373831738,9,35.3,-508.33660888671875,0.029100000858306885,0,0.0,0.0,,,,,0,,1,,
Raw,23812641,23818107000000,,,-1291005708338970880,0.0,58.12658491777256,19.628035300323585,17.66246404109442,3317,9,0.0,15,386326366710466,9,35.5,-473.76416015625,0.03960000351071358,0,0.0,0.0,,,,,0,,1,,
Raw,23812642,23818107000000,,,-1291005708338970880,0.0,58.12658491777256,19.628035300323585,17.66246404109442,3317,16,0.0,15,386326375306516,564,19.6,228.171630859375,1.6290000677108765,0,0.0,0.0,,,,,0,,1,,
Raw,23812643,23818107000000,,,-1291005708338970880,0.0,58.12658491777256,19.628035300323585,17.66246404109442,3317,27,0.0,15,386326379198514,24,25.9,-109.38211059570312,0.38030001521110535,0,0.0,0.0,,,,,0,,1,,
Raw,23812643,23818107000000,,,-1291005708338970880,0.0,58.12658491777256,19.628035300323585,17.66246404109442,3317,5,0.0,783,386312312648132,11,33.9,11.12868881225586,0.5065000057220459,0,0.0,0.0,,,,,0,,5,,
Raw,23812644,23818107000000,,,-1291005708338970880,0.0,58.12658491777256,19.628035300323585,17.66246404109442,3317,6,0.0,15,386312325602993,55,19.3,154.8318328857422,1.409000039100647,0,0.0,0.0,,,,,0,,5,,
Raw,23812644,23818107000000,,,-1291005708338970880,0.0,58.12658491777256,19.628035300323585,17.66246404109442,3317,7,0.0,15,386312323234049,48,20.7,63.17139434814453,1.3459999561309814,0,0.0,0.0,,,,,0,,5,,
Raw,23812645,23818107000000,,,-1291005708338970880,0.0,58.12658491777256,19.628035300323585,17.66246404109442,3317,9,0.0,15,386312326988527,151,27.5,31.46567153930664,68.36849975585938,0,0.0,0.0,,,,,0,,5,,
Raw,23812646,23818107000000,,,-1291005708338970880,0.0,58.12658491777256,19.628035300323585,17.66246404109442,3317,10,0.0,15,386312320924822,54,19.6,59.24418258666992,1.4014999866485596,0,0.0,0.0,,,,,0,,5,,
Raw,23812646,23818107000000,,,-1291005708338970880,0.0,58.12658491777256,19.628035300323585,17.66246404109442,3317,12,0.0,15,386312369057138,16,29.1,-518.5258178710938,0.46000000834465027,0,0.0,0.0,,,,,0,,5,,
Raw,23812647,23818107000000,,,-1291005708338970880,0.0,58.12658491777256,19.628035300323585,17.66246404109442,3317,14,0.0,15,386312362503325,32,23.7,276.0375671386719,1.0755000114440918,0,0.0,0.0,,,,,0,,5,,
Raw,23812647,23818107000000,,,-1291005708338970880,0.0,58.12658491777256,19.628035300323585,17.66246404109442,3317,16,0.0,15,386312324771296,149,28.7,165.31719970703125,68.36849975585938,0,0.0,0.0,,,,,0,,5,,
Raw,23812648,23818107000000,,,-1291005708338970880,0.0,58.12658491777256,19.628035300323585,17.66246404109442,3317,24,0.0,15,386312366972175,47,29.3,-282.2020263671875,67.70850372314453,0,0.0,0.0,,,,,0,,5,,
Raw,23812648,23818107000000,,,-1291005708338970880,0.0,58.12658491777256,19.628035300323585,17.66246404109442,3317,5,0.0,7183,386326362820894,13,31.9,407.7508850097656,0.025200000032782555,0,0.0,0.0,,,,,0,,6,,
Fix,gps,22.925474,120.294648,46.804016,0.460000,5.360000,1606994309000
NMEA,$GPGSV,3,1,11,03,04,236,26,04,51,286,38,08,42,212,35,09,18,313,36*75,1606994308109
NMEA,$GPGSV,3,2,11,11,00,000,25,16,49,358,20,27,80,187,26,18,08,059,*73,1606994308109
NMEA,$GPGSV,3,3,11,22,02,215,,26,33,040,,31,30,104,*49,1606994308109
NMEA,$GLGSV,2,1,08,65,27,281,32,71,04,187,19,72,28,230,31,74,35,033,*6F,1606994308110
NMEA,$GLGSV,2,2,08,86,09,182,,73,11,080,,84,40,054,,85,47,146,*69,1606994308110
NMEA,$GAGSV,2,1,06,05,43,210,32,02,14,284,,03,37,284,,08,02,322,*64,1606994308110
NMEA,$GAGSV,2,2,06,25,45,330,,36,16,175,*69,1606994308110
NMEA,$PQGSV,1,1,03,193,23,171,,194,60,039,,195,62,112,,0,5*6F,1606994308110
NMEA,$PQGSV,4,1,16,05,16,255,34,06,63,184,19,07,61,333,21,09,72,271,28,0,4*6A,1606994308111
NMEA,$PQGSV,4,2,16,10,48,289,20,12,40,181,29,14,21,254,24,16,66,189,29,0,4*6D,1606994308111
NMEA,$PQGSV,4,3,16,24,38,327,29,01,52,129,,02,40,240,,03,58,202,,0,4*69,1606994308111
NMEA,$PQGSV,4,4,16,04,37,113,,08,08,168,,13,00,000,,21,05,180,,0,4*6D,1606994308111
NMEA,$GNGSA,A,3,03,04,08,09,16,27,,,,,,,1.4,1.1,0.8,1*38,1606994308112
NMEA,$GNGSA,A,2,65,71,72,,,,,,,,,,1.4,1.1,0.8,2*3E,1606994308112
NMEA,$GNGSA,A,2,05,,,,,,,,,,,,1.4,1.1,0.8,3*3A,1606994308112
NMEA,$PQGSA,A,2,12,14,,,,,,,,,,,1.4,1.1,0.8,4*36,1606994308113
NMEA,$GNVTG,82.0,T,82.0,M,0.9,N,1.7,K,A*32,1606994308113
NMEA,$GNRMC,111829.00,A,2255.528426,N,12017.678883,E,0.9,82.0,031220,2.8,W,A*00,1606994308113
NMEA,$GNGGA,111829.00,2255.528426,N,12017.678883,E,1,12,1.1,29.3,M,17.5,M,,*48,1606994308113
Raw,23813564,23819107000000,,,-1291005708338970880,0.0,54.28821168607101,17.024381658384215,16.676264279693765,3317,22,0.0,207,51509367048705,1000,15.7,-826.413330078125,2.877000093460083,0,0.0,0.0,,,,,0,,3,,
Raw,23813564,23819107000000,,,-1291005708338970880,0.0,54.28821168607101,17.024381658384215,16.676264279693765,3317,1,0.0,207,51509372929949,13,31.5,122.99664306640625,0.24320000410079956,0,0.0,0.0,,,,,0,,3,,
Raw,23813565,23819107000000,,,-1291005708338970880,0.0,54.28821168607101,17.024381658384215,16.676264279693765,3317,7,0.0,207,51509365650666,569,19.2,705.0336303710938,2.5340001583099365,0,0.0,0.0,,,,,0,,3,,
Raw,23813565,23819107000000,,,-1291005708338970880,0.0,54.28821168607101,17.024381658384215,16.676264279693765,3317,8,0.0,207,51509373250780,12,32.8,545.2125244140625,0.24340000748634338,0,0.0,0.0,,,,,0,,3,,
Raw,23813566,23819107000000,,,-1291005708338970880,0.0,54.28821168607101,17.024381658384215,16.676264279693765,3317,3,0.0,15,386327361632138,31,23.5,322.4716491699219,0.6679999828338623,0,0.0,0.0,,,,,0,,1,,
Raw,23813566,23819107000000,,,-1291005708338970880,0.0,54.28821168607101,17.024381658384215,16.676264279693765,3317,4,0.0,15,386327374954726,7,37.2,-139.85205078125,0.041600000113248825,0,0.0,0.0,,,,,0,,1,,
Raw,23813567,23819107000000,,,-1291005708338970880,0.0,54.28821168607101,17.024381658384215,16.676264279693765,3317,8,0.0,15,386327373833433,9,35.2,-510.3087158203125,0.04110000282526016,0,0.0,0.0,,,,,0,,1,,
Raw,23813568,23819107000000,,,-1291005708338970880,0.0,54.28821168607101,17.024381658384215,16.676264279693765,3317,9,0.0,15,386327366712060,8,36.6,-475.69769287109375,0.03020000085234642,0,0.0,0.0,,,,,0,,1,,
Raw,23813568,23819107000000,,,-1291005708338970880,0.0,54.28821168607101,17.024381658384215,16.676264279693765,3317,16,0.0,15,386327375305705,569,19.8,227.61978149414062,2.378999948501587,0,0.0,0.0,,,,,0,,1,,
Raw,23813569,23819107000000,,,-1291005708338970880,0.0,54.28821168607101,17.024381658384215,16.676264279693765,3317,27,0.0,15,386327379198862,21,26.9,-111.41694641113281,0.5550000071525574,0,0.0,0.0,,,,,0,,1,,
Raw,23813569,23819107000000,,,-1291005708338970880,0.0,54.28821168607101,17.024381658384215,16.676264279693765,3317,3,0.0,783,386313324280732,25,25.9,-1.133033037185669,1.0184999704360962,0,0.0,0.0,,,,,0,,5,,
Raw,23813570,23819107000000,,,-1291005708338970880,0.0,54.28821168607101,17.024381658384215,16.676264279693765,3317,5,0.0,783,386313312648102,11,33.2,10.773415565490723,0.3135000169277191,0,0.0,0.0,,,,,0,,5,,
Raw,23813570,23819107000000,,,-1291005708338970880,0.0,54.28821168607101,17.024381658384215,16.676264279693765,3317,6,0.0,15,386313325602458,46,20.8,151.69200134277344,0.9889999628067017,0,0.0,0.0,,,,,0,,5,,
Raw,23813571,23819107000000,,,-1291005708338970880,0.0,54.28821168607101,17.024381658384215,16.676264279693765,3317,7,0.0,15,386313323233884,61,18.8,62.28800964355469,1.1059999465942383,0,0.0,0.0,,,,,0,,5,,
Raw,23813572,23819107000000,,,-1291005708338970880,0.0,54.28821168607101,17.024381658384215,16.676264279693765,3317,9,0.0,15,386313326988422,387,27.5,31.46567153930664,69.86849975585938,0,0.0,0.0,,,,,0,,5,,
Raw,23813572,23819107000000,,,-1291005708338970880,0.0,54.28821168607101,17.024381658384215,16.676264279693765,3317,10,0.0,15,386313320924656,81,16.7,58.3800048828125,1.3314999341964722,0,0.0,0.0,,,,,0,,5,,
Raw,23813573,23819107000000,,,-1291005708338970880,0.0,54.28821168607101,17.024381658384215,16.676264279693765,3317,12,0.0,15,386313369058869,14,30.6,-520.2061767578125,0.3799999952316284,0,0.0,0.0,,,,,0,,5,,
Raw,23813573,23819107000000,,,-1291005708338970880,0.0,54.28821168607101,17.024381658384215,16.676264279693765,3317,14,0.0,15,386313362502384,27,24.1,274.6836853027344,0.5795000195503235,0,0.0,0.0,,,,,0,,5,,
Raw,23813574,23819107000000,,,-1291005708338970880,0.0,54.28821168607101,17.024381658384215,16.676264279693765,3317,16,0.0,15,386313324770744,385,28.7,165.31719970703125,69.86849975585938,0,0.0,0.0,,,,,0,,5,,
Raw,23813575,23819107000000,,,-1291005708338970880,0.0,54.28821168607101,17.024381658384215,16.676264279693765,3317,24,0.0,15,386313366973117,279,29.3,-282.2020263671875,69.20850372314453,0,0.0,0.0,,,,,0,,5,,
Raw,23813576,23819107000000,,,-1291005708338970880,0.0,54.28821168607101,17.024381658384215,16.676264279693765,3317,5,0.0,7183,386327362819542,12,32.2,406.476806640625,0.3135000169277191,0,0.0,0.0,,,,,0,,6,,
Fix,gps,22.925472,120.294647,46.683960,0.000000,4.288000,1606994310000
NMEA,$GPGSV,3,1,11,03,04,236,24,04,51,286,37,08,42,212,35,09,18,313,37*79,1606994309107
NMEA,$GPGSV,3,2,11,11,00,000,23,16,49,358,20,27,80,187,27,18,08,059,*74,1606994309109
NMEA,$GPGSV,3,3,11,22,02,215,,26,33,040,,31,30,104,*49,1606994309109
NMEA,$GLGSV,2,1,08,86,09,182,16,65,27,281,32,71,04,187,19,72,28,230,33*63,1606994309109
NMEA,$GLGSV,2,2,08,74,35,033,,73,11,080,,84,40,054,,85,47,146,*60,1606994309110
NMEA,$GAGSV,2,1,06,05,43,210,32,02,14,284,,03,37,284,,08,02,322,*64,1606994309110
NMEA,$GAGSV,2,2,06,25,45,330,,36,16,175,*69,1606994309110
NMEA,$PQGSV,1,1,03,195,62,112,17,193,23,171,,194,60,039,,0,5*69,1606994309112
NMEA,$PQGSV,4,1,16,03,58,202,26,05,16,255,33,06,63,184,21,07,61,333,19,0,4*65,1606994309112
NMEA,$PQGSV,4,2,16,09,72,271,28,10,48,289,17,12,40,181,31,14,21,254,24,0,4*6E,1606994309112
NMEA,$PQGSV,4,3,16,16,66,189,29,24,38,327,29,01,52,129,,02,40,240,,0,4*6B,1606994309112
NMEA,$PQGSV,4,4,16,04,37,113,,08,08,168,,13,00,000,,21,05,180,,0,4*6D,1606994309113
NMEA,$GNGSA,A,3,03,04,08,09,16,27,,,,,,,1.4,1.1,0.8,1*38,1606994309114
NMEA,$GNGSA,A,2,65,71,72,,,,,,,,,,1.4,1.1,0.8,2*3E,1606994309114
NMEA,$GNGSA,A,2,05,,,,,,,,,,,,1.4,1.1,0.8,3*3A,1606994309114
NMEA,$PQGSA,A,2,12,14,,,,,,,,,,,1.4,1.1,0.8,4*36,1606994309114
NMEA,$GNVTG,,T,,M,0.0,N,0.0,K,A*3D,1606994309114
NMEA,$GNRMC,111830.00,A,2255.528300,N,12017.678795,E,0.0,,031220,2.8,W,A*1E,1606994309115
NMEA,$GNGGA,111830.00,2255.528300,N,12017.678795,E,1,12,1.1,29.2,M,17.5,M,,*4A,1606994309115
Fix,gps,22.925470,120.294646,46.110779,0.000000,4.288000,1606994311000
NMEA,$GPGSV,3,1,12,03,04,236,27,04,51,286,38,08,42,212,37,09,18,313,35*76,1606994310107
NMEA,$GPGSV,3,2,12,11,00,000,25,16,49,358,19,27,80,187,30,18,08,059,*7D,1606994310107
NMEA,$GPGSV,3,3,12,21,02,187,,22,02,215,,26,33,040,,31,30,104,*75,1606994310109
NMEA,$GLGSV,2,1,08,86,09,182,15,65,27,281,31,71,04,187,20,72,28,230,32*68,1606994310109
NMEA,$GLGSV,2,2,08,74,35,033,,73,11,080,,84,40,054,,85,47,146,*60,1606994310110
NMEA,$GAGSV,2,1,06,05,43,210,35,02,14,284,,03,37,284,,08,02,322,*63,1606994310110
Raw,23814567,23820107000000,,,-1291005708338970880,0.0,48.80091000813991,11.863498773064066,16.30598884374182,3317,22,0.0,207,51510367051439,1160,14.9,-826.5911865234375,3.7270002365112305,0,0.0,0.0,,,,,0,,3,,
Raw,23814568,23820107000000,,,-1291005708338970880,0.0,48.80091000813991,11.863498773064066,16.30598884374182,3317,1,0.0,207,51510372929508,13,31.4,120.75712585449219,0.24320000410079956,0,0.0,0.0,,,,,0,,3,,
Raw,23814569,23820107000000,,,-1291005708338970880,0.0,48.80091000813991,11.863498773064066,16.30598884374182,3317,7,0.0,207,51510365648352,577,19.5,704.136962890625,3.2840001583099365,0,0.0,0.0,,,,,0,,3,,
Raw,23814570,23820107000000,,,-1291005708338970880,0.0,48.80091000813991,11.863498773064066,16.30598884374182,3317,8,0.0,207,51510373248983,12,32.0,542.88671875,0.24340000748634338,0,0.0,0.0,,,,,0,,3,,
Raw,23814571,23820107000000,,,-1291005708338970880,0.0,48.80091000813991,11.863498773064066,16.30598884374182,3317,3,0.0,15,386328361630966,21,26.9,320.3448486328125,0.11270000040531158,0,0.0,0.0,,,,,0,,1,,
Raw,23814571,23820107000000,,,-1291005708338970880,0.0,48.80091000813991,11.863498773064066,16.30598884374182,3317,4,0.0,15,386328374955193,7,37.5,-142.11224365234375,0.041600000113248825,0,0.0,0.0,,,,,0,,1,,
Raw,23814572,23820107000000,,,-1291005708338970880,0.0,48.80091000813991,11.863498773064066,16.30598884374182,3317,8,0.0,15,386328373835139,7,37.0,-512.5680541992188,0.04010000079870224,0,0.0,0.0,,,,,0,,1,,
Raw,23814572,23820107000000,,,-1291005708338970880,0.0,48.80091000813991,11.863498773064066,16.30598884374182,3317,9,0.0,15,386328366713659,10,34.9,-478.0075378417969,0.03110000118613243,0,0.0,0.0,,,,,0,,1,,
Raw,23814573,23820107000000,,,-1291005708338970880,0.0,48.80091000813991,11.863498773064066,16.30598884374182,3317,16,0.0,15,386328375304952,663,19.3,226.50656127929688,3.2090001106262207,0,0.0,0.0,,,,,0,,1,,
Raw,23814574,23820107000000,,,-1291005708338970880,0.0,48.80091000813991,11.863498773064066,16.30598884374182,3317,27,0.0,15,386328379199176,16,29.9,-113.8959732055664,0.0552000030875206,0,0.0,0.0,,,,,0,,1,,
Raw,23814574,23820107000000,,,-1291005708338970880,0.0,48.80091000813991,11.863498773064066,16.30598884374182,3317,3,0.0,783,386314324280725,15,30.1,-3.6295461654663086,0.6184999942779541,0,0.0,0.0,,,,,0,,5,,
Raw,23814575,23820107000000,,,-1291005708338970880,0.0,48.80091000813991,11.863498773064066,16.30598884374182,3317,5,0.0,783,386314312648092,13,31.5,4.781783103942871,0.3634999990463257,0,0.0,0.0,,,,,0,,5,,
Raw,23814576,23820107000000,,,-1291005708338970880,0.0,48.80091000813991,11.863498773064066,16.30598884374182,3317,6,0.0,15,386314325601971,24,25.2,149.112060546875,0.38929998874664307,0,0.0,0.0,,,,,0,,5,,
Raw,23814576,23820107000000,,,-1291005708338970880,0.0,48.80091000813991,11.863498773064066,16.30598884374182,3317,7,0.0,15,386314323233674,46,20.6,58.984928131103516,0.7910000085830688,0,0.0,0.0,,,,,0,,5,,
Raw,23814577,23820107000000,,,-1291005708338970880,0.0,48.80091000813991,11.863498773064066,16.30598884374182,3317,9,0.0,15,386314326988292,14,31.0,29.170801162719727,0.7894999980926514,0,0.0,0.0,,,,,0,,5,,
Raw,23814578,23820107000000,,,-1291005708338970880,0.0,48.80091000813991,11.863498773064066,16.30598884374182,3317,10,0.0,15,386314320924449,27,24.5,54.9136962890625,0.5764999985694885,0,0.0,0.0,,,,,0,,5,,
Raw,23814578,23820107000000,,,-1291005708338970880,0.0,48.80091000813991,11.863498773064066,16.30598884374182,3317,12,0.0,15,386314369060623,14,30.5,-522.8148193359375,0.03930000215768814,0,0.0,0.0,,,,,0,,5,,
Raw,23814579,23820107000000,,,-1291005708338970880,0.0,48.80091000813991,11.863498773064066,16.30598884374182,3317,14,0.0,15,386314362501425,11,33.0,272.35357666015625,0.02590000070631504,0,0.0,0.0,,,,,0,,5,,
Raw,23814580,23820107000000,,,-1291005708338970880,0.0,48.80091000813991,11.863498773064066,16.30598884374182,3317,16,0.0,15,386314324770222,15,30.5,162.9359130859375,0.8224999904632568,0,0.0,0.0,,,,,0,,5,,
Raw,23814581,23820107000000,,,-1291005708338970880,0.0,48.80091000813991,11.863498773064066,16.30598884374182,3317,24,0.0,15,386314366974022,47,20.7,-283.9975891113281,1.2395000457763672,0,0.0,0.0,,,,,0,,5,,
Raw,23814581,23820107000000,,,-1291005708338970880,0.0,48.80091000813991,11.863498773064066,16.30598884374182,3317,5,0.0,7183,386328362818189,10,34.5,404.0600891113281,0.273499995470047,0,0.0,0.0,,,,,0,,6,,
NMEA,$GAGSV,2,2,06,25,45,330,,36,16,175,*69,1606994310110
NMEA,$PQGSV,1,1,03,195,62,112,18,193,23,171,,194,60,039,,0,5*66,1606994310111
NMEA,$PQGSV,4,1,16,03,58,202,30,05,16,255,32,06,63,184,25,07,61,333,21,0,4*6C,1606994310111
NMEA,$PQGSV,4,2,16,09,72,271,31,10,48,289,25,12,40,181,31,14,21,254,33,0,4*61,1606994310112
NMEA,$PQGSV,4,3,16,16,66,189,31,24,38,327,21,01,52,129,,02,40,240,,0,4*6A,1606994310113
NMEA,$PQGSV,4,4,16,04,37,113,,08,08,168,,13,00,000,,21,05,180,,0,4*6D,1606994310113
NMEA,$GNGSA,A,3,03,04,08,09,16,27,,,,,,,1.4,1.1,0.8,1*38,1606994310114
NMEA,$GNGSA,A,2,65,71,72,,,,,,,,,,1.4,1.1,0.8,2*3E,1606994310114
NMEA,$GNGSA,A,2,05,,,,,,,,,,,,1.4,1.1,0.8,3*3A,1606994310115
NMEA,$PQGSA,A,2,12,14,,,,,,,,,,,1.4,1.1,0.8,4*36,1606994310115
NMEA,$GNVTG,,T,,M,0.0,N,0.0,K,A*3D,1606994310115
NMEA,$GNRMC,111831.00,A,2255.528207,N,12017.678783,E,0.0,,031220,2.8,W,A*1E,1606994310115
NMEA,$GNGGA,111831.00,2255.528207,N,12017.678783,E,1,12,1.1,28.6,M,17.5,M,,*4F,1606994310115
Fix,gps,22.925469,120.294646,45.834534,0.000000,4.288000,1606994312000
Raw,23815687,23821107000000,,,-1291005708338970880,0.0,45.26600969256833,4.050505512333461,13.90633057011883,3317,22,0.0,207,51511367054261,1177,14.2,-826.6942749023438,4.8520002365112305,0,0.0,0.0,,,,,0,,3,,
Raw,23815688,23821107000000,,,-1291005708338970880,0.0,45.26600969256833,4.050505512333461,13.90633057011883,3317,1,0.0,207,51511372929150,10,34.0,119.3203353881836,0.24010001122951508,0,0.0,0.0,,,,,0,,3,,
Raw,23815689,23821107000000,,,-1291005708338970880,0.0,45.26600969256833,4.050505512333461,13.90633057011883,3317,21,0.0,207,51511377699306,1019,15.6,-531.8711547851562,4.392000198364258,0,0.0,0.0,,,,,0,,3,,
Raw,23815689,23821107000000,,,-1291005708338970880,0.0,45.26600969256833,4.050505512333461,13.90633057011883,3317,7,0.0,207,51511365646270,37,22.7,694.8245239257812,1.5160000324249268,0,0.0,0.0,,,,,0,,3,,
Raw,23815690,23821107000000,,,-1291005708338970880,0.0,45.26600969256833,4.050505512333461,13.90633057011883,3317,8,0.0,207,51511373247137,16,29.7,541.4209594726562,0.24619999527931213,0,0.0,0.0,,,,,0,,3,,
Raw,23815691,23821107000000,,,-1291005708338970880,0.0,45.26600969256833,4.050505512333461,13.90633057011883,3317,3,0.0,15,386329361629922,19,27.5,318.85528564453125,0.04280000180006027,0,0.0,0.0,,,,,0,,1,,
Raw,23815692,23821107000000,,,-1291005708338970880,0.0,45.26600969256833,4.050505512333461,13.90633057011883,3317,4,0.0,15,386329374955663,7,37.3,-143.55540466308594,0.041600000113248825,0,0.0,0.0,,,,,0,,1,,
Raw,23815692,23821107000000,,,-1291005708338970880,0.0,45.26600969256833,4.050505512333461,13.90633057011883,3317,8,0.0,15,386329373836843,6,38.2,-514.0484619140625,0.03959999978542328,0,0.0,0.0,,,,,0,,1,,
Raw,23815693,23821107000000,,,-1291005708338970880,0.0,45.26600969256833,4.050505512333461,13.90633057011883,3317,9,0.0,15,386329366715243,10,34.8,-479.4824523925781,0.03110000118613243,0,0.0,0.0,,,,,0,,1,,
Raw,23815693,23821107000000,,,-1291005708338970880,0.0,45.26600969256833,4.050505512333461,13.90633057011883,3317,16,0.0,15,386329375304153,28,24.6,223.6236114501953,1.1759999990463257,0,0.0,0.0,,,,,0,,1,,
Raw,23815694,23821107000000,,,-1291005708338970880,0.0,45.26600969256833,4.050505512333461,13.90633057011883,3317,22,0.0,15,386329360701330,566,19.6,221.86338806152344,1.9665000438690186,0,0.0,0.0,,,,,0,,1,,
Raw,23815695,23821107000000,,,-1291005708338970880,0.0,45.26600969256833,4.050505512333461,13.90633057011883,3317,27,0.0,15,386329379199559,17,28.5,-115.3510971069336,0.06180000305175781,0,0.0,0.0,,,,,0,,1,,
Raw,23815695,23821107000000,,,-1291005708338970880,0.0,45.26600969256833,4.050505512333461,13.90633057011883,3317,2,0.0,783,386315320914611,13,31.0,0.5089046955108643,0.6815000176429749,0,0.0,0.0,,,,,0,,5,,
Raw,23815696,23821107000000,,,-1291005708338970880,0.0,45.26600969256833,4.050505512333461,13.90633057011883,3317,3,0.0,783,386315324280736,17,28.9,-3.917605400085449,0.41350001096725464,0,0.0,0.0,,,,,0,,5,,
Raw,23815697,23821107000000,,,-1291005708338970880,0.0,45.26600969256833,4.050505512333461,13.90633057011883,3317,5,0.0,783,386315312648074,14,30.7,1.1138291358947754,0.3935000002384186,0,0.0,0.0,,,,,0,,5,,
Raw,23815698,23821107000000,,,-1291005708338970880,0.0,45.26600969256833,4.050505512333461,13.90633057011883,3317,6,0.0,15,386315325601489,24,25.8,147.51974487304688,0.38929998874664307,0,0.0,0.0,,,,,0,,5,,
Raw,23815698,23821107000000,,,-1291005708338970880,0.0,45.26600969256833,4.050505512333461,13.90633057011883,3317,7,0.0,15,386315323233485,46,20.7,57.938316345214844,0.7910000085830688,0,0.0,0.0,,,,,0,,5,,
Raw,23815699,23821107000000,,,-1291005708338970880,0.0,45.26600969256833,4.050505512333461,13.90633057011883,3317,9,0.0,15,386315326988184,13,31.6,27.227256774902344,0.03420000150799751,0,0.0,0.0,,,,,0,,5,,
Raw,23815700,23821107000000,,,-1291005708338970880,0.0,45.26600969256833,4.050505512333461,13.90633057011883,3317,10,0.0,15,386315320924259,35,22.7,53.94388961791992,0.6664999723434448,0,0.0,0.0,,,,,0,,5,,
Raw,23815701,23821107000000,,,-1291005708338970880,0.0,45.26600969256833,4.050505512333461,13.90633057011883,3317,12,0.0,15,386315369062353,16,29.9,-524.3394165039062,0.04020000249147415,0,0.0,0.0,,,,,0,,5,,
Raw,23815702,23821107000000,,,-1291005708338970880,0.0,45.26600969256833,4.050505512333461,13.90633057011883,3317,14,0.0,15,386315362500528,14,30.5,271.03533935546875,0.028800001367926598,0,0.0,0.0,,,,,0,,5,,
Raw,23815703,23821107000000,,,-1291005708338970880,0.0,45.26600969256833,4.050505512333461,13.90633057011883,3317,16,0.0,15,386315324769678,14,30.3,161.03616333007812,0.03180000185966492,0,0.0,0.0,,,,,0,,5,,
Raw,23815704,23821107000000,,,-1291005708338970880,0.0,45.26600969256833,4.050505512333461,13.90633057011883,3317,24,0.0,15,386315366975022,53,19.0,-286.2540588378906,0.8554999828338623,0,0.0,0.0,,,,,0,,5,,
Raw,23815706,23821107000000,,,-1291005708338970880,0.0,45.26600969256833,4.050505512333461,13.90633057011883,3317,5,0.0,7183,386329362816843,9,35.9,402.49969482421875,0.25349998474121094,0,0.0,0.0,,,,,0,,6,,
NMEA,$GPGSV,3,1,12,03,04,236,28,04,51,286,37,08,42,212,38,09,18,313,35*79,1606994311105
NMEA,$GPGSV,3,2,12,11,00,000,23,16,49,358,25,22,02,215,20,27,80,187,29*77,1606994311105
NMEA,$GPGSV,3,3,12,18,08,059,,21,02,187,,26,33,040,,31,30,104,*7C,1606994311105
NMEA,$GLGSV,2,1,08,86,09,182,14,65,27,281,34,85,47,146,16,71,04,187,23*6A,1606994311105
NMEA,$GLGSV,2,2,08,72,28,230,30,74,35,033,,73,11,080,,84,40,054,*60,1606994311105
NMEA,$GAGSV,2,1,06,05,43,210,36,02,14,284,,03,37,284,,08,02,322,*60,1606994311105
NMEA,$GAGSV,2,2,06,25,45,330,,36,16,175,*69,1606994311106
NMEA,$PQGSV,1,1,03,195,62,112,17,193,23,171,,194,60,039,,0,5*69,1606994311106
NMEA,$PQGSV,4,1,16,02,40,240,31,03,58,202,29,05,16,255,31,06,63,184,26,0,4*66,1606994311106
NMEA,$PQGSV,4,2,16,07,61,333,21,09,72,271,32,10,48,289,23,12,40,181,30,0,4*60,1606994311106
NMEA,$PQGSV,4,3,16,14,21,254,31,16,66,189,30,24,38,327,19,01,52,129,,0,4*67,1606994311106
NMEA,$PQGSV,4,4,16,04,37,113,,08,08,168,,13,00,000,,21,05,180,,0,4*6D,1606994311106
NMEA,$GNGSA,A,3,03,04,08,09,16,27,,,,,,,1.4,1.1,0.8,1*38,1606994311107
NMEA,$GNGSA,A,2,65,71,72,,,,,,,,,,1.4,1.1,0.8,2*3E,1606994311107
NMEA,$GNGSA,A,2,05,,,,,,,,,,,,1.4,1.1,0.8,3*3A,1606994311107
NMEA,$PQGSA,A,2,12,14,,,,,,,,,,,1.4,1.1,0.8,4*36,1606994311107
NMEA,$GNVTG,,T,,M,0.0,N,0.0,K,A*3D,1606994311107
NMEA,$GNRMC,111832.00,A,2255.528145,N,12017.678743,E,0.0,,031220,2.8,W,A*14,1606994311107
NMEA,$GNGGA,111832.00,2255.528145,N,12017.678743,E,1,12,1.1,28.4,M,17.5,M,,*47,1606994311107
Fix,gps,22.925466,120.294640,46.655212,0.000000,4.288000,1606994313000
NMEA,$GPGSV,3,1,12,03,04,236,27,04,51,286,38,08,42,212,39,09,18,313,36*7B,1606994312107
NMEA,$GPGSV,3,2,12,11,00,000,23,16,49,358,23,21,02,187,24,22,02,215,23*73,1606994312108
Raw,23816542,23822422000000,,,-1291005708338652672,0.0,4111.8199005723,-4.871036377838039,7.199696138718951,3318,1,0.0,207,51512687610361,11,33.1,120.12026977539062,0.22949999570846558,0,0.0,0.0,,,,,0,,3,,
Raw,23816543,23822422000000,,,-1291005708338652672,0.0,4111.8199005723,-4.871036377838039,7.199696138718951,3318,7,0.0,207,51512680324773,17,28.4,700.655517578125,0.27079999446868896,0,0.0,0.0,,,,,0,,3,,
Raw,23816544,23822422000000,,,-1291005708338652672,0.0,4111.8199005723,-4.871036377838039,7.199696138718951,3318,8,0.0,207,51512687926517,11,33.6,542.13671875,0.22949999570846558,0,0.0,0.0,,,,,0,,3,,
Raw,23816544,23822422000000,,,-1291005708338652672,0.0,4111.8199005723,-4.871036377838039,7.199696138718951,3318,3,0.0,15,386330676310180,19,27.1,319.40045166015625,0.08760000020265579,0,0.0,0.0,,,,,0,,1,,
Raw,23816545,23822422000000,,,-1291005708338652672,0.0,4111.8199005723,-4.871036377838039,7.199696138718951,3318,4,0.0,15,386330689638013,7,37.9,-142.76527404785156,0.026100000366568565,0,0.0,0.0,,,,,0,,1,,
Raw,23816546,23822422000000,,,-1291005708338652672,0.0,4111.8199005723,-4.871036377838039,7.199696138718951,3318,8,0.0,15,386330688520814,6,39.3,-513.3444213867188,0.022300001233816147,0,0.0,0.0,,,,,0,,1,,
Raw,23816546,23822422000000,,,-1291005708338652672,0.0,4111.8199005723,-4.871036377838039,7.199696138718951,3318,9,0.0,15,386330681399037,8,36.0,-478.783203125,0.045500002801418304,0,0.0,0.0,,,,,0,,1,,
Raw,23816547,23822422000000,,,-1291005708338652672,0.0,4111.8199005723,-4.871036377838039,7.199696138718951,3318,16,0.0,15,386330689984838,31,23.3,223.12884521484375,0.7249999642372131,0,0.0,0.0,,,,,0,,1,,
Raw,23816547,23822422000000,,,-1291005708338652672,0.0,4111.8199005723,-4.871036377838039,7.199696138718951,3318,21,0.0,15,386330678318495,31,23.9,-552.0990600585938,0.6784999966621399,0,0.0,0.0,,,,,0,,1,,
Raw,23816548,23822422000000,,,-1291005708338652672,0.0,4111.8199005723,-4.871036377838039,7.199696138718951,3318,22,0.0,15,386330675381963,31,23.1,221.8348388671875,0.7339999675750732,0,0.0,0.0,,,,,0,,1,,
Raw,23816548,23822422000000,,,-1291005708338652672,0.0,4111.8199005723,-4.871036377838039,7.199696138718951,3318,27,0.0,15,386330693881776,12,32.4,-114.58110046386719,0.04089999943971634,0,0.0,0.0,,,,,0,,1,,
NMEA,$GPGSV,3,3,12,27,80,187,32,18,08,059,,26,33,040,,31,30,104,*71,1606994312108
NMEA,$GLGSV,2,1,08,86,09,182,14,65,27,281,33,85,47,146,16,71,04,187,28*66,1606994312110
NMEA,$GLGSV,2,2,08,72,28,230,34,74,35,033,,73,11,080,,84,40,054,*64,1606994312110
NMEA,$GAGSV,1,1,0,*74,1606994312110
NMEA,$PQGSV,1,1,03,195,62,112,21,193,23,171,,194,60,039,,0,5*6C,1606994312110
NMEA,$PQGSV,1,1,0,*73,1606994312110
NMEA,$GNGSA,A,3,03,04,08,09,16,27,,,,,,,1.4,1.1,0.8,1*38,1606994312111
NMEA,$GNGSA,A,2,65,71,72,,,,,,,,,,1.4,1.1,0.8,2*3E,1606994312111
NMEA,$GNVTG,,T,,M,0.0,N,0.0,K,A*3D,1606994312112
NMEA,$GNRMC,111833.00,A,2255.527964,N,12017.678386,E,0.0,,031220,2.8,W,A*1C,1606994312112
NMEA,$GNGGA,111833.00,2255.527964,N,12017.678386,E,1,09,1.1,29.2,M,17.5,M,,*42,1606994312112
Raw,23817585,23823432000000,,,-1291005708338134784,0.0,4149.533342570066,0.7293954965106286,12.009457082132299,3319,1,0.0,207,51513697092347,11,33.5,119.91767120361328,0.24449999630451202,0,0.0,0.0,,,,,0,,3,,
Raw,23817586,23823432000000,,,-1291005708338134784,0.0,4149.533342570066,0.7293954965106286,12.009457082132299,3319,7,0.0,207,51513689804876,16,29.8,700.2879638671875,0.24320000410079956,0,0.0,0.0,,,,,0,,3,,
Raw,23817587,23823432000000,,,-1291005708338134784,0.0,4149.533342570066,0.7293954965106286,12.009457082132299,3319,8,0.0,207,51513697407071,11,33.6,541.8190307617188,0.24449999630451202,0,0.0,0.0,,,,,0,,3,,
Raw,23817587,23823432000000,,,-1291005708338134784,0.0,4149.533342570066,0.7293954965106286,12.009457082132299,3319,3,0.0,15,386331685791625,19,27.4,319.325927734375,0.07110000401735306,0,0.0,0.0,,,,,0,,1,,
Raw,23817588,23823432000000,,,-1291005708338134784,0.0,4149.533342570066,0.7293954965106286,12.009457082132299,3319,4,0.0,15,386331699120914,6,38.7,-143.00210571289062,0.03970000147819519,0,0.0,0.0,,,,,0,,1,,
Raw,23817588,23823432000000,,,-1291005708338134784,0.0,4149.533342570066,0.7293954965106286,12.009457082132299,3319,8,0.0,15,386331698004954,6,38.7,-513.6031494140625,0.038200002163648605,0,0.0,0.0,,,,,0,,1,,
Raw,23817589,23823432000000,,,-1291005708338134784,0.0,4149.533342570066,0.7293954965106286,12.009457082132299,3319,9,0.0,15,386331690883065,10,34.5,-479.00689697265625,0.032099999487400055,0,0.0,0.0,,,,,0,,1,,
Raw,23817590,23823432000000,,,-1291005708338134784,0.0,4149.533342570066,0.7293954965106286,12.009457082132299,3319,16,0.0,15,386331699466609,35,22.8,222.14883422851562,0.7400000095367432,0,0.0,0.0,,,,,0,,1,,
Raw,23817590,23823432000000,,,-1291005708338134784,0.0,4149.533342570066,0.7293954965106286,12.009457082132299,3319,21,0.0,15,386331687802835,31,23.8,-552.2608032226562,0.6620000004768372,0,0.0,0.0,,,,,0,,1,,
Raw,23817592,23823432000000,,,-1291005708338134784,0.0,4149.533342570066,0.7293954965106286,12.009457082132299,3319,22,0.0,15,386331684863818,40,21.8,219.77015686035156,0.7774999737739563,0,0.0,0.0,,,,,0,,1,,
Raw,23817593,23823432000000,,,-1291005708338134784,0.0,4149.533342570066,0.7293954965106286,12.009457082132299,3319,27,0.0,15,386331703364603,12,32.4,-114.75558471679688,0.02590000070631504,0,0.0,0.0,,,,,0,,1,,
Fix,gps,22.925465,120.294639,47.447632,0.000000,4.288000,1606994314000
NMEA,$GPGSV,3,1,12,03,04,236,27,04,51,286,39,08,42,212,39,09,18,313,35*79,1606994313107
NMEA,$GPGSV,3,2,12,11,00,000,23,16,49,358,23,21,02,187,24,22,02,215,22*72,1606994313107
NMEA,$GPGSV,3,3,12,27,80,187,32,18,08,059,,26,33,040,,31,30,104,*71,1606994313107
NMEA,$GLGSV,2,1,08,65,27,281,34,71,04,187,30,72,28,230,34,74,35,033,*67,1606994313108
NMEA,$GLGSV,2,2,08,86,09,182,,73,11,080,,84,40,054,,85,47,146,*69,1606994313108
NMEA,$GAGSV,1,1,0,*74,1606994313108
NMEA,$PQGSV,1,1,02,193,23,171,,194,60,039,,0,5*65,1606994313109
NMEA,$PQGSV,1,1,0,*73,1606994313109
NMEA,$GNGSA,A,3,03,04,08,09,16,27,,,,,,,1.4,1.1,0.8,1*38,1606994313110
NMEA,$GNGSA,A,2,65,71,72,,,,,,,,,,1.4,1.1,0.8,2*3E,1606994313110
NMEA,$GNVTG,,T,,M,0.0,N,0.0,K,A*3D,1606994313110
NMEA,$GNRMC,111834.00,A,2255.527894,N,12017.678315,E,0.0,,031220,2.8,W,A*1F,1606994313111
NMEA,$GNGGA,111834.00,2255.527894,N,12017.678315,E,1,09,1.1,30.0,M,17.5,M,,*4B,1606994313111
Fix,gps,22.925465,120.294640,47.878052,0.000000,4.288000,1606994315000
NMEA,$GPGSV,3,1,11,03,04,236,28,04,51,286,39,08,42,212,37,09,18,313,37*79,1606994314106
NMEA,$GPGSV,3,2,11,11,00,000,23,16,49,358,24,22,02,215,22,27,80,187,31*7E,1606994314107
NMEA,$GPGSV,3,3,11,18,08,059,,26,33,040,,31,30,104,*40,1606994314107
NMEA,$GLGSV,2,1,08,65,27,281,37,85,47,146,22,71,04,187,29,72,28,230,35*65,1606994314107
NMEA,$GLGSV,2,2,08,74,35,033,,86,09,182,,73,11,080,,84,40,054,*61,1606994314109
Raw,23818559,23824423000000,,,-1291005708338029312,0.0,4149.624612182379,-0.46824518222363243,11.24286242086658,3320,1,0.0,207,51514687986472,8,36.7,121.88693237304688,0.22450000047683716,0,0.0,0.0,,,,,0,,3,,
Raw,23818560,23824423000000,,,-1291005708338029312,0.0,4149.624612182379,-0.46824518222363243,11.24286242086658,3320,21,0.0,207,51514692763878,35,22.3,-531.7216796875,0.9294999837875366,0,0.0,0.0,,,,,0,,3,,
Raw,23818561,23824423000000,,,-1291005708338029312,0.0,4149.624612182379,-0.46824518222363243,11.24286242086658,3320,7,0.0,207,51514680696968,16,29.2,702.040771484375,0.2597000002861023,0,0.0,0.0,,,,,0,,3,,
Raw,23818561,23824423000000,,,-1291005708338029312,0.0,4149.624612182379,-0.46824518222363243,11.24286242086658,3320,8,0.0,207,51514688299769,9,35.2,543.7060546875,0.22700001299381256,0,0.0,0.0,,,,,0,,3,,
Raw,23818562,23824423000000,,,-1291005708338029312,0.0,4149.624612182379,-0.46824518222363243,11.24286242086658,3320,3,0.0,15,386332676685067,17,28.1,320.85174560546875,0.06480000168085098,0,0.0,0.0,,,,,0,,1,,
Raw,23818563,23824423000000,,,-1291005708338029312,0.0,4149.624612182379,-0.46824518222363243,11.24286242086658,3320,4,0.0,15,386332690015890,6,38.8,-141.0341796875,0.026200000196695328,0,0.0,0.0,,,,,0,,1,,
Raw,23818563,23824423000000,,,-1291005708338029312,0.0,4149.624612182379,-0.46824518222363243,11.24286242086658,3320,8,0.0,15,386332688901162,7,37.2,-511.67822265625,0.02460000105202198,0,0.0,0.0,,,,,0,,1,,
Raw,23818564,23824423000000,,,-1291005708338029312,0.0,4149.624612182379,-0.46824518222363243,11.24286242086658,3320,9,0.0,15,386332681779172,7,37.2,-477.1121826171875,0.04410000145435333,0,0.0,0.0,,,,,0,,1,,
Raw,23818565,23824423000000,,,-1291005708338029312,0.0,4149.624612182379,-0.46824518222363243,11.24286242086658,3320,16,0.0,15,386332690360394,27,24.3,224.1659393310547,0.6664999723434448,0,0.0,0.0,,,,,0,,1,,
Raw,23818565,23824423000000,,,-1291005708338029312,0.0,4149.624612182379,-0.46824518222363243,11.24286242086658,3320,22,0.0,15,386332675757644,35,22.4,223.00515747070312,0.793999969959259,0,0.0,0.0,,,,,0,,1,,
Raw,23818566,23824423000000,,,-1291005708338029312,0.0,4149.624612182379,-0.46824518222363243,11.24286242086658,3320,27,0.0,15,386332694259493,14,30.6,-112.79456329345703,0.04780000075697899,0,0.0,0.0,,,,,0,,1,,
NMEA,$GAGSV,1,1,0,*74,1606994314110
NMEA,$PQGSV,1,1,03,193,23,171,,194,60,039,,195,62,112,,0,5*6F,1606994314110
NMEA,$PQGSV,1,1,0,*73,1606994314111
NMEA,$GNGSA,A,3,03,04,08,09,16,27,,,,,,,1.4,1.1,0.8,1*38,1606994314112
NMEA,$GNGSA,A,2,65,71,72,,,,,,,,,,1.4,1.1,0.8,2*3E,1606994314112
NMEA,$GNVTG,,T,,M,0.0,N,0.0,K,A*3D,1606994314112
NMEA,$GNRMC,111835.00,A,2255.527926,N,12017.678384,E,0.0,,031220,2.8,W,A*1E,1606994314113
NMEA,$GNGGA,111835.00,2255.527926,N,12017.678384,E,1,09,1.1,30.4,M,17.5,M,,*4E,1606994314113
Fix,gps,22.925466,120.294640,48.635254,0.000000,3.216000,1606994316000
Raw,23819559,23825435000000,,,-1291005708337882880,0.0,4150.124732404947,5.482482488498171,11.326985419251699,3321,1,0.0,207,51515699839581,8,36.2,121.9886474609375,0.24250000715255737,0,0.0,0.0,,,,,0,,3,,
Raw,23819560,23825435000000,,,-1291005708337882880,0.0,4150.124732404947,5.482482488498171,11.326985419251699,3321,7,0.0,207,51515692548207,16,29.0,702.033447265625,0.24770000576972961,0,0.0,0.0,,,,,0,,3,,
Raw,23819561,23825435000000,,,-1291005708337882880,0.0,4150.124732404947,5.482482488498171,11.326985419251699,3321,8,0.0,207,51515700151478,8,36.1,543.7830200195312,0.24400000274181366,0,0.0,0.0,,,,,0,,3,,
Raw,23819561,23825435000000,,,-1291005708337882880,0.0,4150.124732404947,5.482482488498171,11.326985419251699,3321,3,0.0,15,386333688537529,16,29.7,320.7911682128906,0.04170000180602074,0,0.0,0.0,,,,,0,,1,,
Raw,23819562,23825435000000,,,-1291005708337882880,0.0,4150.124732404947,5.482482488498171,11.326985419251699,3321,4,0.0,15,386333701869921,6,38.5,-140.93637084960938,0.04270000010728836,0,0.0,0.0,,,,,0,,1,,
Raw,23819562,23825435000000,,,-1291005708337882880,0.0,4150.124732404947,5.482482488498171,11.326985419251699,3321,8,0.0,15,386333700756425,7,37.5,-511.58538818359375,0.04260000213980675,0,0.0,0.0,,,,,0,,1,,
Raw,23819563,23825435000000,,,-1291005708337882880,0.0,4150.124732404947,5.482482488498171,11.326985419251699,3321,9,0.0,15,386333693634300,7,37.1,-477.0328369140625,0.032099999487400055,0,0.0,0.0,,,,,0,,1,,
Raw,23819563,23825435000000,,,-1291005708337882880,0.0,4150.124732404947,5.482482488498171,11.326985419251699,3321,16,0.0,15,386333702213145,31,23.8,225.12693786621094,0.684499979019165,0,0.0,0.0,,,,,0,,1,,
Raw,23819564,23825435000000,,,-1291005708337882880,0.0,4150.124732404947,5.482482488498171,11.326985419251699,3321,27,0.0,15,386333706113385,14,30.8,-112.64464569091797,0.03579999879002571,0,0.0,0.0,,,,,0,,1,,
NMEA,$GPGSV,3,1,11,03,04,236,30,04,51,286,39,08,42,212,38,09,18,313,37*7F,1606994315113
NMEA,$GPGSV,3,2,11,11,00,000,23,16,49,358,24,27,80,187,31,18,08,059,*77,1606994315114
NMEA,$GPGSV,3,3,11,21,02,187,,26,33,040,,31,30,104,*42,1606994315115
NMEA,$GLGSV,2,1,07,65,27,281,36,71,04,187,29,72,28,230,36,74,35,033,*60,1606994315123
NMEA,$GLGSV,2,2,07,86,09,182,,73,11,080,,84,40,054,*5B,1606994315124
NMEA,$GAGSV,1,1,0,*74,1606994315124
NMEA,$PQGSV,1,1,03,193,23,171,,194,60,039,,195,62,112,,0,5*6F,1606994315125
NMEA,$PQGSV,1,1,0,*73,1606994315126
NMEA,$GNGSA,A,3,03,04,08,09,16,27,,,,,,,1.4,1.1,0.8,1*38,1606994315128
NMEA,$GNGSA,A,2,65,71,72,,,,,,,,,,1.4,1.1,0.8,2*3E,1606994315129
NMEA,$GNVTG,,T,,M,0.0,N,0.0,K,A*3D,1606994315130
NMEA,$GNRMC,111836.00,A,2255.527982,N,12017.678411,E,0.0,,031220,2.8,W,A*18,1606994315130
NMEA,$GNGGA,111836.00,2255.527982,N,12017.678411,E,1,09,1.1,31.2,M,17.5,M,,*4F,1606994315131
Fix,gps,22.925467,120.294639,49.351501,0.000000,3.216000,1606994317000
Raw,23820557,23826427000000,,,-1291005708337635584,0.0,4148.367326706648,5.606468835538532,11.309736617875469,3322,1,0.0,207,51516691592019,9,35.2,123.86961364746094,0.23150001466274261,0,0.0,0.0,,,,,0,,3,,
Raw,23820558,23826427000000,,,-1291005708337635584,0.0,4148.367326706648,5.606468835538532,11.309736617875469,3322,7,0.0,207,51516684298801,21,26.8,703.6719970703125,0.3037000000476837,0,0.0,0.0,,,,,0,,3,,
Raw,23820558,23826427000000,,,-1291005708337635584,0.0,4148.367326706648,5.606468835538532,11.309736617875469,3322,8,0.0,207,51516691902505,9,35.4,545.5587768554688,0.23150001466274261,0,0.0,0.0,,,,,0,,3,,
Raw,23820560,23826427000000,,,-1291005708337635584,0.0,4148.367326706648,5.606468835538532,11.309736617875469,3322,3,0.0,15,386334680289317,16,29.5,322.4994201660156,0.059700001031160355,0,0.0,0.0,,,,,0,,1,,
Raw,23820560,23826427000000,,,-1291005708337635584,0.0,4148.367326706648,5.606468835538532,11.309736617875469,3322,4,0.0,15,386334693623217,7,37.9,-139.07510375976562,0.032099999487400055,0,0.0,0.0,,,,,0,,1,,
Raw,23820561,23826427000000,,,-1291005708337635584,0.0,4148.367326706648,5.606468835538532,11.309736617875469,3322,8,0.0,15,386334692510948,6,38.0,-509.7706298828125,0.029200000688433647,0,0.0,0.0,,,,,0,,1,,
Raw,23820561,23826427000000,,,-1291005708337635584,0.0,4148.367326706648,5.606468835538532,11.309736617875469,3322,9,0.0,15,386334685388713,9,35.8,-475.2175598144531,0.02250000089406967,0,0.0,0.0,,,,,0,,1,,
Raw,23820562,23826427000000,,,-1291005708337635584,0.0,4148.367326706648,5.606468835538532,11.309736617875469,3322,16,0.0,15,386334693965233,31,23.9,226.5255889892578,0.6710000038146973,0,0.0,0.0,,,,,0,,1,,
Raw,23820562,23826427000000,,,-1291005708337635584,0.0,4148.367326706648,5.606468835538532,11.309736617875469,3322,22,0.0,15,386334679362524,35,22.0,224.42283630371094,0.800000011920929,0,0.0,0.0,,,,,0,,1,,
Raw,23820563,23826427000000,,,-1291005708337635584,0.0,4148.367326706648,5.606468835538532,11.309736617875469,3322,27,0.0,15,386334697866577,13,31.7,-110.85253143310547,0.049300000071525574,0,0.0,0.0,,,,,0,,1,,
NMEA,$GPGSV,3,1,12,03,04,236,30,04,51,286,38,08,42,212,38,09,18,313,36*7C,1606994316114
NMEA,$GPGSV,3,2,12,11,00,000,23,16,49,358,24,22,02,215,22,27,80,187,32*7E,1606994316114
NMEA,$GPGSV,3,3,12,18,08,059,,21,02,187,,26,33,040,,31,30,104,*7C,1606994316115
NMEA,$GLGSV,2,1,08,65,27,281,35,71,04,187,27,72,28,230,35,74,35,033,*61,1606994316116
NMEA,$GLGSV,2,2,08,86,09,182,,73,11,080,,84,40,054,,85,47,146,*69,1606994316116
NMEA,$GAGSV,1,1,0,*74,1606994316117
NMEA,$PQGSV,1,1,03,193,23,171,,194,60,039,,195,62,112,,0,5*6F,1606994316117
NMEA,$PQGSV,1,1,0,*73,1606994316118
NMEA,$GNGSA,A,3,03,04,08,09,16,27,,,,,,,1.4,1.1,0.8,1*38,1606994316120
NMEA,$GNGSA,A,2,65,71,72,,,,,,,,,,1.4,1.1,0.8,2*3E,1606994316121
NMEA,$GNVTG,,T,,M,0.0,N,0.0,K,A*3D,1606994316124
NMEA,$GNRMC,111837.00,A,2255.528036,N,12017.678332,E,0.0,,031220,2.8,W,A*16,1606994316126
NMEA,$GNGGA,111837.00,2255.528036,N,12017.678332,E,1,09,1.1,31.9,M,17.5,M,,*4A,1606994316126
Raw,23821565,23827419000000,,,-1291005708337597952,0.0,4145.932383835316,11.31966408283833,11.293627450985483,3323,1,0.0,207,51517683553907,8,36.4,123.12055206298828,0.21850000321865082,0,0.0,0.0,,,,,0,,3,,
Raw,23821566,23827419000000,,,-1291005708337597952,0.0,4145.932383835316,11.31966408283833,11.293627450985483,3323,7,0.0,207,51517676258657,17,28.8,702.7601318359375,0.2648000121116638,0,0.0,0.0,,,,,0,,3,,
Raw,23821567,23827419000000,,,-1291005708337597952,0.0,4145.932383835316,11.31966408283833,11.293627450985483,3323,8,0.0,207,51517683862985,14,30.6,544.7385864257812,0.2312999963760376,0,0.0,0.0,,,,,0,,3,,
Raw,23821567,23827419000000,,,-1291005708337597952,0.0,4145.932383835316,11.31966408283833,11.293627450985483,3323,3,0.0,15,386335672250495,24,25.0,321.4278564453125,0.19740000367164612,0,0.0,0.0,,,,,0,,1,,
Raw,23821567,23827419000000,,,-1291005708337597952,0.0,4145.932383835316,11.31966408283833,11.293627450985483,3323,4,0.0,15,386335685585948,6,38.3,-139.8112335205078,0.018699999898672104,0,0.0,0.0,,,,,0,,1,,
Raw,23821568,23827419000000,,,-1291005708337597952,0.0,4145.932383835316,11.31966408283833,11.293627450985483,3323,8,0.0,15,386335684474921,6,38.2,-510.53961181640625,0.01720000058412552,0,0.0,0.0,,,,,0,,1,,
Raw,23821569,23827419000000,,,-1291005708337597952,0.0,4145.932383835316,11.31966408283833,11.293627450985483,3323,9,0.0,15,386335677352566,8,36.6,-475.96795654296875,0.039500001817941666,0,0.0,0.0,,,,,0,,1,,
Raw,23821569,23827419000000,,,-1291005708337597952,0.0,4145.932383835316,11.31966408283833,11.293627450985483,3323,16,0.0,15,386335685926829,35,22.4,224.66070556640625,0.7789999842643738,0,0.0,0.0,,,,,0,,1,,
Raw,23821570,23827419000000,,,-1291005708337597952,0.0,4145.932383835316,11.31966408283833,11.293627450985483,3323,21,0.0,15,386335674273306,40,21.3,-551.3663940429688,0.8524999618530273,0,0.0,0.0,,,,,0,,1,,
Raw,23821570,23827419000000,,,-1291005708337597952,0.0,4145.932383835316,11.31966408283833,11.293627450985483,3323,27,0.0,15,386335689829263,13,31.1,-111.56632232666016,0.037300001829862595,0,0.0,0.0,,,,,0,,1,,
Fix,gps,22.925468,120.294638,50.051453,0.000000,3.216000,1606994318000
NMEA,$GPGSV,3,1,11,03,04,236,25,04,51,286,38,08,42,212,38,09,18,313,37*7A,1606994317116
NMEA,$GPGSV,3,2,11,11,00,000,23,16,49,358,22,21,02,187,21,27,80,187,31*70,1606994317117
NMEA,$GPGSV,3,3,11,18,08,059,,26,33,040,,31,30,104,*40,1606994317118
NMEA,$GLGSV,2,1,08,65,27,281,36,71,04,187,29,72,28,230,31,74,35,033,*68,1606994317119
NMEA,$GLGSV,2,2,08,86,09,182,,73,11,080,,84,40,054,,85,47,146,*69,1606994317120
NMEA,$GAGSV,1,1,0,*74,1606994317120
NMEA,$PQGSV,1,1,03,193,23,171,,194,60,039,,195,62,112,,0,5*6F,1606994317121
NMEA,$PQGSV,1,1,0,*73,1606994317121
NMEA,$GNGSA,A,3,03,04,08,09,16,27,,,,,,,1.5,1.3,0.8,1*3B,1606994317128
NMEA,$GNGSA,A,2,65,71,72,,,,,,,,,,1.5,1.3,0.8,2*3D,1606994317129
NMEA,$GNVTG,,T,,M,0.0,N,0.0,K,A*3D,1606994317130
NMEA,$GNRMC,111838.00,A,2255.528066,N,12017.678263,E,0.0,,031220,2.8,W,A*19,1606994317132
NMEA,$GNGGA,111838.00,2255.528066,N,12017.678263,E,1,09,1.3,32.6,M,17.5,M,,*4B,1606994317133
Raw,23822562,23828434000000,,,-1291005708336836608,0.0,4150.626715272665,8.50888087892571,11.335509217174629,3324,22,0.0,207,51518691939900,46,20.3,-828.595703125,1.0479999780654907,0,0.0,0.0,,,,,0,,3,,
Raw,23822562,23828434000000,,,-1291005708336836608,0.0,4150.626715272665,8.50888087892571,11.335509217174629,3324,1,0.0,207,51518697791782,11,33.0,122.80419921875,0.24449999630451202,0,0.0,0.0,,,,,0,,3,,
Raw,23822563,23828434000000,,,-1291005708336836608,0.0,4150.626715272665,8.50888087892571,11.335509217174629,3324,7,0.0,207,51518690494640,17,28.0,702.254638671875,0.2558000087738037,0,0.0,0.0,,,,,0,,3,,
Raw,23822563,23828434000000,,,-1291005708336836608,0.0,4150.626715272665,8.50888087892571,11.335509217174629,3324,8,0.0,207,51518698099437,12,32.0,544.3427124023438,0.2484000027179718,0,0.0,0.0,,,,,0,,3,,
Raw,23822563,23828434000000,,,-1291005708336836608,0.0,4150.626715272665,8.50888087892571,11.335509217174629,3324,3,0.0,15,386336686487696,24,25.3,321.1631774902344,0.188400000333786,0,0.0,0.0,,,,,0,,1,,
Raw,23822564,23828434000000,,,-1291005708336836608,0.0,4150.626715272665,8.50888087892571,11.335509217174629,3324,4,0.0,15,386336699824708,6,38.5,-140.16998291015625,0.03970000147819519,0,0.0,0.0,,,,,0,,1,,
Raw,23822564,23828434000000,,,-1291005708336836608,0.0,4150.626715272665,8.50888087892571,11.335509217174629,3324,8,0.0,15,386336698714952,7,37.6,-510.9379577636719,0.03959999978542328,0,0.0,0.0,,,,,0,,1,,
Raw,23822565,23828434000000,,,-1291005708336836608,0.0,4150.626715272665,8.50888087892571,11.335509217174629,3324,9,0.0,15,386336691592478,8,36.5,-476.42822265625,0.030500000342726707,0,0.0,0.0,,,,,0,,1,,
Raw,23822565,23828434000000,,,-1291005708336836608,0.0,4150.626715272665,8.50888087892571,11.335509217174629,3324,16,0.0,15,386336700164342,40,21.7,225.10791015625,0.8014999628067017,0,0.0,0.0,,,,,0,,1,,
Raw,23822566,23828434000000,,,-1291005708336836608,0.0,4150.626715272665,8.50888087892571,11.335509217174629,3324,27,0.0,15,386336704067897,10,34.0,-111.90107727050781,0.023099999874830246,0,0.0,0.0,,,,,0,,1,,
Fix,gps,22.925468,120.294636,50.108948,0.000000,4.288000,1606994319000
NMEA,$GPGSV,3,1,11,03,04,236,25,04,51,286,39,08,42,212,38,09,18,313,37*7B,1606994318112
NMEA,$GPGSV,3,2,11,11,00,000,23,16,49,358,22,27,80,187,34,18,08,059,*74,1606994318113
NMEA,$GPGSV,3,3,11,22,02,215,,26,33,040,,31,30,104,*49,1606994318115
NMEA,$GLGSV,2,1,08,86,09,182,20,65,27,281,33,71,04,187,28,72,28,230,32*64,1606994318115
NMEA,$GLGSV,2,2,08,74,35,033,,73,11,080,,84,40,054,,85,47,146,*60,1606994318116
NMEA,$GAGSV,1,1,0,*74,1606994318116
NMEA,$PQGSV,1,1,03,193,23,171,,194,60,039,,195,62,112,,0,5*6F,1606994318118
NMEA,$PQGSV,1,1,0,*73,1606994318118
NMEA,$GNGSA,A,3,03,04,08,09,16,27,,,,,,,1.5,1.3,0.8,1*3B,1606994318121
NMEA,$GNGSA,A,2,65,71,72,,,,,,,,,,1.5,1.3,0.8,2*3D,1606994318123
NMEA,$GNVTG,,T,,M,0.0,N,0.0,K,A*3D,1606994318123
NMEA,$GNRMC,111839.00,A,2255.528065,N,12017.678189,E,0.0,,031220,2.8,W,A*1C,1606994318124
NMEA,$GNGGA,111839.00,2255.528065,N,12017.678189,E,1,09,1.3,32.6,M,17.5,M,,*4E,1606994318124
Raw,23823546,23829424000000,,,-1291005708336686592,0.0,4151.766188442707,6.691258511541516,11.322756921998833,3325,1,0.0,207,51519687641581,8,36.0,123.48128509521484,0.22450000047683716,0,0.0,0.0,,,,,0,,3,,
Raw,23823547,23829424000000,,,-1291005708336686592,0.0,4151.766188442707,6.691258511541516,11.322756921998833,3325,7,0.0,207,51519680342387,21,26.9,702.7393188476562,0.32770001888275146,0,0.0,0.0,,,,,0,,3,,
Raw,23823548,23829424000000,,,-1291005708336686592,0.0,4151.766188442707,6.691258511541516,11.322756921998833,3325,8,0.0,207,51519687947881,13,31.3,545.007080078125,0.23430000245571136,0,0.0,0.0,,,,,0,,3,,
Raw,23823548,23829424000000,,,-1291005708336686592,0.0,4151.766188442707,6.691258511541516,11.322756921998833,3325,3,0.0,15,386337676336913,27,24.3,321.444091796875,0.6754999756813049,0,0.0,0.0,,,,,0,,1,,
Raw,23823549,23829424000000,,,-1291005708336686592,0.0,4151.766188442707,6.691258511541516,11.322756921998833,3325,4,0.0,15,386337689675398,7,37.8,-139.5064239501953,0.026100000366568565,0,0.0,0.0,,,,,0,,1,,
Raw,23823549,23829424000000,,,-1291005708336686592,0.0,4151.766188442707,6.691258511541516,11.322756921998833,3325,8,0.0,15,386337688566841,6,38.4,-510.3049621582031,0.023200001567602158,0,0.0,0.0,,,,,0,,1,,
Raw,23823550,23829424000000,,,-1291005708336686592,0.0,4151.766188442707,6.691258511541516,11.322756921998833,3325,9,0.0,15,386337681444269,8,36.2,-475.7911376953125,0.045500002801418304,0,0.0,0.0,,,,,0,,1,,
Raw,23823550,23829424000000,,,-1291005708336686592,0.0,4151.766188442707,6.691258511541516,11.322756921998833,3325,16,0.0,15,386337690013781,27,24.1,225.28868103027344,0.6664999723434448,0,0.0,0.0,,,,,0,,1,,
Raw,23823551,23829424000000,,,-1291005708336686592,0.0,4151.766188442707,6.691258511541516,11.322756921998833,3325,21,0.0,15,386337678365486,40,21.5,-550.1961059570312,0.7985000014305115,0,0.0,0.0,,,,,0,,1,,
Raw,23823551,23829424000000,,,-1291005708336686592,0.0,4151.766188442707,6.691258511541516,11.322756921998833,3325,27,0.0,15,386337693918495,13,31.8,-111.21497344970703,0.043299999088048935,0,0.0,0.0,,,,,0,,1,,
Fix,gps,22.925468,120.294636,50.167480,0.000000,3.216000,1606994320000
NMEA,$GPGSV,3,1,12,03,04,236,24,04,51,286,38,08,42,212,38,09,18,313,36*79,1606994319112
NMEA,$GPGSV,3,2,12,11,00,000,23,16,49,358,24,21,02,187,22,27,80,187,32*75,1606994319113
NMEA,$GPGSV,3,3,12,18,08,059,,22,02,215,,26,33,040,,31,30,104,*77,1606994319113
NMEA,$GLGSV,2,1,07,65,27,281,36,71,04,187,27,72,28,230,31,74,35,033,*69,1606994319119
NMEA,$GLGSV,2,2,07,73,11,080,,84,40,054,,85,47,146,*5A,1606994319120
NMEA,$GAGSV,1,1,0,*74,1606994319120
NMEA,$PQGSV,1,1,03,193,23,171,,194,60,039,,195,62,112,,0,5*6F,1606994319121
NMEA,$PQGSV,1,1,0,*73,1606994319122
NMEA,$GNGSA,A,3,03,04,08,09,16,27,,,,,,,1.5,1.3,0.8,1*3B,1606994319124
NMEA,$GNGSA,A,2,65,71,72,,,,,,,,,,1.5,1.3,0.8,2*3D,1606994319124
NMEA,$GNVTG,,T,,M,0.0,N,0.0,K,A*3D,1606994319124
NMEA,$GNRMC,111840.00,A,2255.528061,N,12017.678137,E,0.0,,031220,2.8,W,A*13,1606994319124
NMEA,$GNGGA,111840.00,2255.528061,N,12017.678137,E,1,09,1.3,32.7,M,17.5,M,,*40,1606994319124
Raw,23824547,23830418000000,,,-1291005708336313856,0.0,4151.826724410057,8.527200125534659,11.292373296355471,3326,1,0.0,207,51520681268602,9,35.8,123.7264404296875,0.24650001525878906,0,0.0,0.0,,,,,0,,3,,
Raw,23824547,23830418000000,,,-1291005708336313856,0.0,4151.826724410057,8.527200125534659,11.292373296355471,3326,7,0.0,207,51520673967480,19,27.7,702.8074951171875,0.2831000089645386,0,0.0,0.0,,,,,0,,3,,
Raw,23824548,23830418000000,,,-1291005708336313856,0.0,4151.826724410057,8.527200125534659,11.292373296355471,3326,8,0.0,207,51520681573452,9,35.3,545.17236328125,0.24650001525878906,0,0.0,0.0,,,,,0,,3,,
Raw,23824548,23830418000000,,,-1291005708336313856,0.0,4151.826724410057,8.527200125534659,11.292373296355471,3326,3,0.0,15,386338669963200,17,28.4,321.6893005371094,0.05429999902844429,0,0.0,0.0,,,,,0,,1,,
Raw,23824549,23830418000000,,,-1291005708336313856,0.0,4151.826724410057,8.527200125534659,11.292373296355471,3326,4,0.0,15,386338683303262,6,38.2,-139.30899047851562,0.015700001269578934,0,0.0,0.0,,,,,0,,1,,
Raw,23824549,23830418000000,,,-1291005708336313856,0.0,4151.826724410057,8.527200125534659,11.292373296355471,3326,8,0.0,15,386338682195963,6,38.1,-510.0924377441406,0.044200003147125244,0,0.0,0.0,,,,,0,,1,,
Raw,23824552,23830418000000,,,-1291005708336313856,0.0,4151.826724410057,8.527200125534659,11.292373296355471,3326,9,0.0,15,386338675073244,8,36.0,-475.5701904296875,0.0364999994635582,0,0.0,0.0,,,,,0,,1,,
Raw,23824553,23830418000000,,,-1291005708336313856,0.0,4151.826724410057,8.527200125534659,11.292373296355471,3326,16,0.0,15,386338683640524,31,23.6,225.79296875,0.6559999585151672,0,0.0,0.0,,,,,0,,1,,
Raw,23824553,23830418000000,,,-1291005708336313856,0.0,4151.826724410057,8.527200125534659,11.292373296355471,3326,21,0.0,15,386338671994638,35,22.5,-550.1294555664062,0.7279999852180481,0,0.0,0.0,,,,,0,,1,,
Raw,23824554,23830418000000,,,-1291005708336313856,0.0,4151.826724410057,8.527200125534659,11.292373296355471,3326,27,0.0,15,386338687546264,12,32.0,-111.01527404785156,0.03189999982714653,0,0.0,0.0,,,,,0,,1,,
Fix,gps,22.925468,120.294635,50.213989,0.000000,4.288000,1606994321000
NMEA,$GPGSV,3,1,12,03,04,236,28,04,51,286,38,08,42,212,38,09,18,313,36*75,1606994320112
NMEA,$GPGSV,3,2,12,11,00,000,23,16,49,358,24,21,02,187,23,27,80,187,32*74,1606994320112
NMEA,$GPGSV,3,3,12,18,08,059,,22,02,215,,26,33,040,,31,30,104,*77,1606994320114
NMEA,$GLGSV,2,1,08,65,27,281,36,71,04,187,28,72,28,230,35,74,35,033,*6D,1606994320114
NMEA,$GLGSV,2,2,08,86,09,182,,73,11,080,,84,40,054,,85,47,146,*69,1606994320116
NMEA,$GAGSV,1,1,0,*74,1606994320120
NMEA,$PQGSV,1,1,03,193,23,171,,194,60,039,,195,62,112,,0,5*6F,1606994320123
NMEA,$PQGSV,1,1,0,*73,1606994320124
NMEA,$GNGSA,A,3,03,04,08,09,16,27,,,,,,,1.5,1.3,0.8,1*3B,1606994320125
NMEA,$GNGSA,A,2,65,71,72,,,,,,,,,,1.5,1.3,0.8,2*3D,1606994320125
NMEA,$GNVTG,,T,,M,0.0,N,0.0,K,A*3D,1606994320126
NMEA,$GNRMC,111841.00,A,2255.528055,N,12017.678098,E,0.0,,031220,2.8,W,A*11,1606994320126
NMEA,$GNGGA,111841.00,2255.528055,N,12017.678098,E,1,09,1.3,32.7,M,17.5,M,,*42,1606994320126
Fix,gps,22.925468,120.294635,50.219421,0.000000,4.288000,1606994322000
Raw,23825629,23831431000000,,,-1291005708336036096,0.0,4161.11433878541,9.066275072285052,11.318166572902811,3327,1,0.0,207,51521693990236,8,36.0,124.00923156738281,0.23350000381469727,0,0.0,0.0,,,,,0,,3,,
Raw,23825632,23831431000000,,,-1291005708336036096,0.0,4161.11433878541,9.066275072285052,11.318166572902811,3327,7,0.0,207,51521686687252,17,28.6,702.9121704101562,0.24979999661445618,0,0.0,0.0,,,,,0,,3,,
Raw,23825634,23831431000000,,,-1291005708336036096,0.0,4161.11433878541,9.066275072285052,11.318166572902811,3327,8,0.0,207,51521694293713,10,34.6,545.3961181640625,0.23810000717639923,0,0.0,0.0,,,,,0,,3,,
Raw,23825636,23831431000000,,,-1291005708336036096,0.0,4161.11433878541,9.066275072285052,11.318166572902811,3327,3,0.0,15,386339682684184,17,28.0,321.8248291015625,0.043800000101327896,0,0.0,0.0,,,,,0,,1,,
Raw,23825641,23831431000000,,,-1291005708336036096,0.0,4161.11433878541,9.066275072285052,11.318166572902811,3327,4,0.0,15,386339696025833,6,38.5,-139.00494384765625,0.03519999980926514,0,0.0,0.0,,,,,0,,1,,
Raw,23825643,23831431000000,,,-1291005708336036096,0.0,4161.11433878541,9.066275072285052,11.318166572902811,3327,8,0.0,15,386339694919784,6,38.0,-509.87762451171875,0.03220000118017197,0,0.0,0.0,,,,,0,,1,,
Raw,23825646,23831431000000,,,-1291005708336036096,0.0,4161.11433878541,9.066275072285052,11.318166572902811,3327,9,0.0,15,386339687796976,9,35.8,-475.3363952636719,0.02550000138580799,0,0.0,0.0,,,,,0,,1,,
Raw,23825649,23831431000000,,,-1291005708336036096,0.0,4161.11433878541,9.066275072285052,11.318166572902811,3327,16,0.0,15,386339696361854,40,21.9,226.23062133789062,0.7954999804496765,0,0.0,0.0,,,,,0,,1,,
Raw,23825653,23831431000000,,,-1291005708336036096,0.0,4161.11433878541,9.066275072285052,11.318166572902811,3327,21,0.0,15,386339684718577,35,22.5,-549.6823120117188,0.7174999713897705,0,0.0,0.0,,,,,0,,1,,
Raw,23825655,23831431000000,,,-1291005708336036096,0.0,4161.11433878541,9.066275072285052,11.318166572902811,3327,27,0.0,15,386339700268767,13,31.3,-110.69143676757812,0.05380000174045563,0,0.0,0.0,,,,,0,,1,,
NMEA,$GPGSV,3,1,11,03,04,236,28,04,51,286,39,08,42,212,38,09,18,313,36*77,1606994321114
NMEA,$GPGSV,3,2,11,11,00,000,23,16,49,358,22,21,02,187,23,27,80,187,31*72,1606994321114
NMEA,$GPGSV,3,3,11,18,08,059,,26,33,040,,31,30,104,*40,1606994321115
NMEA,$GLGSV,2,1,08,65,27,281,36,71,04,187,29,72,28,230,35,74,35,033,*6C,1606994321116
NMEA,$GLGSV,2,2,08,86,09,182,,73,11,080,,84,40,054,,85,47,146,*69,1606994321116
NMEA,$GAGSV,1,1,0,*74,1606994321117
NMEA,$PQGSV,1,1,03,193,23,171,,194,60,039,,195,62,112,,0,5*6F,1606994321121
NMEA,$PQGSV,1,1,0,*73,1606994321123
NMEA,$GNGSA,A,3,03,04,08,09,16,27,,,,,,,1.5,1.3,0.8,1*3B,1606994321124
NMEA,$GNGSA,A,2,65,71,72,,,,,,,,,,1.5,1.3,0.8,2*3D,1606994321124
NMEA,$GNVTG,,T,,M,0.0,N,0.0,K,A*3D,1606994321125
NMEA,$GNRMC,111842.00,A,2255.528055,N,12017.678087,E,0.0,,031220,2.8,W,A*1C,1606994321125
NMEA,$GNGGA,111842.00,2255.528055,N,12017.678087,E,1,09,1.3,32.8,M,17.5,M,,*40,1606994321125
Raw,23826542,23832421000000,,,-1291005708335981312,0.0,4164.147190749645,9.418204222149658,11.314707905505273,3328,1,0.0,207,51522683935231,8,36.0,124.49088287353516,0.21850000321865082,0,0.0,0.0,,,,,0,,3,,
Raw,23826543,23832421000000,,,-1291005708335981312,0.0,4164.147190749645,9.418204222149658,11.314707905505273,3328,7,0.0,207,51522676630360,19,27.4,703.3027954101562,0.28760001063346863,0,0.0,0.0,,,,,0,,3,,
Raw,23826544,23832421000000,,,-1291005708335981312,0.0,4164.147190749645,9.418204222149658,11.314707905505273,3328,8,0.0,207,51522684237280,10,34.7,545.796875,0.22310000658035278,0,0.0,0.0,,,,,0,,3,,
Raw,23826545,23832421000000,,,-1291005708335981312,0.0,4164.147190749645,9.418204222149658,11.314707905505273,3328,3,0.0,15,386340672628485,16,29.0,322.2506408691406,0.047700002789497375,0,0.0,0.0,,,,,0,,1,,
Raw,23826545,23832421000000,,,-1291005708335981312,0.0,4164.147190749645,9.418204222149658,11.314707905505273,3328,4,0.0,15,386340685971655,6,38.7,-138.5231475830078,0.018699999898672104,0,0.0,0.0,,,,,0,,1,,
