# 
# Header Description:
# 
# Version: v2.0.0.1 Platform: 8.0.0 Manufacturer: Sony Model: G8142
# 
# Raw,ElapsedRealtimeMillis,TimeNanos,LeapSecond,TimeUncertaintyNanos,FullBiasNanos,BiasNanos,BiasUncertaintyNanos,DriftNanosPerSecond,DriftUncertaintyNanosPerSecond,HardwareClockDiscontinuityCount,Svid,TimeOffsetNanos,State,ReceivedSvTimeNanos,ReceivedSvTimeUncertaintyNanos,Cn0DbHz,PseudorangeRateMetersPerSecond,PseudorangeRateUncertaintyMetersPerSecond,AccumulatedDeltaRangeState,AccumulatedDeltaRangeMeters,AccumulatedDeltaRangeUncertaintyMeters,CarrierFrequencyHz,CarrierCycles,CarrierPhase,CarrierPhaseUncertainty,MultipathIndicator,SnrInDb,ConstellationType,AgcDb,CarrierFrequencyHz
# 
# Fix,Provider,Latitude,Longitude,Altitude,Speed,Accuracy,(UTC)TimeInMs
# 
# Nav,Svid,Type,Status,MessageId,Sub-messageId,Data(Bytes)
# 
Fix,gps,22.925466,120.294634,52.123657,0.000000,8.576000,1606994778000
Raw,24281542,24287652000000,,,-1291005708123749376,0.0,4317.242186516523,2.0988309544389923,11.10542154749107,3774,22,0.0,207,51977698127491,27,24.6,-831.1246948242188,0.8285000324249268,0,0.0,0.0,,,,,0,,3,,
Raw,24281543,24287652000000,,,-1291005708123749376,0.0,4317.242186516523,2.0988309544389923,11.10542154749107,3774,1,0.0,207,51977702473458,14,30.4,182.0602569580078,0.259799987077713,0,0.0,0.0,,,,,0,,3,,
Raw,24281543,24287652000000,,,-1291005708123749376,0.0,4317.242186516523,2.0988309544389923,11.10542154749107,3774,21,0.0,207,51977708264949,35,22.5,-476.07061767578125,0.9234999418258667,0,0.0,0.0,,,,,0,,3,,
Raw,24281543,24287652000000,,,-1291005708123749376,0.0,4317.242186516523,2.0988309544389923,11.10542154749107,3774,7,0.0,207,51977694352061,31,23.0,679.123291015625,0.872499942779541,0,0.0,0.0,,,,,0,,3,,
Raw,24281543,24287652000000,,,-1291005708123749376,0.0,4317.242186516523,2.0988309544389923,11.10542154749107,3774,8,0.0,207,51977702160492,19,27.0,570.6255493164062,0.29660001397132874,0,0.0,0.0,,,,,0,,3,,
Raw,24281544,24287652000000,,,-1291005708123749376,0.0,4317.242186516523,2.0988309544389923,11.10542154749107,3774,4,0.0,15,386795704912844,6,38.1,-85.23268127441406,0.01720000058412552,0,0.0,0.0,,,,,0,,1,,
Raw,24281544,24287652000000,,,-1291005708123749376,0.0,4317.242186516523,2.0988309544389923,11.10542154749107,3774,8,0.0,15,386795704382422,17,28.5,-470.9678649902344,0.046799998730421066,0,0.0,0.0,,,,,0,,1,,
Raw,24281544,24287652000000,,,-1291005708123749376,0.0,4317.242186516523,2.0988309544389923,11.10542154749107,3774,9,0.0,15,386795697208416,17,28.0,-438.0374755859375,0.06629999727010727,0,0.0,0.0,,,,,0,,1,,
Raw,24281544,24287652000000,,,-1291005708123749376,0.0,4317.242186516523,2.0988309544389923,11.10542154749107,3774,21,0.0,15,386795694284663,14,30.1,-566.9014282226562,0.04780000075697899,0,0.0,0.0,,,,,0,,1,,
Raw,24281544,24287652000000,,,-1291005708123749376,0.0,4317.242186516523,2.0988309544389923,11.10542154749107,3774,22,0.0,15,386795690153850,31,23.2,199.27554321289062,0.7264999747276306,0,0.0,0.0,,,,,0,,1,,
Raw,24281545,24287652000000,,,-1291005708123749376,0.0,4317.242186516523,2.0988309544389923,11.10542154749107,3774,27,0.0,15,386795709110007,21,26.9,-53.51387405395508,0.1111999973654747,0,0.0,0.0,,,,,0,,1,,
NMEA,$GPGSV,3,1,11,04,52,281,38,08,45,215,29,09,21,310,28,21,04,184,30*77,1606994777106
NMEA,$GPGSV,3,2,11,22,02,213,23,27,84,185,27,03,04,233,,16,48,002,*77,1606994777106
NMEA,$GPGSV,3,3,11,18,07,056,,26,31,043,,31,28,106,*4A,1606994777106
NMEA,$GLGSV,2,1,08,86,12,182,25,65,26,275,30,85,52,143,23,71,02,185,23*6F,1606994777106
NMEA,$GLGSV,2,2,08,72,25,227,27,74,35,037,,73,09,082,,84,37,050,*66,1606994777106
NMEA,$GAGSV,1,1,0,*74,1606994777106
NMEA,$PQGSV,1,1,03,193,22,170,,194,60,040,,195,63,111,,0,5*63,1606994777107
NMEA,$PQGSV,1,1,0,*73,1606994777107
NMEA,$GNGSA,A,3,04,08,09,16,21,27,31,,,,,,1.3,1.0,0.8,1*3C,1606994777107
NMEA,$GNGSA,A,2,65,72,,,,,,,,,,,1.3,1.0,0.8,2*3E,1606994777110
NMEA,$GNVTG,,T,,M,0.0,N,0.0,K,A*3D,1606994777113
NMEA,$GNRMC,112618.00,A,2255.527931,N,12017.678064,E,0.0,,031220,2.8,W,A*17,1606994777113
NMEA,$GNGGA,112618.00,2255.527931,N,12017.678064,E,1,09,1.0,34.7,M,17.5,M,,*41,1606994777114
Fix,gps,22.925466,120.294634,52.122803,0.000000,7.504000,1606994779000
Raw,24282542,24288643000000,,,-1291005708123722496,0.0,4286.077339202166,4.766236131272645,8.53487138460954,3775,22,0.0,207,51978689103501,27,24.1,-831.7055053710938,0.8149999976158142,0,0.0,0.0,,,,,0,,3,,
Raw,24282542,24288643000000,,,-1291005708123722496,0.0,4286.077339202166,4.766236131272645,8.53487138460954,3775,1,0.0,207,51978693446099,12,32.6,181.40982055664062,0.24089999496936798,0,0.0,0.0,,,,,0,,3,,
Raw,24282543,24288643000000,,,-1291005708123722496,0.0,4286.077339202166,4.766236131272645,8.53487138460954,3775,21,0.0,207,51978699239954,24,25.9,-476.4914855957031,0.40790000557899475,0,0.0,0.0,,,,,0,,3,,
Raw,24282543,24288643000000,,,-1291005708123722496,0.0,4286.077339202166,4.766236131272645,8.53487138460954,3775,7,0.0,207,51978685322957,31,23.2,678.7216186523438,0.8589999675750732,0,0.0,0.0,,,,,0,,3,,
Raw,24282544,24288643000000,,,-1291005708123722496,0.0,4286.077339202166,4.766236131272645,8.53487138460954,3775,8,0.0,207,51978693131910,16,29.6,569.8712768554688,0.2492000013589859,0,0.0,0.0,,,,,0,,3,,
Raw,24282544,24288643000000,,,-1291005708123722496,0.0,4286.077339202166,4.766236131272645,8.53487138460954,3775,4,0.0,15,386796695886414,6,38.9,-85.91568756103516,0.03370000049471855,0,0.0,0.0,,,,,0,,1,,
Raw,24282545,24288643000000,,,-1291005708123722496,0.0,4286.077339202166,4.766236131272645,8.53487138460954,3775,8,0.0,15,386796695357295,14,30.5,-471.6051025390625,0.049300000071525574,0,0.0,0.0,,,,,0,,1,,
Raw,24282545,24288643000000,,,-1291005708123722496,0.0,4286.077339202166,4.766236131272645,8.53487138460954,3775,9,0.0,15,386796688183198,19,27.6,-438.7583312988281,0.07559999823570251,0,0.0,0.0,,,,,0,,1,,
Raw,24282545,24288643000000,,,-1291005708123722496,0.0,4286.077339202166,4.766236131272645,8.53487138460954,3775,21,0.0,15,386796685259792,14,30.9,-567.7817993164062,0.034299999475479126,0,0.0,0.0,,,,,0,,1,,
Raw,24282546,24288643000000,,,-1291005708123722496,0.0,4286.077339202166,4.766236131272645,8.53487138460954,3775,22,0.0,15,386796681126492,27,24.9,198.25746154785156,0.6330000162124634,0,0.0,0.0,,,,,0,,1,,
Raw,24282546,24288643000000,,,-1291005708123722496,0.0,4286.077339202166,4.766236131272645,8.53487138460954,3775,27,0.0,15,386796700083459,16,29.4,-54.24138641357422,0.059700001031160355,0,0.0,0.0,,,,,0,,1,,
NMEA,$GPGSV,3,1,11,04,52,281,39,08,45,215,31,09,21,310,28,21,04,184,31*7E,1606994778107
NMEA,$GPGSV,3,2,11,22,02,213,25,27,84,185,29,03,04,233,,16,48,002,*7F,1606994778107
NMEA,$GPGSV,3,3,11,18,07,056,,26,31,043,,31,28,106,*4A,1606994778109
NMEA,$GLGSV,2,1,08,86,12,182,24,65,26,275,33,85,52,143,26,71,02,185,23*68,1606994778109
NMEA,$GLGSV,2,2,08,72,25,227,30,74,35,037,,73,09,082,,84,37,050,*60,1606994778111
NMEA,$GAGSV,1,1,0,*74,1606994778111
NMEA,$PQGSV,1,1,03,193,22,170,,194,60,040,,195,63,111,,0,5*63,1606994778111
NMEA,$PQGSV,1,1,0,*73,1606994778111
NMEA,$GNGSA,A,3,04,08,09,16,21,27,31,,,,,,1.3,1.0,0.8,1*3C,1606994778113
NMEA,$GNGSA,A,2,65,72,,,,,,,,,,,1.3,1.0,0.8,2*3E,1606994778114
NMEA,$GNVTG,,T,,M,0.0,N,0.0,K,A*3D,1606994778114
NMEA,$GNRMC,112619.00,A,2255.527931,N,12017.678065,E,0.0,,031220,2.8,W,A*17,1606994778115
NMEA,$GNGGA,112619.00,2255.527931,N,12017.678065,E,1,09,1.0,34.7,M,17.5,M,,*41,1606994778115
Fix,gps,22.925466,120.294634,52.118164,0.000000,7.504000,1606994780000
Raw,24283537,24289656000000,,,-1291005708123687936,0.0,4258.761648088694,1.8303227706198464,10.999851471070347,3776,22,0.0,207,51979702071650,40,21.9,-830.3004760742188,1.004499912261963,0,0.0,0.0,,,,,0,,3,,
Raw,24283538,24289656000000,,,-1291005708123687936,0.0,4258.761648088694,1.8303227706198464,10.999851471070347,3776,1,0.0,207,51979706410916,13,31.9,182.1627655029297,0.23280000686645508,0,0.0,0.0,,,,,0,,3,,
Raw,24283538,24289656000000,,,-1291005708123687936,0.0,4258.761648088694,1.8303227706198464,10.999851471070347,3776,21,0.0,207,51979712207090,31,23.7,-475.59405517578125,0.8694999814033508,0,0.0,0.0,,,,,0,,3,,
Raw,24283539,24289656000000,,,-1291005708123687936,0.0,4258.761648088694,1.8303227706198464,10.999851471070347,3776,7,0.0,207,51979698286116,27,24.5,679.197998046875,0.8285000324249268,0,0.0,0.0,,,,,0,,3,,
Raw,24283540,24289656000000,,,-1291005708123687936,0.0,4258.761648088694,1.8303227706198464,10.999851471070347,3776,8,0.0,207,51979706095418,16,29.4,570.5772094726562,0.2387000024318695,0,0.0,0.0,,,,,0,,3,,
Raw,24283541,24289656000000,,,-1291005708123687936,0.0,4258.761648088694,1.8303227706198464,10.999851471070347,3776,4,0.0,15,386797708852133,6,38.9,-85.12491607666016,0.023200001567602158,0,0.0,0.0,,,,,0,,1,,
Raw,24283541,24289656000000,,,-1291005708123687936,0.0,4258.761648088694,1.8303227706198464,10.999851471070347,3776,8,0.0,15,386797708324327,14,30.5,-470.8780517578125,0.03880000114440918,0,0.0,0.0,,,,,0,,1,,
Raw,24283542,24289656000000,,,-1291005708123687936,0.0,4258.761648088694,1.8303227706198464,10.999851471070347,3776,9,0.0,15,386797701150074,19,27.0,-438.0288391113281,0.09510000050067902,0,0.0,0.0,,,,,0,,1,,
Raw,24283542,24289656000000,,,-1291005708123687936,0.0,4258.761648088694,1.8303227706198464,10.999851471070347,3776,21,0.0,15,386797698227166,14,30.8,-567.082763671875,0.05380000174045563,0,0.0,0.0,,,,,0,,1,,
Raw,24283543,24289656000000,,,-1291005708123687936,0.0,4258.761648088694,1.8303227706198464,10.999851471070347,3776,22,0.0,15,386797694091223,31,23.7,198.8664093017578,0.67249995470047,0,0.0,0.0,,,,,0,,1,,
Raw,24283543,24289656000000,,,-1291005708123687936,0.0,4258.761648088694,1.8303227706198464,10.999851471070347,3776,27,0.0,15,386797713049096,16,29.0,-53.47090148925781,0.04920000210404396,0,0.0,0.0,,,,,0,,1,,
Raw,24283543,24289656000000,,,-1291005708123687936,0.0,4258.761648088694,1.8303227706198464,10.999851471070347,3776,31,0.0,15,386797702353749,35,22.8,376.48651123046875,0.7444999814033508,0,0.0,0.0,,,,,0,,1,,
NMEA,$GPGSV,3,1,11,04,52,281,39,08,45,215,31,09,21,310,27,21,04,184,31*71,1606994779106
NMEA,$GPGSV,3,2,11,22,02,213,24,27,84,185,29,31,28,106,23,03,04,233,*79,1606994779106
NMEA,$GPGSV,3,3,11,16,48,002,,18,07,056,,26,31,043,*4C,1606994779106
NMEA,$GLGSV,2,1,08,86,12,182,22,65,26,275,32,85,52,143,24,71,02,185,25*6B,1606994779108
NMEA,$GLGSV,2,2,08,72,25,227,29,74,35,037,,73,09,082,,84,37,050,*68,1606994779108
NMEA,$GAGSV,1,1,0,*74,1606994779109
NMEA,$PQGSV,1,1,03,193,22,170,,194,60,040,,195,63,111,,0,5*63,1606994779109
NMEA,$PQGSV,1,1,0,*73,1606994779109
NMEA,$GNGSA,A,3,04,08,09,16,21,27,31,,,,,,1.4,1.1,0.8,1*3A,1606994779110
NMEA,$GNGSA,A,2,65,72,,,,,,,,,,,1.4,1.1,0.8,2*38,1606994779111
NMEA,$GNVTG,,T,,M,0.0,N,0.0,K,A*3D,1606994779111
NMEA,$GNRMC,112620.00,A,2255.527931,N,12017.678067,E,0.0,,031220,2.8,W,A*1F,1606994779111
NMEA,$GNGGA,112620.00,2255.527931,N,12017.678067,E,1,09,1.1,34.6,M,17.5,M,,*49,1606994779112
Fix,gps,22.925466,120.294634,52.116943,0.000000,7.504000,1606994781000
Raw,24284580,24290649000000,,,-1291005708122728192,0.0,4243.48097294569,4.063020416794573,12.549199267775894,3777,22,0.0,207,51980694114603,35,22.4,-829.897705078125,0.9324999451637268,0,0.0,0.0,,,,,0,,3,,
Raw,24284580,24290649000000,,,-1291005708122728192,0.0,4243.48097294569,4.063020416794573,12.549199267775894,3777,1,0.0,207,51980698450504,12,32.3,183.6926727294922,0.2484000027179718,0,0.0,0.0,,,,,0,,3,,
Raw,24284580,24290649000000,,,-1291005708122728192,0.0,4243.48097294569,4.063020416794573,12.549199267775894,3777,21,0.0,207,51980704248798,27,24.8,-473.8187561035156,0.8075000047683716,0,0.0,0.0,,,,,0,,3,,
Raw,24284580,24290649000000,,,-1291005708122728192,0.0,4243.48097294569,4.063020416794573,12.549199267775894,3777,7,0.0,207,51980690324063,40,21.1,680.7018432617188,0.9864999651908875,0,0.0,0.0,,,,,0,,3,,
Raw,24284580,24290649000000,,,-1291005708122728192,0.0,4243.48097294569,4.063020416794573,12.549199267775894,3777,8,0.0,207,51980698133741,16,29.2,572.0604248046875,0.2567000091075897,0,0.0,0.0,,,,,0,,3,,
Raw,24284581,24290649000000,,,-1291005708122728192,0.0,4243.48097294569,4.063020416794573,12.549199267775894,3777,4,0.0,15,386798700892590,6,38.6,-83.59200286865234,0.041200000792741776,0,0.0,0.0,,,,,0,,1,,
Raw,24284581,24290649000000,,,-1291005708122728192,0.0,4243.48097294569,4.063020416794573,12.549199267775894,3777,8,0.0,15,386798700366029,14,30.5,-469.4245300292969,0.0568000003695488,0,0.0,0.0,,,,,0,,1,,
Raw,24284581,24290649000000,,,-1291005708122728192,0.0,4243.48097294569,4.063020416794573,12.549199267775894,3777,9,0.0,15,386798693191719,21,26.2,-436.5523681640625,0.11719999462366104,0,0.0,0.0,,,,,0,,1,,
Raw,24284581,24290649000000,,,-1291005708122728192,0.0,4243.48097294569,4.063020416794573,12.549199267775894,3777,21,0.0,15,386798690269194,16,29.7,-565.7832641601562,0.04470000043511391,0,0.0,0.0,,,,,0,,1,,
Raw,24284582,24290649000000,,,-1291005708122728192,0.0,4243.48097294569,4.063020416794573,12.549199267775894,3777,22,0.0,15,386798686130770,27,24.0,201.02622985839844,0.6604999899864197,0,0.0,0.0,,,,,0,,1,,
Raw,24284582,24290649000000,,,-1291005708122728192,0.0,4243.48097294569,4.063020416794573,12.549199267775894,3777,27,0.0,15,386798705089441,17,28.0,-51.96297073364258,0.04829999804496765,0,0.0,0.0,,,,,0,,1,,
Raw,24284582,24290649000000,,,-1291005708122728192,0.0,4243.48097294569,4.063020416794573,12.549199267775894,3777,31,0.0,15,386798694392731,40,21.7,376.9527282714844,0.7924999594688416,0,0.0,0.0,,,,,0,,1,,
NMEA,$GPGSV,3,1,11,04,52,281,39,08,45,215,31,09,21,310,26,21,04,184,30*71,1606994780104
NMEA,$GPGSV,3,2,11,22,02,213,24,27,84,185,28,31,28,106,22,03,04,233,*79,1606994780104
NMEA,$GPGSV,3,3,11,16,48,002,,18,07,056,,26,31,043,*4C,1606994780104
NMEA,$GLGSV,2,1,08,86,12,182,22,65,26,275,32,85,52,143,25,71,02,185,21*6E,1606994780104
NMEA,$GLGSV,2,2,08,72,25,227,29,74,35,037,,73,09,082,,84,37,050,*68,1606994780104
NMEA,$GAGSV,1,1,0,*74,1606994780104
NMEA,$PQGSV,1,1,03,193,22,170,,194,60,040,,195,63,111,,0,5*63,1606994780105
NMEA,$PQGSV,1,1,0,*73,1606994780105
NMEA,$GNGSA,A,3,04,08,09,21,27,31,,,,,,,1.4,1.1,0.8,1*3D,1606994780105
NMEA,$GNGSA,A,2,65,72,,,,,,,,,,,1.4,1.1,0.8,2*38,1606994780105
NMEA,$GNVTG,,T,,M,0.0,N,0.0,K,A*3D,1606994780105
NMEA,$GNRMC,112621.00,A,2255.527931,N,12017.678068,E,0.0,,031220,2.8,W,A*11,1606994780105
NMEA,$GNGGA,112621.00,2255.527931,N,12017.678068,E,1,08,1.1,34.6,M,17.5,M,,*46,1606994780106
Fix,gps,22.925466,120.294634,52.118530,0.000000,8.576000,1606994782000
Raw,24285564,24291660000000,,,-1291005708122466304,0.0,4244.539421051741,8.805738564098483,12.79944964027155,3778,22,0.0,207,51981704855474,35,22.0,-829.4855346679688,0.9174999594688416,0,0.0,0.0,,,,,0,,3,,
Raw,24285565,24291660000000,,,-1291005708122466304,0.0,4244.539421051741,8.805738564098483,12.79944964027155,3778,1,0.0,207,51981709188021,12,32.3,184.36756896972656,0.23489999771118164,0,0.0,0.0,,,,,0,,3,,
Raw,24285565,24291660000000,,,-1291005708122466304,0.0,4244.539421051741,8.805738564098483,12.79944964027155,3778,21,0.0,207,51981714988650,27,24.2,-472.8470458984375,0.8224999904632568,0,0.0,0.0,,,,,0,,3,,
Raw,24285566,24291660000000,,,-1291005708122466304,0.0,4244.539421051741,8.805738564098483,12.79944964027155,3778,7,0.0,207,51981701060003,46,20.7,680.9072875976562,1.062999963760376,0,0.0,0.0,,,,,0,,3,,
Raw,24285567,24291660000000,,,-1291005708122466304,0.0,4244.539421051741,8.805738564098483,12.79944964027155,3778,8,0.0,207,51981708869895,16,29.3,572.6205444335938,0.24170000851154327,0,0.0,0.0,,,,,0,,3,,
Raw,24285567,24291660000000,,,-1291005708122466304,0.0,4244.539421051741,8.805738564098483,12.79944964027155,3778,4,0.0,15,386799711631046,6,39.2,-82.9625015258789,0.02680000104010105,0,0.0,0.0,,,,,0,,1,,
Raw,24285567,24291660000000,,,-1291005708122466304,0.0,4244.539421051741,8.805738564098483,12.79944964027155,3778,8,0.0,15,386799711105812,13,31.0,-468.7734375,0.040300000458955765,0,0.0,0.0,,,,,0,,1,,
Raw,24285568,24291660000000,,,-1291005708122466304,0.0,4244.539421051741,8.805738564098483,12.79944964027155,3778,9,0.0,15,386799703931410,21,26.4,-435.9549865722656,0.1021999940276146,0,0.0,0.0,,,,,0,,1,,
Raw,24285568,24291660000000,,,-1291005708122466304,0.0,4244.539421051741,8.805738564098483,12.79944964027155,3778,21,0.0,15,386799701009253,14,30.2,-565.2935180664062,0.05829999968409538,0,0.0,0.0,,,,,0,,1,,
Raw,24285569,24291660000000,,,-1291005708122466304,0.0,4244.539421051741,8.805738564098483,12.79944964027155,3778,22,0.0,15,386799696868258,31,23.7,200.40777587890625,0.6754999756813049,0,0.0,0.0,,,,,0,,1,,
Raw,24285569,24291660000000,,,-1291005708122466304,0.0,4244.539421051741,8.805738564098483,12.79944964027155,3778,27,0.0,15,386799715827801,17,28.6,-51.24284744262695,0.0632999986410141,0,0.0,0.0,,,,,0,,1,,
Raw,24285570,24291660000000,,,-1291005708122466304,0.0,4244.539421051741,8.805738564098483,12.79944964027155,3778,31,0.0,15,386799705129506,40,21.5,377.4094543457031,0.7789999842643738,0,0.0,0.0,,,,,0,,1,,
NMEA,$GPGSV,3,1,11,04,52,281,39,08,45,215,31,09,21,310,26,21,04,184,30*71,1606994781115
NMEA,$GPGSV,3,2,11,22,02,213,24,27,84,185,29,31,28,106,22,03,04,233,*78,1606994781115
NMEA,$GPGSV,3,3,11,16,48,002,,18,07,056,,26,31,043,*4C,1606994781116
NMEA,$GLGSV,2,1,08,86,12,182,22,65,26,275,32,85,52,143,24,71,02,185,21*6F,1606994781117
NMEA,$GLGSV,2,2,08,72,25,227,29,74,35,037,,73,09,082,,84,37,050,*68,1606994781118
NMEA,$GAGSV,1,1,0,*74,1606994781118
NMEA,$PQGSV,1,1,03,193,22,170,,194,60,040,,195,63,111,,0,5*63,1606994781122
NMEA,$PQGSV,1,1,0,*73,1606994781125
NMEA,$GNGSA,A,3,04,08,09,21,27,31,,,,,,,1.4,1.1,0.8,1*3D,1606994781128
NMEA,$GNGSA,A,2,65,72,,,,,,,,,,,1.4,1.1,0.8,2*38,1606994781129
NMEA,$GNVTG,,T,,M,0.0,N,0.0,K,A*3D,1606994781130
NMEA,$GNRMC,112622.00,A,2255.527931,N,12017.678069,E,0.0,,031220,2.8,W,A*13,1606994781131
NMEA,$GNGGA,112622.00,2255.527931,N,12017.678069,E,1,08,1.1,34.6,M,17.5,M,,*44,1606994781132
Fix,gps,22.925466,120.294634,52.119568,0.000000,7.504000,1606994783000
Raw,24286587,24292654000000,,,-1291005708121564672,0.0,4247.881006449461,10.303747934687513,11.957416424856428,3779,22,0.0,207,51982697956756,35,22.5,-831.15283203125,0.9369999766349792,0,0.0,0.0,,,,,0,,3,,
Raw,24286587,24292654000000,,,-1291005708121564672,0.0,4247.881006449461,10.303747934687513,11.957416424856428,3779,1,0.0,207,51982702285811,12,32.3,183.73358154296875,0.25439998507499695,0,0.0,0.0,,,,,0,,3,,
Raw,24286587,24292654000000,,,-1291005708121564672,0.0,4247.881006449461,10.303747934687513,11.957416424856428,3779,21,0.0,207,51982708088541,27,24.4,-473.99627685546875,0.8134999871253967,0,0.0,0.0,,,,,0,,3,,
Raw,24286588,24292654000000,,,-1291005708121564672,0.0,4247.881006449461,10.303747934687513,11.957416424856428,3779,7,0.0,207,51982694156368,46,20.4,680.6177978515625,1.0525000095367432,0,0.0,0.0,,,,,0,,3,,
Raw,24286588,24292654000000,,,-1291005708121564672,0.0,4247.881006449461,10.303747934687513,11.957416424856428,3779,8,0.0,207,51982701966365,16,29.0,571.95458984375,0.2612000107765198,0,0.0,0.0,,,,,0,,3,,
Raw,24286588,24292654000000,,,-1291005708121564672,0.0,4247.881006449461,10.303747934687513,11.957416424856428,3779,4,0.0,15,386800704729703,6,39.0,-83.57306671142578,0.016300000250339508,0,0.0,0.0,,,,,0,,1,,
Raw,24286588,24292654000000,,,-1291005708121564672,0.0,4247.881006449461,10.303747934687513,11.957416424856428,3779,8,0.0,15,386800704205763,13,31.3,-469.4065856933594,0.02979999966919422,0,0.0,0.0,,,,,0,,1,,
Raw,24286588,24292654000000,,,-1291005708121564672,0.0,4247.881006449461,10.303747934687513,11.957416424856428,3779,9,0.0,15,386800697031199,24,25.9,-436.57415771484375,0.20489999651908875,0,0.0,0.0,,,,,0,,1,,
Raw,24286589,24292654000000,,,-1291005708121564672,0.0,4247.881006449461,10.303747934687513,11.957416424856428,3779,21,0.0,15,386800694109516,14,30.0,-566.0550537109375,0.04780000075697899,0,0.0,0.0,,,,,0,,1,,
Raw,24286589,24292654000000,,,-1291005708121564672,0.0,4247.881006449461,10.303747934687513,11.957416424856428,3779,22,0.0,15,386800689965948,31,23.2,199.50389099121094,0.7249999642372131,0,0.0,0.0,,,,,0,,1,,
Raw,24286589,24292654000000,,,-1291005708121564672,0.0,4247.881006449461,10.303747934687513,11.957416424856428,3779,27,0.0,15,386800708926306,16,29.5,-51.87355422973633,0.04170000180602074,0,0.0,0.0,,,,,0,,1,,
Raw,24286589,24292654000000,,,-1291005708121564672,0.0,4247.881006449461,10.303747934687513,11.957416424856428,3779,31,0.0,15,386800698226831,35,22.7,375.7158203125,0.7384999990463257,0,0.0,0.0,,,,,0,,1,,
NMEA,$GPGSV,3,1,11,04,52,281,39,08,45,215,31,09,21,310,26,21,04,184,30*71,1606994782105
NMEA,$GPGSV,3,2,11,22,02,213,23,27,84,185,30,31,28,106,23,03,04,233,*76,1606994782105
NMEA,$GPGSV,3,3,11,16,48,002,,18,07,056,,26,31,043,*4C,1606994782105
NMEA,$GLGSV,2,1,08,86,12,182,23,65,26,275,32,85,52,143,24,71,02,185,20*6F,1606994782106
NMEA,$GLGSV,2,2,08,72,25,227,29,74,35,037,,73,09,082,,84,37,050,*68,1606994782106
NMEA,$GAGSV,1,1,0,*74,1606994782106
NMEA,$PQGSV,1,1,03,193,22,170,,194,60,040,,195,63,111,,0,5*63,1606994782106
NMEA,$PQGSV,1,1,0,*73,1606994782106
NMEA,$GNGSA,A,3,04,08,09,21,27,31,,,,,,,1.4,1.1,0.8,1*3D,1606994782107
NMEA,$GNGSA,A,2,65,72,,,,,,,,,,,1.4,1.1,0.8,2*38,1606994782107
NMEA,$GNVTG,,T,,M,0.0,N,0.0,K,A*3D,1606994782107
NMEA,$GNRMC,112623.00,A,2255.527930,N,12017.678068,E,0.0,,031220,2.8,W,A*12,1606994782107
NMEA,$GNGGA,112623.00,2255.527930,N,12017.678068,E,1,08,1.1,34.7,M,17.5,M,,*44,1606994782107
Raw,24287533,24293645000000,,,-1291005708120625408,0.0,4246.276803314686,7.836326342383881,11.972972077718204,3780,1,0.0,207,51983692345853,13,31.6,184.54739379882812,0.24180001020431519,0,0.0,0.0,,,,,0,,3,,
Raw,24287534,24293645000000,,,-1291005708120625408,0.0,4246.276803314686,7.836326342383881,11.972972077718204,3780,21,0.0,207,51983698150638,24,25.5,-473.3096923828125,0.40639999508857727,0,0.0,0.0,,,,,0,,3,,
Raw,24287534,24293645000000,,,-1291005708120625408,0.0,4246.276803314686,7.836326342383881,11.972972077718204,3780,8,0.0,207,51983692025146,16,29.4,572.6484985351562,0.24770000576972961,0,0.0,0.0,,,,,0,,3,,
Raw,24287534,24293645000000,,,-1291005708120625408,0.0,4246.276803314686,7.836326342383881,11.972972077718204,3780,4,0.0,15,386801694790608,6,38.7,-82.7765884399414,0.03220000118017197,0,0.0,0.0,,,,,0,,1,,
Raw,24287534,24293645000000,,,-1291005708120625408,0.0,4246.276803314686,7.836326342383881,11.972972077718204,3780,8,0.0,15,386801694267969,16,29.6,-468.6253967285156,0.050700001418590546,0,0.0,0.0,,,,,0,,1,,
Raw,24287534,24293645000000,,,-1291005708120625408,0.0,4246.276803314686,7.836326342383881,11.972972077718204,3780,9,0.0,15,386801687093230,24,25.9,-435.7756652832031,0.1898999959230423,0,0.0,0.0,,,,,0,,1,,
Raw,24287535,24293645000000,,,-1291005708120625408,0.0,4246.276803314686,7.836326342383881,11.972972077718204,3780,21,0.0,15,386801684171994,16,29.3,-565.3502197265625,0.0357000008225441,0,0.0,0.0,,,,,0,,1,,
Raw,24287535,24293645000000,,,-1291005708120625408,0.0,4246.276803314686,7.836326342383881,11.972972077718204,3780,22,0.0,15,386801680026042,35,22.2,200.0937957763672,0.8014999628067017,0,0.0,0.0,,,,,0,,1,,
Raw,24287535,24293645000000,,,-1291005708120625408,0.0,4246.276803314686,7.836326342383881,11.972972077718204,3780,27,0.0,15,386801698987045,16,29.3,-51.04869842529297,0.056700002402067184,0,0.0,0.0,,,,,0,,1,,
Fix,gps,22.925465,120.294634,52.123779,0.000000,8.576000,1606994784000
NMEA,$GPGSV,3,1,10,04,52,281,39,08,45,215,30,09,21,310,26,21,04,184,29*79,1606994783105
NMEA,$GPGSV,3,2,10,22,02,213,22,27,84,185,29,03,04,233,,16,48,002,*79,1606994783107
NMEA,$GPGSV,3,3,10,18,07,056,,26,31,043,*74,1606994783113
NMEA,$GLGSV,2,1,06,65,26,275,32,85,52,143,26,72,25,227,29,74,35,037,*61,1606994783113
NMEA,$GLGSV,2,2,06,73,09,082,,84,37,050,*69,1606994783114
NMEA,$GAGSV,1,1,0,*74,1606994783114
NMEA,$PQGSV,1,1,03,193,22,170,,194,60,040,,195,63,111,,0,5*63,1606994783114
NMEA,$PQGSV,1,1,0,*73,1606994783114
NMEA,$GNGSA,A,3,04,08,09,21,27,,,,,,,,1.4,1.1,0.8,1*3F,1606994783116
NMEA,$GNGSA,A,2,65,72,,,,,,,,,,,1.4,1.1,0.8,2*38,1606994783116
NMEA,$GNVTG,,T,,M,0.0,N,0.0,K,A*3D,1606994783116
NMEA,$GNRMC,112624.00,A,2255.527929,N,12017.678065,E,0.0,,031220,2.8,W,A*10,1606994783116
NMEA,$GNGGA,112624.00,2255.527929,N,12017.678065,E,1,07,1.1,34.7,M,17.5,M,,*49,1606994783117
Fix,gps,22.925465,120.294634,52.125488,0.000000,7.504000,1606994785000
Raw,24288533,24294657000000,,,-1291005708119921408,0.0,4275.603219866753,10.209317328084525,11.016374978202714,3781,1,0.0,207,51984703641299,13,31.1,181.85000610351562,0.22830000519752502,0,0.0,0.0,,,,,0,,3,,
Raw,24288534,24294657000000,,,-1291005708119921408,0.0,4275.603219866753,10.209317328084525,11.016374978202714,3781,21,0.0,207,51984709448454,35,22.7,-475.5099792480469,0.9249999523162842,0,0.0,0.0,,,,,0,,3,,
Raw,24288535,24294657000000,,,-1291005708119921408,0.0,4275.603219866753,10.209317328084525,11.016374978202714,3781,8,0.0,207,51984703319318,19,27.8,569.9417724609375,0.2681000232696533,0,0.0,0.0,,,,,0,,3,,
Raw,24288536,24294657000000,,,-1291005708119921408,0.0,4275.603219866753,10.209317328084525,11.016374978202714,3781,3,0.0,15,386802692083691,40,21.6,310.0169372558594,0.7894999980926514,0,0.0,0.0,,,,,0,,1,,
Raw,24288536,24294657000000,,,-1291005708119921408,0.0,4275.603219866753,10.209317328084525,11.016374978202714,3781,4,0.0,15,386802706086973,6,39.6,-85.44425201416016,0.019300000742077827,0,0.0,0.0,,,,,0,,1,,
Raw,24288537,24294657000000,,,-1291005708119921408,0.0,4275.603219866753,10.209317328084525,11.016374978202714,3781,8,0.0,15,386802705565605,14,30.2,-471.2736511230469,0.034299999475479126,0,0.0,0.0,,,,,0,,1,,
Raw,24288538,24294657000000,,,-1291005708119921408,0.0,4275.603219866753,10.209317328084525,11.016374978202714,3781,9,0.0,15,386802698390799,17,28.0,-438.4933776855469,0.06780000030994415,0,0.0,0.0,,,,,0,,1,,
Raw,24288538,24294657000000,,,-1291005708119921408,0.0,4275.603219866753,10.209317328084525,11.016374978202714,3781,21,0.0,15,386802695470002,16,29.8,-568.0924682617188,0.05220000073313713,0,0.0,0.0,,,,,0,,1,,
Raw,24288539,24294657000000,,,-1291005708119921408,0.0,4275.603219866753,10.209317328084525,11.016374978202714,3781,27,0.0,15,386802710283386,14,30.5,-53.67835998535156,0.04179999977350235,0,0.0,0.0,,,,,0,,1,,
NMEA,$GPGSV,3,1,10,03,04,233,22,04,52,281,40,08,45,215,30,09,21,310,28*7D,1606994784105
NMEA,$GPGSV,3,2,10,21,04,184,30,27,84,185,31,16,48,002,,18,07,056,*73,1606994784105
NMEA,$GPGSV,3,3,10,26,31,043,,31,28,106,*76,1606994784106
NMEA,$GLGSV,2,1,08,65,26,275,31,85,52,143,23,72,25,227,28,74,35,037,*68,1606994784106
NMEA,$GLGSV,2,2,08,86,12,182,,73,09,082,,84,37,050,,71,02,185,*69,1606994784106
NMEA,$GAGSV,1,1,0,*74,1606994784107
NMEA,$PQGSV,1,1,03,193,22,170,,194,60,040,,195,63,111,,0,5*63,1606994784107
NMEA,$PQGSV,1,1,0,*73,1606994784107
NMEA,$GNGSA,A,3,04,08,09,21,27,31,,,,,,,1.4,1.1,0.8,1*3D,1606994784108
NMEA,$GNGSA,A,2,65,72,,,,,,,,,,,1.4,1.1,0.8,2*38,1606994784108
NMEA,$GNVTG,,T,,M,0.0,N,0.0,K,A*3D,1606994784109
NMEA,$GNRMC,112625.00,A,2255.527929,N,12017.678062,E,0.0,,031220,2.8,W,A*16,1606994784109
NMEA,$GNGGA,112625.00,2255.527929,N,12017.678062,E,1,08,1.1,34.7,M,17.5,M,,*40,1606994784109
Fix,gps,22.925465,120.294634,52.124268,0.000000,7.504000,1606994786000
Raw,24289533,24295651000000,,,-1291005708119040256,0.0,4260.999616235495,0.990887035097523,11.923837369090437,3782,1,0.0,207,51985696759701,17,28.3,180.0132293701172,0.2648000121116638,0,0.0,0.0,,,,,0,,3,,
Raw,24289534,24295651000000,,,-1291005708119040256,0.0,4260.999616235495,0.990887035097523,11.923837369090437,3782,21,0.0,207,51985702568981,27,24.7,-478.44390869140625,0.8044999837875366,0,0.0,0.0,,,,,0,,3,,
Raw,24289534,24295651000000,,,-1291005708119040256,0.0,4260.999616235495,0.990887035097523,11.923837369090437,3782,8,0.0,207,51985696436422,11,33.2,568.01904296875,0.24300000071525574,0,0.0,0.0,,,,,0,,3,,
Raw,24289535,24295651000000,,,-1291005708119040256,0.0,4260.999616235495,0.990887035097523,11.923837369090437,3782,3,0.0,15,386803685201902,24,25.7,307.19970703125,0.18690000474452972,0,0.0,0.0,,,,,0,,1,,
Raw,24289535,24295651000000,,,-1291005708119040256,0.0,4260.999616235495,0.990887035097523,11.923837369090437,3782,4,0.0,15,386803699206240,6,38.0,-87.24369812011719,0.03970000147819519,0,0.0,0.0,,,,,0,,1,,
Raw,24289536,24295651000000,,,-1291005708119040256,0.0,4260.999616235495,0.990887035097523,11.923837369090437,3782,8,0.0,15,386803698686116,21,26.6,-473.1375732421875,0.12469999492168427,0,0.0,0.0,,,,,0,,1,,
Raw,24289537,24295651000000,,,-1291005708119040256,0.0,4260.999616235495,0.990887035097523,11.923837369090437,3782,9,0.0,15,386803691511294,21,26.9,-440.0903015136719,0.11419999599456787,0,0.0,0.0,,,,,0,,1,,
Raw,24289537,24295651000000,,,-1291005708119040256,0.0,4260.999616235495,0.990887035097523,11.923837369090437,3782,21,0.0,15,386803688590893,17,28.8,-570.2046508789062,0.052799999713897705,0,0.0,0.0,,,,,0,,1,,
Raw,24289538,24295651000000,,,-1291005708119040256,0.0,4260.999616235495,0.990887035097523,11.923837369090437,3782,27,0.0,15,386803703402537,13,31.3,-55.56745147705078,0.028300000354647636,0,0.0,0.0,,,,,0,,1,,
NMEA,$GPGSV,3,1,11,03,04,233,26,04,52,281,38,08,45,215,27,09,21,310,27*7E,1606994785104
NMEA,$GPGSV,3,2,11,21,04,184,29,27,84,185,31,16,48,002,,18,07,056,*7A,1606994785105
NMEA,$GPGSV,3,3,11,22,02,213,,26,31,043,,31,28,106,*45,1606994785107
NMEA,$GLGSV,2,1,08,65,26,275,28,85,52,143,25,72,25,227,33,74,35,037,*6C,1606994785107
NMEA,$GLGSV,2,2,08,86,12,182,,73,09,082,,84,37,050,,71,02,185,*69,1606994785108
NMEA,$GAGSV,1,1,0,*74,1606994785108
NMEA,$PQGSV,1,1,03,193,22,170,,194,60,040,,195,63,111,,0,5*63,1606994785108
NMEA,$PQGSV,1,1,0,*73,1606994785108
NMEA,$GNGSA,A,3,04,08,09,21,27,31,,,,,,,1.4,1.1,0.8,1*3D,1606994785109
NMEA,$GNGSA,A,2,65,72,,,,,,,,,,,1.4,1.1,0.8,2*38,1606994785109
NMEA,$GNVTG,,T,,M,0.0,N,0.0,K,A*3D,1606994785110
NMEA,$GNRMC,112626.00,A,2255.527929,N,12017.678060,E,0.0,,031220,2.8,W,A*17,1606994785110
NMEA,$GNGGA,112626.00,2255.527929,N,12017.678060,E,1,08,1.1,34.7,M,17.5,M,,*41,1606994785110
Fix,gps,22.925465,120.294634,52.127319,0.000000,6.432000,1606994787000
Raw,24290560,24296663000000,,,-1291005708119030016,0.0,4243.381787091494,-5.814845394632805,12.938650465578714,3783,1,0.0,207,51986708748641,16,29.8,179.82034301757812,0.24170000851154327,0,0.0,0.0,,,,,0,,3,,
Raw,24290560,24296663000000,,,-1291005708119030016,0.0,4243.381787091494,-5.814845394632805,12.938650465578714,3783,21,0.0,207,51986714560157,31,23.7,-478.2476806640625,0.872499942779541,0,0.0,0.0,,,,,0,,3,,
Raw,24290561,24296663000000,,,-1291005708119030016,0.0,4243.381787091494,-5.814845394632805,12.938650465578714,3783,8,0.0,207,51986708424067,16,29.1,567.6541137695312,0.24170000851154327,0,0.0,0.0,,,,,0,,3,,
Raw,24290561,24296663000000,,,-1291005708119030016,0.0,4243.381787091494,-5.814845394632805,12.938650465578714,3783,3,0.0,15,386804697190384,24,25.3,306.8938293457031,0.20489999651908875,0,0.0,0.0,,,,,0,,1,,
Raw,24290562,24296663000000,,,-1291005708119030016,0.0,4243.381787091494,-5.814845394632805,12.938650465578714,3783,4,0.0,15,386804711196057,6,38.5,-87.5469970703125,0.027700001373887062,0,0.0,0.0,,,,,0,,1,,
Raw,24290562,24296663000000,,,-1291005708119030016,0.0,4243.381787091494,-5.814845394632805,12.938650465578714,3783,8,0.0,15,386804710677326,24,25.9,-473.5117492675781,0.19439999759197235,0,0.0,0.0,,,,,0,,1,,
Raw,24290563,24296663000000,,,-1291005708119030016,0.0,4243.381787091494,-5.814845394632805,12.938650465578714,3783,9,0.0,15,386804703502301,19,27.0,-440.6599426269531,0.06809999793767929,0,0.0,0.0,,,,,0,,1,,
Raw,24290563,24296663000000,,,-1291005708119030016,0.0,4243.381787091494,-5.814845394632805,12.938650465578714,3783,21,0.0,15,386804700582309,16,29.4,-570.615478515625,0.059700001031160355,0,0.0,0.0,,,,,0,,1,,
Raw,24290564,24296663000000,,,-1291005708119030016,0.0,4243.381787091494,-5.814845394632805,12.938650465578714,3783,27,0.0,15,386804715392265,13,31.3,-55.7922477722168,0.046300001442432404,0,0.0,0.0,,,,,0,,1,,
NMEA,$GPGSV,3,1,11,03,04,233,25,04,52,281,39,08,45,215,26,09,21,310,27*7D,1606994786111
NMEA,$GPGSV,3,2,11,21,04,184,29,27,84,185,31,16,48,002,,18,07,056,*7A,1606994786112
NMEA,$GPGSV,3,3,11,22,02,213,,26,31,043,,31,28,106,*45,1606994786114
NMEA,$GLGSV,2,1,08,65,26,275,30,85,52,143,24,72,25,227,29,74,35,037,*6F,1606994786114
NMEA,$GLGSV,2,2,08,86,12,182,,73,09,082,,84,37,050,,71,02,185,*69,1606994786119
NMEA,$GAGSV,1,1,0,*74,1606994786120
NMEA,$PQGSV,1,1,03,193,22,170,,194,60,040,,195,63,111,,0,5*63,1606994786121
NMEA,$PQGSV,1,1,0,*73,1606994786124
NMEA,$GNGSA,A,3,04,08,09,21,27,31,,,,,,,1.4,1.1,0.8,1*3D,1606994786128
NMEA,$GNGSA,A,2,65,72,,,,,,,,,,,1.4,1.1,0.8,2*38,1606994786129
NMEA,$GNVTG,,T,,M,0.0,N,0.0,K,A*3D,1606994786130
NMEA,$GNRMC,112627.00,A,2255.527928,N,12017.678056,E,0.0,,031220,2.8,W,A*12,1606994786130
NMEA,$GNGGA,112627.00,2255.527928,N,12017.678056,E,1,08,1.1,34.7,M,17.5,M,,*44,1606994786131
Raw,24291655,24297656000000,,,-1291005708118872576,0.0,4238.869529217482,-7.045706309290235,13.57015191641616,3784,1,0.0,207,51987701590633,14,30.8,180.64744567871094,0.2583000063896179,0,0.0,0.0,,,,,0,,3,,
Raw,24291659,24297656000000,,,-1291005708118872576,0.0,4238.869529217482,-7.045706309290235,13.57015191641616,3784,21,0.0,207,51987707404170,24,25.2,-477.18267822265625,0.38989999890327454,0,0.0,0.0,,,,,0,,3,,
Raw,24291663,24297656000000,,,-1291005708118872576,0.0,4238.869529217482,-7.045706309290235,13.57015191641616,3784,8,0.0,207,51987701264755,14,30.9,568.4757080078125,0.2583000063896179,0,0.0,0.0,,,,,0,,3,,
Raw,24291665,24297656000000,,,-1291005708118872576,0.0,4238.869529217482,-7.045706309290235,13.57015191641616,3784,3,0.0,15,386805690031881,19,27.8,307.8382568359375,0.07860000431537628,0,0.0,0.0,,,,,0,,1,,
Raw,24291668,24297656000000,,,-1291005708118872576,0.0,4238.869529217482,-7.045706309290235,13.57015191641616,3784,4,0.0,15,386805704038932,6,39.0,-86.65982055664062,0.016300000250339508,0,0.0,0.0,,,,,0,,1,,
Raw,24291670,24297656000000,,,-1291005708118872576,0.0,4238.869529217482,-7.045706309290235,13.57015191641616,3784,8,0.0,15,386805703521414,21,26.0,-472.7041015625,0.1021999940276146,0,0.0,0.0,,,,,0,,1,,
Raw,24291673,24297656000000,,,-1291005708118872576,0.0,4238.869529217482,-7.045706309290235,13.57015191641616,3784,9,0.0,15,386805696346330,21,26.5,-439.796142578125,0.1216999962925911,0,0.0,0.0,,,,,0,,1,,
Raw,24291675,24297656000000,,,-1291005708118872576,0.0,4238.869529217482,-7.045706309290235,13.57015191641616,3784,16,0.0,15,386805703842934,46,20.8,233.1097412109375,0.8359999656677246,0,0.0,0.0,,,,,0,,1,,
Raw,24291677,24297656000000,,,-1291005708118872576,0.0,4238.869529217482,-7.045706309290235,13.57015191641616,3784,21,0.0,15,386805693426787,16,29.1,-569.8798828125,0.04920000210404396,0,0.0,0.0,,,,,0,,1,,
Raw,24291680,24297656000000,,,-1291005708118872576,0.0,4238.869529217482,-7.045706309290235,13.57015191641616,3784,22,0.0,15,386805689270395,35,22.1,196.69705200195312,0.7849999666213989,0,0.0,0.0,,,,,0,,1,,
Raw,24291681,24297656000000,,,-1291005708118872576,0.0,4238.869529217482,-7.045706309290235,13.57015191641616,3784,27,0.0,15,386805708235053,14,30.9,-54.86527633666992,0.03880000114440918,0,0.0,0.0,,,,,0,,1,,
Fix,gps,22.925465,120.294634,52.130249,0.000000,6.432000,1606994788000
NMEA,$GPGSV,3,1,11,03,04,233,28,04,52,281,39,08,45,215,26,09,21,310,27*70,1606994787113
NMEA,$GPGSV,3,2,11,16,48,002,21,21,04,184,29,22,02,213,22,27,84,185,31*76,1606994787113
NMEA,$GPGSV,3,3,11,18,07,056,,26,31,043,,31,28,106,*4A,1606994787114
NMEA,$GLGSV,2,1,08,65,26,275,31,85,52,143,25,72,25,227,31,74,35,037,*66,1606994787115
NMEA,$GLGSV,2,2,08,86,12,182,,73,09,082,,84,37,050,,71,02,185,*69,1606994787115
NMEA,$GAGSV,1,1,0,*74,1606994787119
NMEA,$PQGSV,1,1,03,193,22,170,,194,60,040,,195,63,111,,0,5*63,1606994787121
NMEA,$PQGSV,1,1,0,*73,1606994787121
NMEA,$GNGSA,A,3,04,08,09,21,27,31,,,,,,,1.3,1.0,0.8,1*3B,1606994787124
NMEA,$GNGSA,A,2,65,72,,,,,,,,,,,1.3,1.0,0.8,2*3E,1606994787125
NMEA,$GNVTG,,T,,M,0.0,N,0.0,K,A*3D,1606994787126
NMEA,$GNRMC,112628.00,A,2255.527928,N,12017.678053,E,0.0,,031220,2.8,W,A*18,1606994787127
NMEA,$GNGGA,112628.00,2255.527928,N,12017.678053,E,1,08,1.0,34.7,M,17.5,M,,*4F,1606994787127
Raw,24292549,24298648000000,,,-1291005708118433024,0.0,4241.845104843378,-4.559883954303099,13.84841359796588,3785,1,0.0,207,51988693150342,16,29.6,181.494873046875,0.2492000013589859,0,0.0,0.0,,,,,0,,3,,
Raw,24292552,24298648000000,,,-1291005708118433024,0.0,4241.845104843378,-4.559883954303099,13.84841359796588,3785,21,0.0,207,51988698965980,27,24.5,-476.0519104003906,0.8285000324249268,0,0.0,0.0,,,,,0,,3,,
Raw,24292552,24298648000000,,,-1291005708118433024,0.0,4241.845104843378,-4.559883954303099,13.84841359796588,3785,8,0.0,207,51988692823173,16,29.7,569.226806640625,0.24770000576972961,0,0.0,0.0,,,,,0,,3,,
Raw,24292553,24298648000000,,,-1291005708118433024,0.0,4241.845104843378,-4.559883954303099,13.84841359796588,3785,3,0.0,15,386806681591233,21,26.3,308.5324401855469,0.12919999659061432,0,0.0,0.0,,,,,0,,1,,
Raw,24292553,24298648000000,,,-1291005708118433024,0.0,4241.845104843378,-4.559883954303099,13.84841359796588,3785,4,0.0,15,386806695599571,6,38.8,-85.87263488769531,0.03370000049471855,0,0.0,0.0,,,,,0,,1,,
Raw,24292554,24298648000000,,,-1291005708118433024,0.0,4241.845104843378,-4.559883954303099,13.84841359796588,3785,8,0.0,15,386806695083379,27,24.9,-472.0710144042969,0.6240000128746033,0,0.0,0.0,,,,,0,,1,,
Raw,24292555,24298648000000,,,-1291005708118433024,0.0,4241.845104843378,-4.559883954303099,13.84841359796588,3785,9,0.0,15,386806687908112,19,27.4,-439.0719299316406,0.07410000264644623,0,0.0,0.0,,,,,0,,1,,
Raw,24292555,24298648000000,,,-1291005708118433024,0.0,4241.845104843378,-4.559883954303099,13.84841359796588,3785,16,0.0,15,386806695402512,46,20.9,233.9280242919922,0.8539999723434448,0,0.0,0.0,,,,,0,,1,,
Raw,24292556,24298648000000,,,-1291005708118433024,0.0,4241.845104843378,-4.559883954303099,13.84841359796588,3785,21,0.0,15,386806684989016,16,29.9,-569.1981201171875,0.0357000008225441,0,0.0,0.0,,,,,0,,1,,
Raw,24292556,24298648000000,,,-1291005708118433024,0.0,4241.845104843378,-4.559883954303099,13.84841359796588,3785,22,0.0,15,386806680830227,35,22.4,195.7265625,0.8014999628067017,0,0.0,0.0,,,,,0,,1,,
Raw,24292557,24298648000000,,,-1291005708118433024,0.0,4241.845104843378,-4.559883954303099,13.84841359796588,3785,27,0.0,15,386806699795590,16,29.9,-54.13111114501953,0.05820000171661377,0,0.0,0.0,,,,,0,,1,,
Fix,gps,22.925465,120.294634,52.133179,0.000000,6.432000,1606994789000
NMEA,$GPGSV,3,1,11,03,04,233,26,04,52,281,39,08,45,215,25,09,21,310,27*7D,1606994788111
NMEA,$GPGSV,3,2,11,16,48,002,21,21,04,184,30,22,02,213,22,27,84,185,30*7F,1606994788117
NMEA,$GPGSV,3,3,11,18,07,056,,26,31,043,,31,28,106,*4A,1606994788118
NMEA,$GLGSV,2,1,08,65,26,275,30,85,52,143,25,72,25,227,30,74,35,037,*66,1606994788119
NMEA,$GLGSV,2,2,08,86,12,182,,73,09,082,,84,37,050,,71,02,185,*69,1606994788120
NMEA,$GAGSV,1,1,0,*74,1606994788122
NMEA,$PQGSV,1,1,03,193,22,170,,194,60,040,,195,63,111,,0,5*63,1606994788123
NMEA,$PQGSV,1,1,0,*73,1606994788123
NMEA,$GNGSA,A,3,04,08,09,16,21,27,31,,,,,,1.6,1.4,0.8,1*3D,1606994788124
NMEA,$GNGSA,A,2,65,72,,,,,,,,,,,1.6,1.4,0.8,2*3F,1606994788127
NMEA,$GNVTG,,T,,M,0.0,N,0.0,K,A*3D,1606994788127
NMEA,$GNRMC,112629.00,A,2255.527928,N,12017.678051,E,0.0,,031220,2.8,W,A*1B,1606994788127
NMEA,$GNGGA,112629.00,2255.527928,N,12017.678051,E,1,09,1.4,34.7,M,17.5,M,,*49,1606994788127
Fix,gps,22.925465,120.294634,52.133057,0.000000,7.504000,1606994790000
Raw,24293562,24299660000000,,,-1291005708118347264,0.0,4245.612304657698,-2.436017822810145,13.965415011515189,3786,1,0.0,207,51989705064294,13,31.3,181.4827117919922,0.2313000112771988,0,0.0,0.0,,,,,0,,3,,
Raw,24293562,24299660000000,,,-1291005708118347264,0.0,4245.612304657698,-2.436017822810145,13.965415011515189,3786,21,0.0,207,51989710882315,31,23.0,-475.8089904785156,0.8664999604225159,0,0.0,0.0,,,,,0,,3,,
Raw,24293563,24299660000000,,,-1291005708118347264,0.0,4245.612304657698,-2.436017822810145,13.965415011515189,3786,8,0.0,207,51989704735773,17,28.6,569.1731567382812,0.2468000054359436,0,0.0,0.0,,,,,0,,3,,
Raw,24293564,24299660000000,,,-1291005708118347264,0.0,4245.612304657698,-2.436017822810145,13.965415011515189,3786,3,0.0,15,386807693504694,35,22.7,309.12255859375,0.7310000061988831,0,0.0,0.0,,,,,0,,1,,
Raw,24293564,24299660000000,,,-1291005708118347264,0.0,4245.612304657698,-2.436017822810145,13.965415011515189,3786,4,0.0,15,386807707514355,6,38.7,-85.86827850341797,0.021700000390410423,0,0.0,0.0,,,,,0,,1,,
Raw,24293565,24299660000000,,,-1291005708118347264,0.0,4245.612304657698,-2.436017822810145,13.965415011515189,3786,8,0.0,15,386807706999449,27,24.9,-472.0520324707031,0.6105000376701355,0,0.0,0.0,,,,,0,,1,,
Raw,24293565,24299660000000,,,-1291005708118347264,0.0,4245.612304657698,-2.436017822810145,13.965415011515189,3786,9,0.0,15,386807699824142,27,24.5,-439.1026306152344,0.6300000548362732,0,0.0,0.0,,,,,0,,1,,
Raw,24293566,24299660000000,,,-1291005708118347264,0.0,4245.612304657698,-2.436017822810145,13.965415011515189,3786,16,0.0,15,386807707316283,40,21.2,234.7557830810547,0.8420000076293945,0,0.0,0.0,,,,,0,,1,,
Raw,24293567,24299660000000,,,-1291005708118347264,0.0,4245.612304657698,-2.436017822810145,13.965415011515189,3786,21,0.0,15,386807696905471,17,28.9,-569.3833618164062,0.06480000168085098,0,0.0,0.0,,,,,0,,1,,
Raw,24293567,24299660000000,,,-1291005708118347264,0.0,4245.612304657698,-2.436017822810145,13.965415011515189,3786,22,0.0,15,386807692744102,46,20.1,194.38497924804688,0.9194999933242798,0,0.0,0.0,,,,,0,,1,,
Raw,24293568,24299660000000,,,-1291005708118347264,0.0,4245.612304657698,-2.436017822810145,13.965415011515189,3786,27,0.0,15,386807711710270,14,30.5,-54.078895568847656,0.043299999088048935,0,0.0,0.0,,,,,0,,1,,
NMEA,$GPGSV,3,1,11,03,04,233,23,04,52,281,39,08,45,215,25,09,21,310,25*7A,1606994789115
NMEA,$GPGSV,3,2,11,16,48,002,21,21,04,184,29,22,02,213,20,27,84,185,31*74,1606994789116
NMEA,$GPGSV,3,3,11,18,07,056,,26,31,043,,31,28,106,*4A,1606994789116
NMEA,$GLGSV,2,1,08,65,26,275,31,85,52,143,23,72,25,227,29,74,35,037,*69,1606994789121
NMEA,$GLGSV,2,2,08,86,12,182,,73,09,082,,84,37,050,,71,02,185,*69,1606994789122
NMEA,$GAGSV,1,1,0,*74,1606994789124
NMEA,$PQGSV,1,1,03,193,22,170,,194,60,040,,195,63,111,,0,5*63,1606994789126
NMEA,$PQGSV,1,1,0,*73,1606994789128
NMEA,$GNGSA,A,3,04,08,09,16,21,27,,,,,,,1.6,1.4,0.8,1*3F,1606994789131
NMEA,$GNGSA,A,2,65,72,,,,,,,,,,,1.6,1.4,0.8,2*3F,1606994789132
NMEA,$GNVTG,,T,,M,0.0,N,0.0,K,A*3D,1606994789132
NMEA,$GNRMC,112630.00,A,2255.527928,N,12017.678048,E,0.0,,031220,2.8,W,A*1B,1606994789133
NMEA,$GNGGA,112630.00,2255.527928,N,12017.678048,E,1,08,1.4,34.7,M,17.5,M,,*48,1606994789134
Fix,gps,22.925465,120.294634,52.137329,0.000000,7.504000,1606994791000
Raw,24294560,24300652000000,,,-1291005708118084352,0.0,4257.517401129007,-3.125326696149124,14.083318271196669,3787,1,0.0,207,51990696800818,14,30.7,181.8533477783203,0.2508000135421753,0,0.0,0.0,,,,,0,,3,,
Raw,24294561,24300652000000,,,-1291005708118084352,0.0,4257.517401129007,-3.125326696149124,14.083318271196669,3787,21,0.0,207,51990702621176,31,23.5,-475.4071960449219,0.8544999361038208,0,0.0,0.0,,,,,0,,3,,
Raw,24294561,24300652000000,,,-1291005708118084352,0.0,4257.517401129007,-3.125326696149124,14.083318271196669,3787,7,0.0,207,51990688657907,53,19.7,677.0029907226562,1.1134999990463257,0,0.0,0.0,,,,,0,,3,,
Raw,24294562,24300652000000,,,-1291005708118084352,0.0,4257.517401129007,-3.125326696149124,14.083318271196669,3787,8,0.0,207,51990696471058,14,30.2,569.4549560546875,0.2508000135421753,0,0.0,0.0,,,,,0,,3,,
Raw,24294563,24300652000000,,,-1291005708118084352,0.0,4257.517401129007,-3.125326696149124,14.083318271196669,3787,4,0.0,15,386808699251816,6,39.0,-85.459716796875,0.03880000114440918,0,0.0,0.0,,,,,0,,1,,
Raw,24294563,24300652000000,,,-1291005708118084352,0.0,4257.517401129007,-3.125326696149124,14.083318271196669,3787,8,0.0,15,386808698738189,27,24.0,-471.6238708496094,0.6784999966621399,0,0.0,0.0,,,,,0,,1,,
Raw,24294564,24300652000000,,,-1291005708118084352,0.0,4257.517401129007,-3.125326696149124,14.083318271196669,3787,9,0.0,15,386808691562751,21,26.3,-438.6082458496094,0.11419999599456787,0,0.0,0.0,,,,,0,,1,,
Raw,24294565,24300652000000,,,-1291005708118084352,0.0,4257.517401129007,-3.125326696149124,14.083318271196669,3787,21,0.0,15,386808688644485,16,29.7,-569.1661376953125,0.04170000180602074,0,0.0,0.0,,,,,0,,1,,
Raw,24294565,24300652000000,,,-1291005708118084352,0.0,4257.517401129007,-3.125326696149124,14.083318271196669,3787,27,0.0,15,386808703447597,14,30.1,-53.631526947021484,0.031300000846385956,0,0.0,0.0,,,,,0,,1,,
NMEA,$GPGSV,2,1,08,04,52,281,39,08,45,215,24,09,21,310,26,21,04,184,30*7C,1606994790111
NMEA,$GPGSV,2,2,08,27,84,185,30,18,07,056,,26,31,043,,31,28,106,*74,1606994790118
NMEA,$GLGSV,2,1,08,65,26,275,31,85,52,143,24,71,02,185,20,72,25,227,30*6D,1606994790119
NMEA,$GLGSV,2,2,08,74,35,037,,86,12,182,,73,09,082,,84,37,050,*60,1606994790119
NMEA,$GAGSV,1,1,0,*74,1606994790122
NMEA,$PQGSV,1,1,03,193,22,170,,194,60,040,,195,63,111,,0,5*63,1606994790123
NMEA,$PQGSV,1,1,0,*73,1606994790124
NMEA,$GNGSA,A,3,04,08,09,21,27,,,,,,,,1.6,1.4,0.8,1*38,1606994790126
NMEA,$GNGSA,A,2,65,72,,,,,,,,,,,1.6,1.4,0.8,2*3F,1606994790127
NMEA,$GNVTG,,T,,M,0.0,N,0.0,K,A*3D,1606994790128
NMEA,$GNRMC,112631.00,A,2255.527929,N,12017.678045,E,0.0,,031220,2.8,W,A*16,1606994790129
NMEA,$GNGGA,112631.00,2255.527929,N,12017.678045,E,1,07,1.4,34.7,M,17.5,M,,*4A,1606994790130
Raw,24295520,24301665000000,,,-1291005708117549312,0.0,4264.14655521512,-2.225827431647136,14.146604965646281,3788,1,0.0,207,51991709264802,16,29.9,182.78329467773438,0.24320000410079956,0,0.0,0.0,,,,,0,,3,,
Raw,24295521,24301665000000,,,-1291005708117549312,0.0,4264.14655521512,-2.225827431647136,14.146604965646281,3788,21,0.0,207,51991715087103,35,22.8,-474.6316833496094,0.9339999556541443,0,0.0,0.0,,,,,0,,3,,
Raw,24295521,24301665000000,,,-1291005708117549312,0.0,4264.14655521512,-2.225827431647136,14.146604965646281,3788,8,0.0,207,51991708933639,16,29.6,570.2892456054688,0.24170000851154327,0,0.0,0.0,,,,,0,,3,,
Raw,24295521,24301665000000,,,-1291005708117549312,0.0,4264.14655521512,-2.225827431647136,14.146604965646281,3788,4,0.0,15,386809711716679,6,38.9,-84.59224700927734,0.027700001373887062,0,0.0,0.0,,,,,0,,1,,
Raw,24295522,24301665000000,,,-1291005708117549312,0.0,4264.14655521512,-2.225827431647136,14.146604965646281,3788,8,0.0,15,386809711204321,35,22.8,-470.5677185058594,0.7279999852180481,0,0.0,0.0,,,,,0,,1,,
Raw,24295522,24301665000000,,,-1291005708117549312,0.0,4264.14655521512,-2.225827431647136,14.146604965646281,3788,9,0.0,15,386809704028727,24,25.6,-437.89703369140625,0.18540000915527344,0,0.0,0.0,,,,,0,,1,,
Raw,24295522,24301665000000,,,-1291005708117549312,0.0,4264.14655521512,-2.225827431647136,14.146604965646281,3788,16,0.0,15,386809711516373,31,23.2,234.2610321044922,0.7279999852180481,0,0.0,0.0,,,,,0,,1,,
Raw,24295523,24301665000000,,,-1291005708117549312,0.0,4264.14655521512,-2.225827431647136,14.146604965646281,3788,21,0.0,15,386809701111005,16,29.6,-568.4014282226562,0.06120000034570694,0,0.0,0.0,,,,,0,,1,,
Raw,24295523,24301665000000,,,-1291005708117549312,0.0,4264.14655521512,-2.225827431647136,14.146604965646281,3788,27,0.0,15,386809715912412,16,29.2,-52.846649169921875,0.05220000073313713,0,0.0,0.0,,,,,0,,1,,
Fix,gps,22.925465,120.294634,52.139038,0.000000,8.576000,1606994792000
NMEA,$GPGSV,3,1,11,04,52,281,39,08,45,215,23,09,21,310,26,16,48,002,23*73,1606994791104
NMEA,$GPGSV,3,2,11,21,04,184,30,27,84,185,29,03,04,233,,18,07,056,*77,1606994791105
NMEA,$GPGSV,3,3,11,22,02,213,,26,31,043,,31,28,106,*45,1606994791106
NMEA,$GLGSV,2,1,07,65,26,275,30,85,52,143,23,72,25,227,30,74,35,037,*6F,1606994791107
NMEA,$GLGSV,2,2,07,86,12,182,,73,09,082,,84,37,050,*5E,1606994791107
NMEA,$GAGSV,1,1,0,*74,1606994791108
NMEA,$PQGSV,1,1,03,193,22,170,,194,60,040,,195,63,111,,0,5*63,1606994791108
NMEA,$PQGSV,1,1,0,*73,1606994791109
NMEA,$GNGSA,A,3,04,08,09,16,21,27,,,,,,,1.6,1.4,0.8,1*3F,1606994791110
NMEA,$GNGSA,A,2,65,72,,,,,,,,,,,1.6,1.4,0.8,2*3F,1606994791110
NMEA,$GNVTG,,T,,M,0.0,N,0.0,K,A*3D,1606994791110
NMEA,$GNRMC,112632.00,A,2255.527929,N,12017.678044,E,0.0,,031220,2.8,W,A*14,1606994791110
NMEA,$GNGGA,112632.00,2255.527929,N,12017.678044,E,1,08,1.4,34.7,M,17.5,M,,*47,1606994791110
Fix,gps,22.925466,120.294634,52.138489,0.000000,9.648001,1606994793000
Raw,24296560,24302657000000,,,-1291005708116827136,0.0,4292.383324354887,0.2386339093794559,12.224731094052245,3789,1,0.0,207,51992700541967,13,31.3,183.55149841308594,0.25380000472068787,0,0.0,0.0,,,,,0,,3,,
Raw,24296560,24302657000000,,,-1291005708116827136,0.0,4292.383324354887,0.2386339093794559,12.224731094052245,3789,21,0.0,207,51992706366621,31,23.4,-475.00543212890625,0.8604999780654907,0,0.0,0.0,,,,,0,,3,,
Raw,24296561,24302657000000,,,-1291005708116827136,0.0,4292.383324354887,0.2386339093794559,12.224731094052245,3789,7,0.0,207,51992692395795,46,20.7,677.78759765625,1.0494999885559082,0,0.0,0.0,,,,,0,,3,,
Raw,24296561,24302657000000,,,-1291005708116827136,0.0,4292.383324354887,0.2386339093794559,12.224731094052245,3789,8,0.0,207,51992700209540,16,29.3,570.9661254882812,0.2597000002861023,0,0.0,0.0,,,,,0,,3,,
Raw,24296562,24302657000000,,,-1291005708116827136,0.0,4292.383324354887,0.2386339093794559,12.224731094052245,3789,3,0.0,15,386810688981195,35,22.2,309.3318786621094,0.7834999561309814,0,0.0,0.0,,,,,0,,1,,
Raw,24296563,24302657000000,,,-1291005708116827136,0.0,4292.383324354887,0.2386339093794559,12.224731094052245,3789,4,0.0,15,386810702994700,6,38.9,-83.87814331054688,0.0142000000923872,0,0.0,0.0,,,,,0,,1,,
Raw,24296563,24302657000000,,,-1291005708116827136,0.0,4292.383324354887,0.2386339093794559,12.224731094052245,3789,8,0.0,15,386810702483676,31,23.6,-468.7313537597656,0.684499979019165,0,0.0,0.0,,,,,0,,1,,
Raw,24296564,24302657000000,,,-1291005708116827136,0.0,4292.383324354887,0.2386339093794559,12.224731094052245,3789,9,0.0,15,386810695307932,21,26.3,-437.04388427734375,0.12020000070333481,0,0.0,0.0,,,,,0,,1,,
Raw,24296564,24302657000000,,,-1291005708116827136,0.0,4292.383324354887,0.2386339093794559,12.224731094052245,3789,21,0.0,15,386810692390652,16,29.7,-567.8228149414062,0.047700002789497375,0,0.0,0.0,,,,,0,,1,,
Raw,24296565,24302657000000,,,-1291005708116827136,0.0,4292.383324354887,0.2386339093794559,12.224731094052245,3789,27,0.0,15,386810707190297,16,29.1,-52.07411575317383,0.04020000249147415,0,0.0,0.0,,,,,0,,1,,
NMEA,$GPGSV,3,1,10,03,04,233,22,04,52,281,39,08,45,215,24,09,21,310,26*78,1606994792114
NMEA,$GPGSV,3,2,10,21,04,184,30,27,84,185,29,18,07,056,,22,02,213,*71,1606994792114
NMEA,$GPGSV,3,3,10,26,31,043,,31,28,106,*76,1606994792123
NMEA,$GLGSV,2,1,08,65,26,275,31,85,52,143,23,71,02,185,21,72,25,227,29*63,1606994792124
NMEA,$GLGSV,2,2,08,74,35,037,,86,12,182,,73,09,082,,84,37,050,*60,1606994792125
NMEA,$GAGSV,1,1,0,*74,1606994792126
NMEA,$PQGSV,1,1,03,193,22,170,,194,60,040,,195,63,111,,0,5*63,1606994792126
NMEA,$PQGSV,1,1,0,*73,1606994792127
NMEA,$GNGSA,A,3,04,08,09,21,27,,,,,,,,1.6,1.4,0.8,1*38,1606994792134
NMEA,$GNGSA,A,2,65,72,,,,,,,,,,,1.6,1.4,0.8,2*3F,1606994792135
NMEA,$GNVTG,,T,,M,0.0,N,0.0,K,A*3D,1606994792136
NMEA,$GNRMC,112633.00,A,2255.527930,N,12017.678042,E,0.0,,031220,2.8,W,A*1B,1606994792137
NMEA,$GNGGA,112633.00,2255.527930,N,12017.678042,E,1,07,1.4,34.7,M,17.5,M,,*47,1606994792139
Raw,24297550,24303650000000,,,-1291005708115876352,0.0,4321.488086134195,2.131043721267532,13.176717167223533,3790,1,0.0,207,51993692590567,14,30.0,183.72860717773438,0.24480000138282776,0,0.0,0.0,,,,,0,,3,,
Raw,24297550,24303650000000,,,-1291005708115876352,0.0,4321.488086134195,2.131043721267532,13.176717167223533,3790,21,0.0,207,51993698417391,31,23.7,-473.83746337890625,0.8784999847412109,0,0.0,0.0,,,,,0,,3,,
Raw,24297551,24303650000000,,,-1291005708115876352,0.0,4321.488086134195,2.131043721267532,13.176717167223533,3790,7,0.0,207,51993684442425,40,21.3,677.3392944335938,0.9774999618530273,0,0.0,0.0,,,,,0,,3,,
Raw,24297551,24303650000000,,,-1291005708115876352,0.0,4321.488086134195,2.131043721267532,13.176717167223533,3790,8,0.0,207,51993692256986,19,27.7,571.1390991210938,0.2815999984741211,0,0.0,0.0,,,,,0,,3,,
Raw,24297552,24303650000000,,,-1291005708115876352,0.0,4321.488086134195,2.131043721267532,13.176717167223533,3790,4,0.0,15,386811695044219,6,38.2,-83.59529876708984,0.03370000049471855,0,0.0,0.0,,,,,0,,1,,
Raw,24297552,24303650000000,,,-1291005708115876352,0.0,4321.488086134195,2.131043721267532,13.176717167223533,3790,8,0.0,15,386811694534423,35,22.7,-469.40692138671875,0.7324999570846558,0,0.0,0.0,,,,,0,,1,,
Raw,24297553,24303650000000,,,-1291005708115876352,0.0,4321.488086134195,2.131043721267532,13.176717167223533,3790,9,0.0,15,386811687358644,19,27.6,-436.72674560546875,0.07410000264644623,0,0.0,0.0,,,,,0,,1,,
Raw,24297553,24303650000000,,,-1291005708115876352,0.0,4321.488086134195,2.131043721267532,13.176717167223533,3790,21,0.0,15,386811684441740,16,29.3,-567.7191772460938,0.0357000008225441,0,0.0,0.0,,,,,0,,1,,
Raw,24297553,24303650000000,,,-1291005708115876352,0.0,4321.488086134195,2.131043721267532,13.176717167223533,3790,27,0.0,15,386811699239756,16,29.8,-51.75963592529297,0.05820000171661377,0,0.0,0.0,,,,,0,,1,,
Fix,gps,22.925466,120.294634,52.141357,0.000000,9.648001,1606994794000
NMEA,$GPGSV,3,1,10,04,52,281,38,08,45,215,23,09,21,310,28,21,04,184,29*74,1606994793110
NMEA,$GPGSV,3,2,10,27,84,185,30,16,48,002,,18,07,056,,22,02,213,*79,1606994793111
NMEA,$GPGSV,3,3,10,26,31,043,,31,28,106,*76,1606994793112
NMEA,$GLGSV,2,1,08,65,26,275,30,85,52,143,24,71,02,185,21,72,25,227,28*64,1606994793114
NMEA,$GLGSV,2,2,08,74,35,037,,86,12,182,,73,09,082,,84,37,050,*60,1606994793114
NMEA,$GAGSV,1,1,0,*74,1606994793115
NMEA,$PQGSV,1,1,03,193,22,170,,194,60,040,,195,63,111,,0,5*63,1606994793119
NMEA,$PQGSV,1,1,0,*73,1606994793120
NMEA,$GNGSA,A,3,04,08,09,16,21,27,,,,,,,1.6,1.4,0.8,1*3F,1606994793123
NMEA,$GNGSA,A,2,65,72,,,,,,,,,,,1.6,1.4,0.8,2*3F,1606994793123
NMEA,$GNVTG,,T,,M,0.0,N,0.0,K,A*3D,1606994793124
NMEA,$GNRMC,112634.00,A,2255.527930,N,12017.678041,E,0.0,,031220,2.8,W,A*1F,1606994793124
NMEA,$GNGGA,112634.00,2255.527930,N,12017.678041,E,1,08,1.4,34.7,M,17.5,M,,*4C,1606994793124
Raw,24298549,24304661000000,,,-1291005708115730176,0.0,4332.840908318758,3.023638773074249,14.120176261356784,3791,1,0.0,207,51994703443924,13,31.4,183.79605102539062,0.22830000519752502,0,0.0,0.0,,,,,0,,3,,
Raw,24298550,24304661000000,,,-1291005708115730176,0.0,4332.840908318758,3.023638773074249,14.120176261356784,3791,21,0.0,207,51994709272929,24,25.6,-474.0504455566406,0.3929000198841095,0,0.0,0.0,,,,,0,,3,,
Raw,24298551,24304661000000,,,-1291005708115730176,0.0,4332.840908318758,3.023638773074249,14.120176261356784,3791,7,0.0,207,51994695294423,40,21.5,678.1051635742188,0.9939999580383301,0,0.0,0.0,,,,,0,,3,,
Raw,24298551,24304661000000,,,-1291005708115730176,0.0,4332.840908318758,3.023638773074249,14.120176261356784,3791,8,0.0,207,51994703109006,16,29.6,571.0857543945312,0.23420000076293945,0,0.0,0.0,,,,,0,,3,,
Raw,24298552,24304661000000,,,-1291005708115730176,0.0,4332.840908318758,3.023638773074249,14.120176261356784,3791,3,0.0,15,386812691882263,31,23.3,310.464111328125,0.7279999852180481,0,0.0,0.0,,,,,0,,1,,
Raw,24298552,24304661000000,,,-1291005708115730176,0.0,4332.840908318758,3.023638773074249,14.120176261356784,3791,4,0.0,15,386812705898509,6,39.1,-83.56742095947266,0.017799999564886093,0,0.0,0.0,,,,,0,,1,,
Raw,24298553,24304661000000,,,-1291005708115730176,0.0,4332.840908318758,3.023638773074249,14.120176261356784,3791,9,0.0,15,386812698214136,21,26.9,-436.9961242675781,0.12469999492168427,0,0.0,0.0,,,,,0,,1,,
Raw,24298553,24304661000000,,,-1291005708115730176,0.0,4332.840908318758,3.023638773074249,14.120176261356784,3791,21,0.0,15,386812695297652,16,29.4,-567.8408813476562,0.05220000073313713,0,0.0,0.0,,,,,0,,1,,
Raw,24298554,24304661000000,,,-1291005708115730176,0.0,4332.840908318758,3.023638773074249,14.120176261356784,3791,27,0.0,15,386812710093917,16,29.2,-51.74970245361328,0.04470000043511391,0,0.0,0.0,,,,,0,,1,,
Fix,gps,22.925466,120.294634,52.144653,0.000000,8.576000,1606994795000
NMEA,$GPGSV,3,1,10,03,04,233,23,04,52,281,39,09,21,310,27,21,04,184,29*70,1606994794111
NMEA,$GPGSV,3,2,10,27,84,185,29,16,48,002,,18,07,056,,22,02,213,*71,1606994794112
NMEA,$GPGSV,3,3,10,26,31,043,,31,28,106,*76,1606994794117
NMEA,$GLGSV,2,1,08,65,26,275,31,85,52,143,26,71,02,185,22,72,25,227,30*6D,1606994794119
NMEA,$GLGSV,2,2,08,74,35,037,,86,12,182,,73,09,082,,84,37,050,*60,1606994794121
NMEA,$GAGSV,1,1,0,*74,1606994794121
NMEA,$PQGSV,1,1,03,193,22,170,,194,60,040,,195,63,111,,0,5*63,1606994794123
NMEA,$PQGSV,1,1,0,*73,1606994794123
NMEA,$GNGSA,A,3,04,09,16,21,27,,,,,,,,1.6,1.4,0.8,1*37,1606994794125
NMEA,$GNGSA,A,2,65,72,,,,,,,,,,,1.6,1.4,0.8,2*3F,1606994794125
NMEA,$GNVTG,,T,,M,0.0,N,0.0,K,A*3D,1606994794125
NMEA,$GNRMC,112635.00,A,2255.527931,N,12017.678039,E,0.0,,031220,2.8,W,A*10,1606994794125
NMEA,$GNGGA,112635.00,2255.527931,N,12017.678039,E,1,07,1.4,34.7,M,17.5,M,,*4C,1606994794126
Raw,24299549,24305654000000,,,-1291005708115634688,0.0,4300.499334931374,2.7163649241306627,11.369062028741006,3792,1,0.0,207,51995696348310,14,30.6,184.63168334960938,0.2508000135421753,0,0.0,0.0,,,,,0,,3,,
Raw,24299549,24305654000000,,,-1291005708115634688,0.0,4300.499334931374,2.7163649241306627,11.369062028741006,3792,21,0.0,207,51995702179540,24,25.6,-473.1900634765625,0.4124000072479248,0,0.0,0.0,,,,,0,,3,,
Raw,24299551,24305654000000,,,-1291005708115634688,0.0,4300.499334931374,2.7163649241306627,11.369062028741006,3792,8,0.0,207,51995696012127,24,25.5,571.837646484375,0.4034000039100647,0,0.0,0.0,,,,,0,,3,,
Raw,24299551,24305654000000,,,-1291005708115634688,0.0,4300.499334931374,2.7163649241306627,11.369062028741006,3792,3,0.0,15,386813684786304,40,21.1,310.2738342285156,0.8374999761581421,0,0.0,0.0,,,,,0,,1,,
Raw,24299552,24305654000000,,,-1291005708115634688,0.0,4300.499334931374,2.7163649241306627,11.369062028741006,3792,4,0.0,15,386813698803755,6,38.9,-82.71762084960938,0.038200002163648605,0,0.0,0.0,,,,,0,,1,,
Raw,24299552,24305654000000,,,-1291005708115634688,0.0,4300.499334931374,2.7163649241306627,11.369062028741006,3792,9,0.0,15,386813691120526,16,29.0,-436.17431640625,0.04619999974966049,0,0.0,0.0,,,,,0,,1,,
Raw,24299553,24305654000000,,,-1291005708115634688,0.0,4300.499334931374,2.7163649241306627,11.369062028741006,3792,21,0.0,15,386813688204518,16,29.8,-567.1112060546875,0.04170000180602074,0,0.0,0.0,,,,,0,,1,,
Raw,24299554,24305654000000,,,-1291005708115634688,0.0,4300.499334931374,2.7163649241306627,11.369062028741006,3792,27,0.0,15,386813702999037,14,30.2,-50.90113067626953,0.02979999966919422,0,0.0,0.0,,,,,0,,1,,
Fix,gps,22.925466,120.294634,52.146912,0.000000,7.504000,1606994796000
NMEA,$GPGSV,2,1,08,03,04,233,21,04,52,281,39,09,21,310,29,21,04,184,30*7C,1606994795111
NMEA,$GPGSV,2,2,08,27,84,185,30,16,48,002,,26,31,043,,31,28,106,*70,1606994795118
NMEA,$GLGSV,2,1,07,65,26,275,31,85,52,143,26,72,25,227,26,74,35,037,*6C,1606994795119
NMEA,$GLGSV,2,2,07,86,12,182,,73,09,082,,84,37,050,*5E,1606994795122
NMEA,$GAGSV,1,1,0,*74,1606994795123
NMEA,$PQGSV,1,1,03,193,22,170,,194,60,040,,195,63,111,,0,5*63,1606994795123
NMEA,$PQGSV,1,1,0,*73,1606994795123
NMEA,$GNGSA,A,3,04,09,16,21,27,,,,,,,,1.6,1.4,0.8,1*37,1606994795124
NMEA,$GNGSA,A,2,65,72,,,,,,,,,,,1.6,1.4,0.8,2*3F,1606994795124
NMEA,$GNVTG,,T,,M,0.0,N,0.0,K,A*3D,1606994795124
NMEA,$GNRMC,112636.00,A,2255.527931,N,12017.678038,E,0.0,,031220,2.8,W,A*12,1606994795125
NMEA,$GNGGA,112636.00,2255.527931,N,12017.678038,E,1,07,1.4,34.7,M,17.5,M,,*4E,1606994795125
Fix,gps,22.925466,120.294634,52.141113,0.000000,7.504000,1606994797000
Raw,24300560,24306667000000,,,-1291005708114673664,0.0,4258.687142282724,5.494583450356289,9.98831651369742,3793,1,0.0,207,51996708386267,13,31.2,185.84666442871094,0.23580001294612885,0,0.0,0.0,,,,,0,,3,,
