# 
# Header Description:
# 
# Version: v2.0.0.1 Platform: 8.0.0 Manufacturer: Sony Model: G8142
# 
# Raw,ElapsedRealtimeMillis,TimeNanos,LeapSecond,TimeUncertaintyNanos,FullBiasNanos,BiasNanos,BiasUncertaintyNanos,DriftNanosPerSecond,DriftUncertaintyNanosPerSecond,HardwareClockDiscontinuityCount,Svid,TimeOffsetNanos,State,ReceivedSvTimeNanos,ReceivedSvTimeUncertaintyNanos,Cn0DbHz,PseudorangeRateMetersPerSecond,PseudorangeRateUncertaintyMetersPerSecond,AccumulatedDeltaRangeState,AccumulatedDeltaRangeMeters,AccumulatedDeltaRangeUncertaintyMeters,CarrierFrequencyHz,CarrierCycles,CarrierPhase,CarrierPhaseUncertainty,MultipathIndicator,SnrInDb,ConstellationType,AgcDb,CarrierFrequencyHz
# 
# Fix,Provider,Latitude,Longitude,Altitude,Speed,Accuracy,(UTC)TimeInMs
# 
# Nav,Svid,Type,Status,MessageId,Sub-messageId,Data(Bytes)
# 
Raw,24767569,24773552000000,,,-1291005707889169920,0.0,70.73909364407882,-3.2877212305040397,11.306844984245336,4198,2,0.0,207,52463359631618,1416,13.8,-393.8389587402344,7.585000514984131,0,0.0,0.0,,,,,0,,3,,
Raw,24767569,24773552000000,,,-1291005707889169920,0.0,70.73909364407882,-3.2877212305040397,11.306844984245336,4198,22,0.0,207,52463364893704,53,19.2,-830.23486328125,1.3324999809265137,0,0.0,0.0,,,,,0,,3,,
Raw,24767569,24773552000000,,,-1291005707889169920,0.0,70.73909364407882,-3.2877212305040397,11.306844984245336,4198,1,0.0,207,52463367552758,19,27.3,237.5423583984375,0.7070000171661377,0,0.0,0.0,,,,,0,,3,,
Raw,24767570,24773552000000,,,-1291005707889169920,0.0,70.73909364407882,-3.2877212305040397,11.306844984245336,4198,8,0.0,207,52463366640652,14,30.5,588.764404296875,0.23479999601840973,0,0.0,0.0,,,,,0,,3,,
Raw,24767570,24773552000000,,,-1291005707889169920,0.0,70.73909364407882,-3.2877212305040397,11.306844984245336,4198,3,0.0,15,387281355849295,159,12.7,294.412841796875,3.869000196456909,0,0.0,0.0,,,,,0,,1,,
Raw,24767571,24773552000000,,,-1291005707889169920,0.0,70.73909364407882,-3.2877212305040397,11.306844984245336,4198,4,0.0,15,387281370425811,19,27.5,-29.08966064453125,0.056300003081560135,0,0.0,0.0,,,,,0,,1,,
Raw,24767571,24773552000000,,,-1291005707889169920,0.0,70.73909364407882,-3.2877212305040397,11.306844984245336,4198,8,0.0,15,387281370531396,14,30.7,-428.2139587402344,0.040800001472234726,0,0.0,0.0,,,,,0,,1,,
Raw,24767571,24773552000000,,,-1291005707889169920,0.0,70.73909364407882,-3.2877212305040397,11.306844984245336,4198,9,0.0,15,387281363305310,19,27.4,-396.67889404296875,0.04580000042915344,0,0.0,0.0,,,,,0,,1,,
Raw,24767572,24773552000000,,,-1291005707889169920,0.0,70.73909364407882,-3.2877212305040397,11.306844984245336,4198,16,0.0,15,387281369762085,1414,14.4,243.49977111816406,7.400000095367432,0,0.0,0.0,,,,,0,,1,,
Raw,24767572,24773552000000,,,-1291005707889169920,0.0,70.73909364407882,-3.2877212305040397,11.306844984245336,4198,21,0.0,15,387281360637092,53,19.3,-583.1168823242188,0.9965000152587891,0,0.0,0.0,,,,,0,,1,,
Raw,24767573,24773552000000,,,-1291005707889169920,0.0,70.73909364407882,-3.2877212305040397,11.306844984245336,4198,26,0.0,15,387281364967698,760,18.3,334.8122253417969,3.122499942779541,0,0.0,0.0,,,,,0,,1,,
Raw,24767573,24773552000000,,,-1291005707889169920,0.0,70.73909364407882,-3.2877212305040397,11.306844984245336,4198,31,0.0,15,387281363212059,579,19.9,398.9316711425781,3.3510000705718994,0,0.0,0.0,,,,,0,,1,,
Raw,24767573,24773552000000,,,-1291005707889169920,0.0,70.73909364407882,-3.2877212305040397,11.306844984245336,4198,2,0.0,783,387267316108799,87,18.5,-4.330490589141846,3.94350004196167,0,0.0,0.0,,,,,0,,5,,
Raw,24767574,24773552000000,,,-1291005707889169920,0.0,70.73909364407882,-3.2877212305040397,11.306844984245336,4198,3,0.0,783,387267319493738,165,20.9,-2.2180562019348145,7.670000076293945,0,0.0,0.0,,,,,0,,5,,
Raw,24767574,24773552000000,,,-1291005707889169920,0.0,70.73909364407882,-3.2877212305040397,11.306844984245336,4198,5,0.0,783,387267307835756,17,28.3,4.86820125579834,0.4150000214576721,0,0.0,0.0,,,,,0,,5,,
Raw,24767574,24773552000000,,,-1291005707889169920,0.0,70.73909364407882,-3.2877212305040397,11.306844984245336,4198,6,0.0,15,387267320283358,78,17.7,176.349853515625,2.496500015258789,0,0.0,0.0,,,,,0,,5,,
Raw,24767575,24773552000000,,,-1291005707889169920,0.0,70.73909364407882,-3.2877212305040397,11.306844984245336,4198,10,0.0,15,387267315956112,21,26.0,49.0645637512207,0.13369999825954437,0,0.0,0.0,,,,,0,,5,,
Raw,24767575,24773552000000,,,-1291005707889169920,0.0,70.73909364407882,-3.2877212305040397,11.306844984245336,4198,14,0.0,15,387267356772007,14,30.7,308.42138671875,0.049800001084804535,0,0.0,0.0,,,,,0,,5,,
Raw,24767575,24773552000000,,,-1291005707889169920,0.0,70.73909364407882,-3.2877212305040397,11.306844984245336,4198,16,0.0,15,387267319408576,81,16.3,189.00526428222656,1.1049998998641968,0,0.0,0.0,,,,,0,,5,,
Raw,24767576,24773552000000,,,-1291005707889169920,0.0,70.73909364407882,-3.2877212305040397,11.306844984245336,4198,24,0.0,15,387267363085763,567,18.0,-288.1168518066406,2.1059999465942383,0,0.0,0.0,,,,,0,,5,,
Raw,24767576,24773552000000,,,-1291005707889169920,0.0,70.73909364407882,-3.2877212305040397,11.306844984245336,4198,26,0.0,15,387267366727244,168,15.5,20.36578941345215,6.425500392913818,0,0.0,0.0,,,,,0,,5,,
Fix,gps,22.925455,120.294541,52.394287,0.000000,6.432000,1606995264000
NMEA,$GPGSV,3,1,12,03,02,230,13,04,52,274,28,08,49,217,31,09,23,307,27*78,1606995263106
NMEA,$GPGSV,3,2,12,11,00,000,18,16,47,008,14,21,07,182,19,26,30,046,18*70,1606995263106
NMEA,$GPGSV,3,3,12,31,26,111,20,18,07,053,,22,01,209,,27,88,092,*73,1606995263106
NMEA,$GLGSV,2,1,08,66,00,000,14,86,16,182,19,65,25,271,27,72,23,224,31*66,1606995263107
NMEA,$GLGSV,2,2,08,74,35,043,,73,08,087,,84,35,045,,85,56,137,*6C,1606995263107
NMEA,$GAGSV,2,1,06,02,16,289,,03,37,277,,05,37,206,,08,04,317,*62,1606995263110
NMEA,$GAGSV,2,2,06,25,46,338,,36,22,174,*64,1606995263110
NMEA,$PQGSV,1,1,03,193,21,170,16,194,60,042,17,195,65,108,16,0,5*6A,1606995263111
NMEA,$PQGSV,4,1,16,02,40,239,19,03,59,202,21,05,16,255,28,06,59,187,18,0,4*64,1606995263114
NMEA,$PQGSV,4,2,16,10,47,293,26,14,18,247,31,16,61,192,16,24,42,333,18,0,4*6C,1606995263116
NMEA,$PQGSV,4,3,16,26,52,052,16,01,52,129,,04,37,113,,07,59,337,,0,4*6B,1606995263116
NMEA,$PQGSV,4,4,16,08,11,167,,09,70,260,,11,02,203,,12,48,181,,0,4*6A,1606995263116
NMEA,$GNGSA,A,3,04,08,09,16,21,26,31,,,,,,1.2,0.9,0.9,1*35,1606995263117
NMEA,$GNGSA,A,2,65,72,,,,,,,,,,,1.2,0.9,0.9,2*36,1606995263126
NMEA,$PQGSA,A,2,14,,,,,,,,,,,,1.2,0.9,0.9,4*3B,1606995263126
NMEA,$GNVTG,,T,,M,0.0,N,0.0,K,A*3D,1606995263126
NMEA,$GNRMC,113424.00,A,2255.527286,N,12017.672461,E,0.0,,031220,2.8,W,A*17,1606995263126
NMEA,$GNGGA,113424.00,2255.527286,N,12017.672461,E,1,10,0.9,34.9,M,17.5,M,,*4F,1606995263127
Raw,24768620,24774552000000,,,-1291005707889169920,0.0,74.9284663470462,-5.832812730383299,15.82331029612435,4198,2,0.0,207,52464359633199,1642,12.3,-393.78271484375,8.455000877380371,0,0.0,0.0,,,,,0,,3,,
Raw,24768620,24774552000000,,,-1291005707889169920,0.0,74.9284663470462,-5.832812730383299,15.82331029612435,4198,22,0.0,207,52464364896319,53,19.0,-830.02880859375,1.1225000619888306,0,0.0,0.0,,,,,0,,3,,
Raw,24768620,24774552000000,,,-1291005707889169920,0.0,74.9284663470462,-5.832812730383299,15.82331029612435,4198,1,0.0,207,52464367551988,21,26.3,236.38148498535156,0.32170000672340393,0,0.0,0.0,,,,,0,,3,,
Raw,24768620,24774552000000,,,-1291005707889169920,0.0,74.9284663470462,-5.832812730383299,15.82331029612435,4198,8,0.0,207,52464366638734,13,31.0,588.0422973632812,0.23420000076293945,0,0.0,0.0,,,,,0,,3,,
Raw,24768620,24774552000000,,,-1291005707889169920,0.0,74.9284663470462,-5.832812730383299,15.82331029612435,4198,3,0.0,15,387282355848266,46,20.9,292.45281982421875,0.8689999580383301,0,0.0,0.0,,,,,0,,1,,
Raw,24768621,24774552000000,,,-1291005707889169920,0.0,74.9284663470462,-5.832812730383299,15.82331029612435,4198,4,0.0,15,387282370426020,46,20.5,-29.676298141479492,0.8614999651908875,0,0.0,0.0,,,,,0,,1,,
Raw,24768621,24774552000000,,,-1291005707889169920,0.0,74.9284663470462,-5.832812730383299,15.82331029612435,4198,8,0.0,15,387282370532839,24,25.4,-428.6891174316406,0.3968000113964081,0,0.0,0.0,,,,,0,,1,,
Raw,24768621,24774552000000,,,-1291005707889169920,0.0,74.9284663470462,-5.832812730383299,15.82331029612435,4198,9,0.0,15,387282363306621,17,28.3,-397.3212890625,0.03779999911785126,0,0.0,0.0,,,,,0,,1,,
Raw,24768621,24774552000000,,,-1291005707889169920,0.0,74.9284663470462,-5.832812730383299,15.82331029612435,4198,16,0.0,15,387282369761264,1437,14.3,243.34754943847656,8.15000057220459,0,0.0,0.0,,,,,0,,1,,
Raw,24768621,24774552000000,,,-1291005707889169920,0.0,74.9284663470462,-5.832812730383299,15.82331029612435,4198,21,0.0,15,387282360638806,70,17.9,-584.2966918945312,1.0764999389648438,0,0.0,0.0,,,,,0,,1,,
Raw,24768621,24774552000000,,,-1291005707889169920,0.0,74.9284663470462,-5.832812730383299,15.82331029612435,4198,26,0.0,15,387282364966585,770,18.2,334.5172424316406,3.87250018119812,0,0.0,0.0,,,,,0,,1,,
Raw,24768622,24774552000000,,,-1291005707889169920,0.0,74.9284663470462,-5.832812730383299,15.82331029612435,4198,31,0.0,15,387282363210738,676,19.3,398.4654235839844,4.181000232696533,0,0.0,0.0,,,,,0,,1,,
Raw,24768622,24774552000000,,,-1291005707889169920,0.0,74.9284663470462,-5.832812730383299,15.82331029612435,4198,2,0.0,783,387268316108814,116,18.5,-4.330490589141846,5.44350004196167,0,0.0,0.0,,,,,0,,5,,
Raw,24768622,24774552000000,,,-1291005707889169920,0.0,74.9284663470462,-5.832812730383299,15.82331029612435,4198,3,0.0,783,387268319493745,218,20.9,-2.2180562019348145,9.170000076293945,0,0.0,0.0,,,,,0,,5,,
Raw,24768622,24774552000000,,,-1291005707889169920,0.0,74.9284663470462,-5.832812730383299,15.82331029612435,4198,5,0.0,783,387268307835757,17,28.6,-1.1522369384765625,0.4150000214576721,0,0.0,0.0,,,,,0,,5,,
Raw,24768622,24774552000000,,,-1291005707889169920,0.0,74.9284663470462,-5.832812730383299,15.82331029612435,4198,6,0.0,15,387268320282722,110,14.4,174.6791229248047,2.006500005722046,0,0.0,0.0,,,,,0,,5,,
Raw,24768622,24774552000000,,,-1291005707889169920,0.0,74.9284663470462,-5.832812730383299,15.82331029612435,4198,10,0.0,15,387268315955952,24,25.1,47.74002456665039,0.4043000042438507,0,0.0,0.0,,,,,0,,5,,
Raw,24768622,24774552000000,,,-1291005707889169920,0.0,74.9284663470462,-5.832812730383299,15.82331029612435,4198,14,0.0,15,387268356770970,17,28.6,307.6903991699219,0.05730000138282776,0,0.0,0.0,,,,,0,,5,,
Raw,24768623,24774552000000,,,-1291005707889169920,0.0,74.9284663470462,-5.832812730383299,15.82331029612435,4198,16,0.0,15,387268319407946,89,16.3,189.00526428222656,2.6050000190734863,0,0.0,0.0,,,,,0,,5,,
Raw,24768623,24774552000000,,,-1291005707889169920,0.0,74.9284663470462,-5.832812730383299,15.82331029612435,4198,24,0.0,15,387268363086720,659,17.3,-288.6065368652344,2.936000108718872,0,0.0,0.0,,,,,0,,5,,
Raw,24768623,24774552000000,,,-1291005707889169920,0.0,74.9284663470462,-5.832812730383299,15.82331029612435,4198,26,0.0,15,387268366727176,212,15.5,20.36578941345215,7.925500392913818,0,0.0,0.0,,,,,0,,5,,
Fix,gps,22.925455,120.294541,52.504883,0.000000,6.432000,1606995265000
NMEA,$GPGSV,3,1,12,03,02,230,21,04,52,274,21,08,49,217,25,09,23,307,28*7A,1606995264108
NMEA,$GPGSV,3,2,12,11,00,000,16,16,47,008,14,21,07,182,18,26,30,046,18*7F,1606995264108
NMEA,$GPGSV,3,3,12,31,26,111,19,18,07,053,,22,01,209,,27,88,092,*79,1606995264108
NMEA,$GLGSV,2,1,08,66,00,000,12,86,16,182,19,65,25,271,26,72,23,224,31*61,1606995264108
NMEA,$GLGSV,2,2,08,74,35,043,,73,08,087,,84,35,045,,85,56,137,*6C,1606995264108
NMEA,$GAGSV,2,1,06,02,16,289,,03,37,277,,05,37,206,,08,04,317,*62,1606995264109
NMEA,$GAGSV,2,2,06,25,46,338,,36,22,174,*64,1606995264109
NMEA,$PQGSV,1,1,03,193,21,170,16,194,60,042,17,195,65,108,17,0,5*6B,1606995264109
NMEA,$PQGSV,4,1,16,02,40,239,19,03,59,202,21,05,16,255,29,06,59,187,14,0,4*69,1606995264109
NMEA,$PQGSV,4,2,16,10,47,293,25,14,18,247,29,16,61,192,16,24,42,333,17,0,4*69,1606995264109
NMEA,$PQGSV,4,3,16,26,52,052,16,01,52,129,,04,37,113,,07,59,337,,0,4*6B,1606995264110
NMEA,$PQGSV,4,4,16,08,11,167,,09,70,260,,11,02,203,,12,48,181,,0,4*6A,1606995264111
NMEA,$GNGSA,A,3,04,08,09,16,21,26,31,,,,,,1.2,0.9,0.9,1*35,1606995264114
NMEA,$GNGSA,A,2,65,72,,,,,,,,,,,1.2,0.9,0.9,2*36,1606995264114
NMEA,$PQGSA,A,2,14,,,,,,,,,,,,1.2,0.9,0.9,4*3B,1606995264114
NMEA,$GNVTG,,T,,M,0.0,N,0.0,K,A*3D,1606995264115
NMEA,$GNRMC,113425.00,A,2255.527291,N,12017.672456,E,0.0,,031220,2.8,W,A*14,1606995264115
NMEA,$GNGGA,113425.00,2255.527291,N,12017.672456,E,1,10,0.9,35.0,M,17.5,M,,*44,1606995264115
Fix,gps,22.925455,120.294540,52.597168,0.000000,6.432000,1606995266000
Raw,24769556,24775552000000,,,-1291005707889169920,0.0,72.86302570719272,-7.894263991785011,15.493081918224942,4198,2,0.0,207,52465359634351,1669,12.3,-393.8951721191406,9.205000877380371,0,0.0,0.0,,,,,0,,3,,
Raw,24769557,24775552000000,,,-1291005707889169920,0.0,72.86302570719272,-7.894263991785011,15.493081918224942,4198,22,0.0,207,52465364899103,53,19.3,-827.8182983398438,1.1225000619888306,0,0.0,0.0,,,,,0,,3,,
Raw,24769558,24775552000000,,,-1291005707889169920,0.0,72.86302570719272,-7.894263991785011,15.493081918224942,4198,1,0.0,207,52465367551275,24,25.7,239.1230926513672,0.7870000004768372,0,0.0,0.0,,,,,0,,3,,
Raw,24769558,24775552000000,,,-1291005707889169920,0.0,72.86302570719272,-7.894263991785011,15.493081918224942,4198,8,0.0,207,52465366636750,13,31.8,589.3516845703125,0.23420000076293945,0,0.0,0.0,,,,,0,,3,,
Raw,24769559,24775552000000,,,-1291005707889169920,0.0,72.86302570719272,-7.894263991785011,15.493081918224942,4198,3,0.0,15,387283355847428,35,22.0,293.9656677246094,0.8089999556541443,0,0.0,0.0,,,,,0,,1,,
Raw,24769560,24775552000000,,,-1291005707889169920,0.0,72.86302570719272,-7.894263991785011,15.493081918224942,4198,4,0.0,15,387283370426050,40,21.1,-27.326171875,0.8614999651908875,0,0.0,0.0,,,,,0,,1,,
Raw,24769560,24775552000000,,,-1291005707889169920,0.0,72.86302570719272,-7.894263991785011,15.493081918224942,4198,8,0.0,15,387283370534316,27,24.1,-427.1427001953125,0.6814999580383301,0,0.0,0.0,,,,,0,,1,,
Raw,24769561,24775552000000,,,-1291005707889169920,0.0,72.86302570719272,-7.894263991785011,15.493081918224942,4198,9,0.0,15,387283363307921,17,28.2,-395.9643249511719,0.03779999911785126,0,0.0,0.0,,,,,0,,1,,
Raw,24769561,24775552000000,,,-1291005707889169920,0.0,72.86302570719272,-7.894263991785011,15.493081918224942,4198,16,0.0,15,387283369760458,1463,14.2,243.0811309814453,8.90000057220459,0,0.0,0.0,,,,,0,,1,,
Raw,24769561,24775552000000,,,-1291005707889169920,0.0,72.86302570719272,-7.894263991785011,15.493081918224942,4198,21,0.0,15,387283360640837,70,17.3,-583.3167114257812,1.1664999723434448,0,0.0,0.0,,,,,0,,1,,
Raw,24769562,24775552000000,,,-1291005707889169920,0.0,72.86302570719272,-7.894263991785011,15.493081918224942,4198,26,0.0,15,387283364965469,782,18.0,334.2508239746094,4.622499942779541,0,0.0,0.0,,,,,0,,1,,
Raw,24769562,24775552000000,,,-1291005707889169920,0.0,72.86302570719272,-7.894263991785011,15.493081918224942,4198,31,0.0,15,387283363209418,690,19.1,398.21807861328125,4.931000232696533,0,0.0,0.0,,,,,0,,1,,
Raw,24769563,24775552000000,,,-1291005707889169920,0.0,72.86302570719272,-7.894263991785011,15.493081918224942,4198,2,0.0,783,387269316108764,54,20.7,-0.028805924579501152,2.313500165939331,0,0.0,0.0,,,,,0,,5,,
Raw,24769563,24775552000000,,,-1291005707889169920,0.0,72.86302570719272,-7.894263991785011,15.493081918224942,4198,3,0.0,783,387269319493753,282,20.9,-2.2180562019348145,10.670000076293945,0,0.0,0.0,,,,,0,,5,,
Raw,24769563,24775552000000,,,-1291005707889169920,0.0,72.86302570719272,-7.894263991785011,15.493081918224942,4198,5,0.0,783,387269307835771,16,29.1,3.7831780910491943,0.3850000202655792,0,0.0,0.0,,,,,0,,5,,
Raw,24769564,24775552000000,,,-1291005707889169920,0.0,72.86302570719272,-7.894263991785011,15.493081918224942,4198,6,0.0,15,387269320282139,124,14.4,174.6791229248047,3.506500005722046,0,0.0,0.0,,,,,0,,5,,
Raw,24769564,24775552000000,,,-1291005707889169920,0.0,72.86302570719272,-7.894263991785011,15.493081918224942,4198,10,0.0,15,387269315955789,27,24.6,49.70942306518555,0.5989999771118164,0,0.0,0.0,,,,,0,,5,,
Raw,24769564,24775552000000,,,-1291005707889169920,0.0,72.86302570719272,-7.894263991785011,15.493081918224942,4198,14,0.0,15,387269356769951,17,28.4,308.9810485839844,0.05730000138282776,0,0.0,0.0,,,,,0,,5,,
Raw,24769565,24775552000000,,,-1291005707889169920,0.0,72.86302570719272,-7.894263991785011,15.493081918224942,4198,16,0.0,15,387269319407315,108,16.3,189.00526428222656,4.105000019073486,0,0.0,0.0,,,,,0,,5,,
Raw,24769566,24775552000000,,,-1291005707889169920,0.0,72.86302570719272,-7.894263991785011,15.493081918224942,4198,24,0.0,15,387269363087680,103,16.8,-288.1552429199219,3.686000108718872,0,0.0,0.0,,,,,0,,5,,
Raw,24769567,24775552000000,,,-1291005707889169920,0.0,72.86302570719272,-7.894263991785011,15.493081918224942,4198,26,0.0,15,387269366727108,266,15.5,20.36578941345215,9.42549991607666,0,0.0,0.0,,,,,0,,5,,
NMEA,$GPGSV,3,1,12,03,02,230,22,04,52,274,21,08,49,217,24,09,23,307,28*78,1606995265107
NMEA,$GPGSV,3,2,12,11,00,000,16,16,47,008,14,21,07,182,17,26,30,046,18*70,1606995265107
NMEA,$GPGSV,3,3,12,31,26,111,19,18,07,053,,22,01,209,,27,88,092,*79,1606995265107
NMEA,$GLGSV,2,1,08,66,00,000,12,86,16,182,19,65,25,271,26,72,23,224,32*62,1606995265108
NMEA,$GLGSV,2,2,08,74,35,043,,73,08,087,,84,35,045,,85,56,137,*6C,1606995265108
NMEA,$GAGSV,2,1,06,02,16,289,,03,37,277,,05,37,206,,08,04,317,*62,1606995265108
NMEA,$GAGSV,2,2,06,25,46,338,,36,22,174,*64,1606995265108
NMEA,$PQGSV,1,1,03,193,21,170,16,194,60,042,16,195,65,108,17,0,5*6A,1606995265108
NMEA,$PQGSV,4,1,16,02,40,239,21,03,59,202,21,05,16,255,29,06,59,187,14,0,4*62,1606995265109
NMEA,$PQGSV,4,2,16,10,47,293,25,14,18,247,28,16,61,192,16,24,42,333,17,0,4*68,1606995265109
NMEA,$PQGSV,4,3,16,26,52,052,16,01,52,129,,04,37,113,,07,59,337,,0,4*6B,1606995265110
NMEA,$PQGSV,4,4,16,08,11,167,,09,70,260,,11,02,203,,12,48,181,,0,4*6A,1606995265110
NMEA,$GNGSA,A,3,04,08,09,16,21,26,31,,,,,,1.2,0.9,0.9,1*35,1606995265111
NMEA,$GNGSA,A,2,65,72,,,,,,,,,,,1.2,0.9,0.9,2*36,1606995265111
NMEA,$PQGSA,A,2,14,,,,,,,,,,,,1.2,0.9,0.9,4*3B,1606995265112
NMEA,$GNVTG,,T,,M,0.0,N,0.0,K,A*3D,1606995265112
NMEA,$GNRMC,113426.00,A,2255.527294,N,12017.672424,E,0.0,,031220,2.8,W,A*17,1606995265112
NMEA,$GNGGA,113426.00,2255.527294,N,12017.672424,E,1,10,0.9,35.1,M,17.5,M,,*46,1606995265113
Raw,24770525,24776552000000,,,-1291005707889169920,0.0,75.76185453217477,-4.126511497889659,16.517685691726577,4198,2,0.0,207,52466359635667,1698,12.3,-393.8951721191406,9.955000877380371,0,0.0,0.0,,,,,0,,3,,
Raw,24770526,24776552000000,,,-1291005707889169920,0.0,75.76185453217477,-4.126511497889659,16.517685691726577,4198,22,0.0,207,52466364901924,70,17.9,-828.623779296875,1.2825000286102295,0,0.0,0.0,,,,,0,,3,,
Raw,24770526,24776552000000,,,-1291005707889169920,0.0,75.76185453217477,-4.126511497889659,16.517685691726577,4198,1,0.0,207,52466367550501,24,25.2,238.99537658691406,0.5922999978065491,0,0.0,0.0,,,,,0,,3,,
Raw,24770526,24776552000000,,,-1291005707889169920,0.0,75.76185453217477,-4.126511497889659,16.517685691726577,4198,8,0.0,207,52466366634774,11,33.1,589.4884643554688,0.23190000653266907,0,0.0,0.0,,,,,0,,3,,
Raw,24770526,24776552000000,,,-1291005707889169920,0.0,75.76185453217477,-4.126511497889659,16.517685691726577,4198,3,0.0,15,387284355846411,53,19.5,294.79345703125,0.9389999508857727,0,0.0,0.0,,,,,0,,1,,
Raw,24770526,24776552000000,,,-1291005707889169920,0.0,75.76185453217477,-4.126511497889659,16.517685691726577,4198,4,0.0,15,387284370426225,35,22.4,-28.591623306274414,0.8014999628067017,0,0.0,0.0,,,,,0,,1,,
Raw,24770526,24776552000000,,,-1291005707889169920,0.0,75.76185453217477,-4.126511497889659,16.517685691726577,4198,8,0.0,15,387284370535712,24,25.8,-427.39959716796875,0.5914999842643738,0,0.0,0.0,,,,,0,,1,,
Raw,24770527,24776552000000,,,-1291005707889169920,0.0,75.76185453217477,-4.126511497889659,16.517685691726577,4198,9,0.0,15,387284363309279,21,26.3,-395.7849426269531,0.11569999903440475,0,0.0,0.0,,,,,0,,1,,
Raw,24770527,24776552000000,,,-1291005707889169920,0.0,75.76185453217477,-4.126511497889659,16.517685691726577,4198,16,0.0,15,387284369759634,1492,14.1,243.2904510498047,9.65000057220459,0,0.0,0.0,,,,,0,,1,,
Raw,24770527,24776552000000,,,-1291005707889169920,0.0,75.76185453217477,-4.126511497889659,16.517685691726577,4198,21,0.0,15,387284360642783,79,17.3,-583.3167114257812,2.6665000915527344,0,0.0,0.0,,,,,0,,1,,
Raw,24770527,24776552000000,,,-1291005707889169920,0.0,75.76185453217477,-4.126511497889659,16.517685691726577,4198,26,0.0,15,387284364964360,797,17.5,334.30792236328125,5.372499942779541,0,0.0,0.0,,,,,0,,1,,
Raw,24770527,24776552000000,,,-1291005707889169920,0.0,75.76185453217477,-4.126511497889659,16.517685691726577,4198,31,0.0,15,387284363208091,706,18.7,398.1705017089844,5.681000232696533,0,0.0,0.0,,,,,0,,1,,
Raw,24770527,24776552000000,,,-1291005707889169920,0.0,75.76185453217477,-4.126511497889659,16.517685691726577,4198,2,0.0,783,387270316108764,72,20.7,-0.028805924579501152,3.813500165939331,0,0.0,0.0,,,,,0,,5,,
Raw,24770528,24776552000000,,,-1291005707889169920,0.0,75.76185453217477,-4.126511497889659,16.517685691726577,4198,3,0.0,783,387270319493760,356,20.9,-2.2180562019348145,12.170000076293945,0,0.0,0.0,,,,,0,,5,,
Raw,24770528,24776552000000,,,-1291005707889169920,0.0,75.76185453217477,-4.126511497889659,16.517685691726577,4198,5,0.0,783,387270307835771,19,27.6,1.5075099468231201,0.45500001311302185,0,0.0,0.0,,,,,0,,5,,
Raw,24770528,24776552000000,,,-1291005707889169920,0.0,75.76185453217477,-4.126511497889659,16.517685691726577,4198,6,0.0,15,387270320281557,148,14.4,174.6791229248047,5.006500244140625,0,0.0,0.0,,,,,0,,5,,
Raw,24770528,24776552000000,,,-1291005707889169920,0.0,75.76185453217477,-4.126511497889659,16.517685691726577,4198,10,0.0,15,387270315955630,24,25.7,49.64931106567383,0.4043000042438507,0,0.0,0.0,,,,,0,,5,,
Raw,24770528,24776552000000,,,-1291005707889169920,0.0,75.76185453217477,-4.126511497889659,16.517685691726577,4198,14,0.0,15,387270356768912,17,28.6,309.1519470214844,0.05730000138282776,0,0.0,0.0,,,,,0,,5,,
Raw,24770528,24776552000000,,,-1291005707889169920,0.0,75.76185453217477,-4.126511497889659,16.517685691726577,4198,16,0.0,15,387270319406685,137,16.3,189.00526428222656,5.605000019073486,0,0.0,0.0,,,,,0,,5,,
Raw,24770528,24776552000000,,,-1291005707889169920,0.0,75.76185453217477,-4.126511497889659,16.517685691726577,4198,24,0.0,15,387270363088613,81,16.6,-286.95501708984375,1.275999903678894,0,0.0,0.0,,,,,0,,5,,
Raw,24770529,24776552000000,,,-1291005707889169920,0.0,75.76185453217477,-4.126511497889659,16.517685691726577,4198,26,0.0,15,387270366727134,183,12.4,19.213552474975586,5.235500335693359,0,0.0,0.0,,,,,0,,5,,
Fix,gps,22.925455,120.294540,52.606262,0.000000,6.432000,1606995267000
NMEA,$GPGSV,3,1,12,03,02,230,20,04,52,274,22,08,49,217,26,09,23,307,26*75,1606995266107
NMEA,$GPGSV,3,2,12,11,00,000,16,16,47,008,14,21,07,182,17,26,30,046,18*70,1606995266108
NMEA,$GPGSV,3,3,12,31,26,111,19,18,07,053,,22,01,209,,27,88,092,*79,1606995266110
NMEA,$GLGSV,2,1,08,66,00,000,12,86,16,182,18,65,25,271,25,72,23,224,33*61,1606995266110
NMEA,$GLGSV,2,2,08,74,35,043,,73,08,087,,84,35,045,,85,56,137,*6C,1606995266110
NMEA,$GAGSV,2,1,06,02,16,289,,03,37,277,,05,37,206,,08,04,317,*62,1606995266110
NMEA,$GAGSV,2,2,06,25,46,338,,36,22,174,*64,1606995266110
NMEA,$PQGSV,1,1,03,193,21,170,16,194,60,042,16,195,65,108,17,0,5*6A,1606995266111
NMEA,$PQGSV,4,1,16,02,40,239,21,03,59,202,21,05,16,255,28,06,59,187,14,0,4*63,1606995266111
NMEA,$PQGSV,4,2,16,10,47,293,26,14,18,247,29,16,61,192,16,24,42,333,17,0,4*6A,1606995266111
NMEA,$PQGSV,4,3,16,26,52,052,12,01,52,129,,04,37,113,,07,59,337,,0,4*6F,1606995266111
NMEA,$PQGSV,4,4,16,08,11,167,,09,70,260,,11,02,203,,12,48,181,,0,4*6A,1606995266111
NMEA,$GNGSA,A,3,04,08,09,16,21,26,31,,,,,,1.2,0.9,0.9,1*35,1606995266112
NMEA,$GNGSA,A,2,65,72,,,,,,,,,,,1.2,0.9,0.9,2*36,1606995266112
NMEA,$PQGSA,A,2,14,,,,,,,,,,,,1.2,0.9,0.9,4*3B,1606995266113
NMEA,$GNVTG,,T,,M,0.0,N,0.0,K,A*3D,1606995266113
NMEA,$GNRMC,113427.00,A,2255.527298,N,12017.672411,E,0.0,,031220,2.8,W,A*1C,1606995266114
NMEA,$GNGGA,113427.00,2255.527298,N,12017.672411,E,1,10,0.9,35.1,M,17.5,M,,*4D,1606995266120
Raw,24771688,24777552000000,,,-1291005707889169920,0.0,80.03357652341947,-3.682092221635907,14.720968022252642,4198,2,0.0,207,52467359636973,368,12.3,-393.9701232910156,11.080000877380371,0,0.0,0.0,,,,,0,,3,,
Raw,24771689,24777552000000,,,-1291005707889169920,0.0,80.03357652341947,-3.682092221635907,14.720968022252642,4198,22,0.0,207,52467364904617,53,19.4,-827.7808227539062,1.1225000619888306,0,0.0,0.0,,,,,0,,3,,
Raw,24771689,24777552000000,,,-1291005707889169920,0.0,80.03357652341947,-3.682092221635907,14.720968022252642,4198,1,0.0,207,52467367549725,40,21.4,239.26339721679688,0.996999979019165,0,0.0,0.0,,,,,0,,3,,
Raw,24771689,24777552000000,,,-1291005707889169920,0.0,80.03357652341947,-3.682092221635907,14.720968022252642,4198,8,0.0,207,52467366632821,10,34.0,589.505126953125,0.23110000789165497,0,0.0,0.0,,,,,0,,3,,
Raw,24771689,24777552000000,,,-1291005707889169920,0.0,80.03357652341947,-3.682092221635907,14.720968022252642,4198,3,0.0,15,387285355845428,61,19.5,294.79345703125,2.439000129699707,0,0.0,0.0,,,,,0,,1,,
Raw,24771689,24777552000000,,,-1291005707889169920,0.0,80.03357652341947,-3.682092221635907,14.720968022252642,4198,4,0.0,15,387285370426206,35,22.5,-28.211036682128906,0.7414999604225159,0,0.0,0.0,,,,,0,,1,,
Raw,24771690,24777552000000,,,-1291005707889169920,0.0,80.03357652341947,-3.682092221635907,14.720968022252642,4198,8,0.0,15,387285370537101,17,28.0,-427.2301330566406,0.04830000177025795,0,0.0,0.0,,,,,0,,1,,
Raw,24771690,24777552000000,,,-1291005707889169920,0.0,80.03357652341947,-3.682092221635907,14.720968022252642,4198,9,0.0,15,387285363310541,31,23.9,-395.43975830078125,0.6710000038146973,0,0.0,0.0,,,,,0,,1,,
Raw,24771690,24777552000000,,,-1291005707889169920,0.0,80.03357652341947,-3.682092221635907,14.720968022252642,4198,16,0.0,15,387285369758824,329,14.1,243.33802795410156,10.77500057220459,0,0.0,0.0,,,,,0,,1,,
Raw,24771690,24777552000000,,,-1291005707889169920,0.0,80.03357652341947,-3.682092221635907,14.720968022252642,4198,21,0.0,15,387285360644728,98,17.3,-583.3167114257812,4.166500091552734,0,0.0,0.0,,,,,0,,1,,
Raw,24771690,24777552000000,,,-1291005707889169920,0.0,80.03357652341947,-3.682092221635907,14.720968022252642,4198,26,0.0,15,387285364963232,929,17.4,334.47918701171875,6.212500095367432,0,0.0,0.0,,,,,0,,1,,
Raw,24771690,24777552000000,,,-1291005707889169920,0.0,80.03357652341947,-3.682092221635907,14.720968022252642,4198,31,0.0,15,387285363206780,149,18.8,398.1229248046875,6.806000232696533,0,0.0,0.0,,,,,0,,1,,
Raw,24771691,24777552000000,,,-1291005707889169920,0.0,80.03357652341947,-3.682092221635907,14.720968022252642,4198,2,0.0,783,387271316108764,100,20.7,-0.028805924579501152,5.31350040435791,0,0.0,0.0,,,,,0,,5,,
Raw,24771691,24777552000000,,,-1291005707889169920,0.0,80.03357652341947,-3.682092221635907,14.720968022252642,4198,3,0.0,783,387271319493767,440,20.9,-2.2180562019348145,13.670001029968262,0,0.0,0.0,,,,,0,,5,,
Raw,24771691,24777552000000,,,-1291005707889169920,0.0,80.03357652341947,-3.682092221635907,14.720968022252642,4198,5,0.0,783,387271307835766,26,27.6,1.5075099468231201,1.9550000429153442,0,0.0,0.0,,,,,0,,5,,
Raw,24771691,24777552000000,,,-1291005707889169920,0.0,80.03357652341947,-3.682092221635907,14.720968022252642,4198,6,0.0,15,387271320280974,182,14.4,174.6791229248047,6.506500244140625,0,0.0,0.0,,,,,0,,5,,
Raw,24771691,24777552000000,,,-1291005707889169920,0.0,80.03357652341947,-3.682092221635907,14.720968022252642,4198,10,0.0,15,387271315955452,24,25.0,50.00001907348633,0.4043000042438507,0,0.0,0.0,,,,,0,,5,,
Raw,24771691,24777552000000,,,-1291005707889169920,0.0,80.03357652341947,-3.682092221635907,14.720968022252642,4198,14,0.0,15,387271356767893,17,28.5,309.15869140625,0.05730000138282776,0,0.0,0.0,,,,,0,,5,,
Raw,24771691,24777552000000,,,-1291005707889169920,0.0,80.03357652341947,-3.682092221635907,14.720968022252642,4198,16,0.0,15,387271319406054,176,16.3,189.00526428222656,7.105000019073486,0,0.0,0.0,,,,,0,,5,,
Raw,24771692,24777552000000,,,-1291005707889169920,0.0,80.03357652341947,-3.682092221635907,14.720968022252642,4198,24,0.0,15,387271363089577,70,17.5,-288.7698059082031,1.0010000467300415,0,0.0,0.0,,,,,0,,5,,
Raw,24771692,24777552000000,,,-1291005707889169920,0.0,80.03357652341947,-3.682092221635907,14.720968022252642,4198,26,0.0,15,387271366727070,218,12.4,19.213552474975586,6.735500335693359,0,0.0,0.0,,,,,0,,5,,
Fix,gps,22.925455,120.294540,52.611572,0.000000,6.432000,1606995268000
NMEA,$GPGSV,3,1,12,03,02,230,20,04,52,274,23,08,49,217,28,09,23,307,24*78,1606995267119
NMEA,$GPGSV,3,2,12,11,00,000,16,16,47,008,14,21,07,182,17,26,30,046,17*7F,1606995267120
NMEA,$GPGSV,3,3,12,31,26,111,19,18,07,053,,22,01,209,,27,88,092,*79,1606995267120
NMEA,$GLGSV,2,1,08,66,00,000,12,86,16,182,19,65,25,271,21,72,23,224,34*63,1606995267121
NMEA,$GLGSV,2,2,08,74,35,043,,73,08,087,,84,35,045,,85,56,137,*6C,1606995267125
NMEA,$GAGSV,2,1,06,02,16,289,,03,37,277,,05,37,206,,08,04,317,*62,1606995267130
NMEA,$GAGSV,2,2,06,25,46,338,,36,22,174,*64,1606995267131
NMEA,$PQGSV,1,1,03,193,21,170,16,194,60,042,16,195,65,108,19,0,5*64,1606995267131
NMEA,$PQGSV,4,1,16,02,40,239,21,03,59,202,21,05,16,255,28,06,59,187,14,0,4*63,1606995267132
NMEA,$PQGSV,4,2,16,10,47,293,25,14,18,247,29,16,61,192,16,24,42,333,18,0,4*66,1606995267134
NMEA,$PQGSV,4,3,16,26,52,052,12,01,52,129,,04,37,113,,07,59,337,,0,4*6F,1606995267135
NMEA,$PQGSV,4,4,16,08,11,167,,09,70,260,,11,02,203,,12,48,181,,0,4*6A,1606995267135
NMEA,$GNGSA,A,3,04,08,09,16,21,26,31,,,,,,1.2,0.9,0.9,1*35,1606995267138
NMEA,$GNGSA,A,2,65,72,,,,,,,,,,,1.2,0.9,0.9,2*36,1606995267138
NMEA,$PQGSA,A,2,14,,,,,,,,,,,,1.2,0.9,0.9,4*3B,1606995267139
NMEA,$GNVTG,,T,,M,0.0,N,0.0,K,A*3D,1606995267139
NMEA,$GNRMC,113428.00,A,2255.527299,N,12017.672400,E,0.0,,031220,2.8,W,A*12,1606995267140
NMEA,$GNGGA,113428.00,2255.527299,N,12017.672400,E,1,10,0.9,35.1,M,17.5,M,,*43,1606995267140
Raw,24772560,24778552000000,,,-1291005707889169920,0.0,81.81408338714391,-3.5792133685937255,16.12154938053132,4198,2,0.0,207,52468359638287,441,12.3,-393.9701232910156,12.580000877380371,0,0.0,0.0,,,,,0,,3,,
Raw,24772560,24778552000000,,,-1291005707889169920,0.0,81.81408338714391,-3.5792133685937255,16.12154938053132,4198,22,0.0,207,52468364907428,61,18.2,-827.5841064453125,1.2025001049041748,0,0.0,0.0,,,,,0,,3,,
Raw,24772560,24778552000000,,,-1291005707889169920,0.0,81.81408338714391,-3.5792133685937255,16.12154938053132,4198,1,0.0,207,52468367548830,46,20.9,240.67579650878906,1.056999921798706,0,0.0,0.0,,,,,0,,3,,
Raw,24772560,24778552000000,,,-1291005707889169920,0.0,81.81408338714391,-3.5792133685937255,16.12154938053132,4198,8,0.0,207,52468366630850,10,34.5,590.6420288085938,0.23110000789165497,0,0.0,0.0,,,,,0,,3,,
Raw,24772560,24778552000000,,,-1291005707889169920,0.0,81.81408338714391,-3.5792133685937255,16.12154938053132,4198,3,0.0,15,387286355844422,73,17.8,294.802978515625,1.8489999771118164,0,0.0,0.0,,,,,0,,1,,
Raw,24772561,24778552000000,,,-1291005707889169920,0.0,81.81408338714391,-3.5792133685937255,16.12154938053132,4198,4,0.0,15,387286370426295,21,26.1,-27.12801742553711,0.12620000541210175,0,0.0,0.0,,,,,0,,1,,
Raw,24772561,24778552000000,,,-1291005707889169920,0.0,81.81408338714391,-3.5792133685937255,16.12154938053132,4198,8,0.0,15,387286370538553,14,30.7,-426.0238952636719,0.040800001472234726,0,0.0,0.0,,,,,0,,1,,
Raw,24772561,24778552000000,,,-1291005707889169920,0.0,81.81408338714391,-3.5792133685937255,16.12154938053132,4198,9,0.0,15,387286363311863,24,25.2,-394.4311218261719,0.3862999975681305,0,0.0,0.0,,,,,0,,1,,
Raw,24772561,24778552000000,,,-1291005707889169920,0.0,81.81408338714391,-3.5792133685937255,16.12154938053132,4198,16,0.0,15,387286369758012,401,14.1,243.33802795410156,12.27500057220459,0,0.0,0.0,,,,,0,,1,,
Raw,24772561,24778552000000,,,-1291005707889169920,0.0,81.81408338714391,-3.5792133685937255,16.12154938053132,4198,21,0.0,15,387286360646722,102,15.2,-581.337646484375,2.8565001487731934,0,0.0,0.0,,,,,0,,1,,
Raw,24772562,24778552000000,,,-1291005707889169920,0.0,81.81408338714391,-3.5792133685937255,16.12154938053132,4198,26,0.0,15,387286364962110,949,17.3,334.5077209472656,6.962500095367432,0,0.0,0.0,,,,,0,,1,,
Raw,24772562,24778552000000,,,-1291005707889169920,0.0,81.81408338714391,-3.5792133685937255,16.12154938053132,4198,31,0.0,15,387286363205576,95,15.2,398.941162109375,1.9910000562667847,0,0.0,0.0,,,,,0,,1,,
Raw,24772562,24778552000000,,,-1291005707889169920,0.0,81.81408338714391,-3.5792133685937255,16.12154938053132,4198,2,0.0,783,387272316108764,54,20.1,6.942227840423584,2.313500165939331,0,0.0,0.0,,,,,0,,5,,
Raw,24772562,24778552000000,,,-1291005707889169920,0.0,81.81408338714391,-3.5792133685937255,16.12154938053132,4198,3,0.0,783,387272319493775,534,20.9,-2.2180562019348145,15.170001029968262,0,0.0,0.0,,,,,0,,5,,
Raw,24772562,24778552000000,,,-1291005707889169920,0.0,81.81408338714391,-3.5792133685937255,16.12154938053132,4198,5,0.0,783,387272307835735,21,27.3,1.6611417531967163,1.2050000429153442,0,0.0,0.0,,,,,0,,5,,
Raw,24772563,24778552000000,,,-1291005707889169920,0.0,81.81408338714391,-3.5792133685937255,16.12154938053132,4198,6,0.0,15,387272320280391,227,14.4,174.6791229248047,8.006500244140625,0,0.0,0.0,,,,,0,,5,,
Raw,24772563,24778552000000,,,-1291005707889169920,0.0,81.81408338714391,-3.5792133685937255,16.12154938053132,4198,10,0.0,15,387272315955288,24,25.7,50.72367858886719,0.4043000042438507,0,0.0,0.0,,,,,0,,5,,
Raw,24772563,24778552000000,,,-1291005707889169920,0.0,81.81408338714391,-3.5792133685937255,16.12154938053132,4198,14,0.0,15,387272356766848,16,29.6,310.251953125,0.050700001418590546,0,0.0,0.0,,,,,0,,5,,
Raw,24772563,24778552000000,,,-1291005707889169920,0.0,81.81408338714391,-3.5792133685937255,16.12154938053132,4198,16,0.0,15,387272319405424,225,16.3,189.00526428222656,8.605000495910645,0,0.0,0.0,,,,,0,,5,,
Raw,24772563,24778552000000,,,-1291005707889169920,0.0,81.81408338714391,-3.5792133685937255,16.12154938053132,4198,24,0.0,15,387272363090540,78,17.5,-288.7698059082031,2.501000165939331,0,0.0,0.0,,,,,0,,5,,
Raw,24772564,24778552000000,,,-1291005707889169920,0.0,81.81408338714391,-3.5792133685937255,16.12154938053132,4198,26,0.0,15,387272366726877,96,15.7,19.808874130249023,1.9255000352859497,0,0.0,0.0,,,,,0,,5,,
Fix,gps,22.925455,120.294541,52.511292,0.000000,6.432000,1606995269000
NMEA,$GPGSV,3,1,12,03,02,230,18,04,52,274,26,08,49,217,31,09,23,307,25*7F,1606995268120
NMEA,$GPGSV,3,2,12,11,00,000,14,16,47,008,14,21,07,182,15,26,30,046,17*7F,1606995268121
NMEA,$GPGSV,3,3,12,31,26,111,15,18,07,053,,22,01,209,,27,88,092,*75,1606995268122
NMEA,$GLGSV,2,1,08,66,00,000,12,86,16,182,18,65,25,271,21,72,23,224,35*63,1606995268123
NMEA,$GLGSV,2,2,08,74,35,043,,73,08,087,,84,35,045,,85,56,137,*6C,1606995268123
NMEA,$GAGSV,2,1,06,02,16,289,,03,37,277,,05,37,206,,08,04,317,*62,1606995268124
NMEA,$GAGSV,2,2,06,25,46,338,,36,22,174,*64,1606995268124
NMEA,$PQGSV,1,1,03,193,21,170,18,194,60,042,16,195,65,108,19,0,5*6A,1606995268125
NMEA,$PQGSV,4,1,16,02,40,239,20,03,59,202,21,05,16,255,27,06,59,187,14,0,4*6D,1606995268125
NMEA,$PQGSV,4,2,16,10,47,293,26,14,18,247,30,16,61,192,16,24,42,333,18,0,4*6D,1606995268127
NMEA,$PQGSV,4,3,16,26,52,052,16,01,52,129,,04,37,113,,07,59,337,,0,4*6B,1606995268128
NMEA,$PQGSV,4,4,16,08,11,167,,09,70,260,,11,02,203,,12,48,181,,0,4*6A,1606995268128
NMEA,$GNGSA,A,3,04,08,09,16,21,26,31,,,,,,1.2,0.9,0.9,1*35,1606995268130
NMEA,$GNGSA,A,2,65,72,,,,,,,,,,,1.2,0.9,0.9,2*36,1606995268131
NMEA,$PQGSA,A,2,14,,,,,,,,,,,,1.2,0.9,0.9,4*3B,1606995268132
NMEA,$GNVTG,,T,,M,0.0,N,0.0,K,A*3D,1606995268133
NMEA,$GNRMC,113429.00,A,2255.527311,N,12017.672453,E,0.0,,031220,2.8,W,A*14,1606995268133
NMEA,$GNGGA,113429.00,2255.527311,N,12017.672453,E,1,10,0.9,35.0,M,17.5,M,,*44,1606995268134
NMEA,$GPGSV,3,1,12,03,02,230,18,04,52,274,25,08,49,217,30,09,23,307,24*7C,1606995269107
NMEA,$GPGSV,3,2,12,11,00,000,14,16,47,008,14,21,07,182,21,26,30,046,17*78,1606995269108
NMEA,$GPGSV,3,3,12,31,26,111,19,18,07,053,,22,01,209,,27,88,092,*79,1606995269108
Raw,24773567,24779552000000,,,-1291005707889169920,0.0,79.93241160875186,-0.6113362627791739,16.745615770090406,4198,2,0.0,207,52469359639601,524,12.3,-393.9701232910156,14.080000877380371,0,0.0,0.0,,,,,0,,3,,
Raw,24773567,24779552000000,,,-1291005707889169920,0.0,79.93241160875186,-0.6113362627791739,16.745615770090406,4198,22,0.0,207,52469364910228,61,18.2,-828.361572265625,1.2025001049041748,0,0.0,0.0,,,,,0,,3,,
Raw,24773567,24779552000000,,,-1291005707889169920,0.0,79.93241160875186,-0.6113362627791739,16.745615770090406,4198,1,0.0,207,52469367548112,40,21.0,239.40370178222656,0.996999979019165,0,0.0,0.0,,,,,0,,3,,
Raw,24773567,24779552000000,,,-1291005707889169920,0.0,79.93241160875186,-0.6113362627791739,16.745615770090406,4198,8,0.0,207,52469366628878,13,31.3,589.7272338867188,0.23420000076293945,0,0.0,0.0,,,,,0,,3,,
Raw,24773568,24779552000000,,,-1291005707889169920,0.0,79.93241160875186,-0.6113362627791739,16.745615770090406,4198,3,0.0,15,387287355843450,61,18.2,293.09033203125,1.0989999771118164,0,0.0,0.0,,,,,0,,1,,
Raw,24773568,24779552000000,,,-1291005707889169920,0.0,79.93241160875186,-0.6113362627791739,16.745615770090406,4198,4,0.0,15,387287370426424,27,24.6,-27.4879207611084,0.6315000057220459,0,0.0,0.0,,,,,0,,1,,
Raw,24773568,24779552000000,,,-1291005707889169920,0.0,79.93241160875186,-0.6113362627791739,16.745615770090406,4198,8,0.0,15,387287370539937,16,29.7,-426.8765563964844,0.04170000180602074,0,0.0,0.0,,,,,0,,1,,
Raw,24773568,24779552000000,,,-1291005707889169920,0.0,79.93241160875186,-0.6113362627791739,16.745615770090406,4198,9,0.0,15,387287363313203,27,24.0,-395.6015319824219,0.6710000038146973,0,0.0,0.0,,,,,0,,1,,
Raw,24773568,24779552000000,,,-1291005707889169920,0.0,79.93241160875186,-0.6113362627791739,16.745615770090406,4198,16,0.0,15,387287369757200,483,14.1,243.33802795410156,13.77500057220459,0,0.0,0.0,,,,,0,,1,,
Raw,24773568,24779552000000,,,-1291005707889169920,0.0,79.93241160875186,-0.6113362627791739,16.745615770090406,4198,21,0.0,15,387287360648515,40,21.1,-583.411865234375,0.8464999794960022,0,0.0,0.0,,,,,0,,1,,
Raw,24773569,24779552000000,,,-1291005707889169920,0.0,79.93241160875186,-0.6113362627791739,16.745615770090406,4198,26,0.0,15,387287364960995,972,17.4,334.5172424316406,7.712500095367432,0,0.0,0.0,,,,,0,,1,,
Raw,24773569,24779552000000,,,-1291005707889169920,0.0,79.93241160875186,-0.6113362627791739,16.745615770090406,4198,31,0.0,15,387287363204203,61,18.5,399.18853759765625,1.0010000467300415,0,0.0,0.0,,,,,0,,1,,
Raw,24773569,24779552000000,,,-1291005707889169920,0.0,79.93241160875186,-0.6113362627791739,16.745615770090406,4198,2,0.0,783,387273316108741,72,20.1,6.942227840423584,3.813500165939331,0,0.0,0.0,,,,,0,,5,,
Raw,24773569,24779552000000,,,-1291005707889169920,0.0,79.93241160875186,-0.6113362627791739,16.745615770090406,4198,3,0.0,783,387273319493782,637,20.9,-2.2180562019348145,16.670000076293945,0,0.0,0.0,,,,,0,,5,,
Raw,24773569,24779552000000,,,-1291005707889169920,0.0,79.93241160875186,-0.6113362627791739,16.745615770090406,4198,5,0.0,783,387273307835729,17,28.5,-5.002628803253174,0.4150000214576721,0,0.0,0.0,,,,,0,,5,,
Raw,24773569,24779552000000,,,-1291005707889169920,0.0,79.93241160875186,-0.6113362627791739,16.745615770090406,4198,6,0.0,15,387273320279747,151,13.5,177.4156951904297,4.356500148773193,0,0.0,0.0,,,,,0,,5,,
Raw,24773570,24779552000000,,,-1291005707889169920,0.0,79.93241160875186,-0.6113362627791739,16.745615770090406,4198,10,0.0,15,387273315955130,24,25.8,50.077701568603516,0.4043000042438507,0,0.0,0.0,,,,,0,,5,,
Raw,24773570,24779552000000,,,-1291005707889169920,0.0,79.93241160875186,-0.6113362627791739,16.745615770090406,4198,14,0.0,15,387273356765826,16,29.0,309.36004638671875,0.050700001418590546,0,0.0,0.0,,,,,0,,5,,
Raw,24773570,24779552000000,,,-1291005707889169920,0.0,79.93241160875186,-0.6113362627791739,16.745615770090406,4198,16,0.0,15,387273319404808,204,11.7,189.79261779785156,5.375,0,0.0,0.0,,,,,0,,5,,
Raw,24773570,24779552000000,,,-1291005707889169920,0.0,79.93241160875186,-0.6113362627791739,16.745615770090406,4198,24,0.0,15,387273363091539,84,16.0,-288.33770751953125,1.8309999704360962,0,0.0,0.0,,,,,0,,5,,
Raw,24773570,24779552000000,,,-1291005707889169920,0.0,79.93241160875186,-0.6113362627791739,16.745615770090406,4198,26,0.0,15,387273366726811,110,15.7,19.808874130249023,3.4255001544952393,0,0.0,0.0,,,,,0,,5,,
Fix,gps,22.925456,120.294542,52.442139,0.000000,6.432000,1606995270000
NMEA,$GLGSV,2,1,08,66,00,000,12,86,16,182,18,65,25,271,21,72,23,224,31*67,1606995269108
NMEA,$GLGSV,2,2,08,74,35,043,,73,08,087,,84,35,045,,85,56,137,*6C,1606995269108
NMEA,$GAGSV,2,1,06,02,16,289,,03,37,277,,05,37,206,,08,04,317,*62,1606995269108
NMEA,$GAGSV,2,2,06,25,46,338,,36,22,174,*64,1606995269109
NMEA,$PQGSV,1,1,03,193,21,170,18,194,60,042,16,195,65,108,18,0,5*6B,1606995269109
NMEA,$PQGSV,4,1,16,02,40,239,20,03,59,202,21,05,16,255,29,06,59,187,14,0,4*63,1606995269110
NMEA,$PQGSV,4,2,16,10,47,293,26,14,18,247,29,16,61,192,12,24,42,333,16,0,4*6F,1606995269111
NMEA,$PQGSV,4,3,16,26,52,052,16,01,52,129,,04,37,113,,07,59,337,,0,4*6B,1606995269111
NMEA,$PQGSV,4,4,16,08,11,167,,09,70,260,,11,02,203,,12,48,181,,0,4*6A,1606995269112
NMEA,$GNGSA,A,3,04,08,09,16,21,26,31,,,,,,1.2,0.9,0.9,1*35,1606995269113
NMEA,$GNGSA,A,2,65,72,,,,,,,,,,,1.2,0.9,0.9,2*36,1606995269113
NMEA,$PQGSA,A,2,14,,,,,,,,,,,,1.2,0.9,0.9,4*3B,1606995269114
NMEA,$GNVTG,,T,,M,0.0,N,0.0,K,A*3D,1606995269114
NMEA,$GNRMC,113430.00,A,2255.527335,N,12017.672540,E,0.0,,031220,2.8,W,A*19,1606995269114
NMEA,$GNGGA,113430.00,2255.527335,N,12017.672540,E,1,10,0.9,35.0,M,17.5,M,,*49,1606995269115
Raw,24774625,24780552000000,,,-1291005707889169920,0.0,82.58185698650777,-3.4514522308423,17.05824303811574,4198,2,0.0,207,52470359640916,617,12.3,-393.9701232910156,15.580000877380371,0,0.0,0.0,,,,,0,,3,,
Raw,24774625,24780552000000,,,-1291005707889169920,0.0,82.58185698650777,-3.4514522308423,17.05824303811574,4198,22,0.0,207,52470364912905,80,16.3,-829.6541137695312,1.3725000619888306,0,0.0,0.0,,,,,0,,3,,
Raw,24774626,24780552000000,,,-1291005707889169920,0.0,82.58185698650777,-3.4514522308423,17.05824303811574,4198,1,0.0,207,52470367547229,35,22.1,238.65542602539062,0.9369999766349792,0,0.0,0.0,,,,,0,,3,,
Raw,24774626,24780552000000,,,-1291005707889169920,0.0,82.58185698650777,-3.4514522308423,17.05824303811574,4198,8,0.0,207,52470366626935,12,32.6,588.8745727539062,0.232900008559227,0,0.0,0.0,,,,,0,,3,,
Raw,24774627,24780552000000,,,-1291005707889169920,0.0,82.58185698650777,-3.4514522308423,17.05824303811574,4198,3,0.0,15,387288355842516,53,19.4,292.11981201171875,1.0190000534057617,0,0.0,0.0,,,,,0,,1,,
Raw,24774627,24780552000000,,,-1291005707889169920,0.0,82.58185698650777,-3.4514522308423,17.05824303811574,4198,4,0.0,15,387288370426554,24,25.1,-28.356393814086914,0.3968000113964081,0,0.0,0.0,,,,,0,,1,,
Raw,24774628,24780552000000,,,-1291005707889169920,0.0,82.58185698650777,-3.4514522308423,17.05824303811574,4198,8,0.0,15,387288370541363,17,28.9,-427.6638488769531,0.04830000177025795,0,0.0,0.0,,,,,0,,1,,
Raw,24774628,24780552000000,,,-1291005707889169920,0.0,82.58185698650777,-3.4514522308423,17.05824303811574,4198,9,0.0,15,387288363314549,35,22.9,-396.30560302734375,0.7310000061988831,0,0.0,0.0,,,,,0,,1,,
Raw,24774629,24780552000000,,,-1291005707889169920,0.0,82.58185698650777,-3.4514522308423,17.05824303811574,4198,16,0.0,15,387288369756389,575,14.1,243.33802795410156,15.27500057220459,0,0.0,0.0,,,,,0,,1,,
Raw,24774629,24780552000000,,,-1291005707889169920,0.0,82.58185698650777,-3.4514522308423,17.05824303811574,4198,21,0.0,15,387288360650542,80,16.7,-581.7658081054688,1.1664999723434448,0,0.0,0.0,,,,,0,,1,,
Raw,24774630,24780552000000,,,-1291005707889169920,0.0,82.58185698650777,-3.4514522308423,17.05824303811574,4198,26,0.0,15,387288364959876,997,17.2,334.4506530761719,8.46250057220459,0,0.0,0.0,,,,,0,,1,,
Raw,24774630,24780552000000,,,-1291005707889169920,0.0,82.58185698650777,-3.4514522308423,17.05824303811574,4198,31,0.0,15,387288363202807,80,16.1,397.66619873046875,1.2610000371932983,0,0.0,0.0,,,,,0,,1,,
Raw,24774631,24780552000000,,,-1291005707889169920,0.0,82.58185698650777,-3.4514522308423,17.05824303811574,4198,2,0.0,783,387274316108718,100,20.1,6.942227840423584,5.31350040435791,0,0.0,0.0,,,,,0,,5,,
Raw,24774631,24780552000000,,,-1291005707889169920,0.0,82.58185698650777,-3.4514522308423,17.05824303811574,4198,3,0.0,783,387274319493790,751,20.9,-2.2180562019348145,18.170000076293945,0,0.0,0.0,,,,,0,,5,,
Raw,24774632,24780552000000,,,-1291005707889169920,0.0,82.58185698650777,-3.4514522308423,17.05824303811574,4198,5,0.0,783,387274307835733,17,28.4,2.7269606590270996,0.4150000214576721,0,0.0,0.0,,,,,0,,5,,
Raw,24774632,24780552000000,,,-1291005707889169920,0.0,82.58185698650777,-3.4514522308423,17.05824303811574,4198,6,0.0,15,387274320279155,180,13.5,177.4156951904297,5.856500148773193,0,0.0,0.0,,,,,0,,5,,
Raw,24774633,24780552000000,,,-1291005707889169920,0.0,82.58185698650777,-3.4514522308423,17.05824303811574,4198,10,0.0,15,387274315954944,27,24.6,48.979671478271484,0.5989999771118164,0,0.0,0.0,,,,,0,,5,,
Raw,24774633,24780552000000,,,-1291005707889169920,0.0,82.58185698650777,-3.4514522308423,17.05824303811574,4198,14,0.0,15,387274356764802,17,28.4,308.52435302734375,0.05730000138282776,0,0.0,0.0,,,,,0,,5,,
Raw,24774634,24780552000000,,,-1291005707889169920,0.0,82.58185698650777,-3.4514522308423,17.05824303811574,4198,16,0.0,15,387274319404175,240,11.7,189.79261779785156,6.875000476837158,0,0.0,0.0,,,,,0,,5,,
Raw,24774634,24780552000000,,,-1291005707889169920,0.0,82.58185698650777,-3.4514522308423,17.05824303811574,4198,24,0.0,15,387274363092563,70,17.6,-288.4049072265625,1.0010000467300415,0,0.0,0.0,,,,,0,,5,,
Raw,24774635,24780552000000,,,-1291005707889169920,0.0,82.58185698650777,-3.4514522308423,17.05824303811574,4198,26,0.0,15,387274366726745,134,15.7,19.808874130249023,4.925500392913818,0,0.0,0.0,,,,,0,,5,,
Fix,gps,22.925456,120.294543,52.455017,0.000000,6.432000,1606995271000
NMEA,$GPGSV,3,1,12,03,02,230,19,04,52,274,25,08,49,217,29,09,23,307,23*72,1606995270107
NMEA,$GPGSV,3,2,12,11,00,000,14,16,47,008,14,21,07,182,17,26,30,046,17*7D,1606995270107
NMEA,$GPGSV,3,3,12,31,26,111,16,18,07,053,,22,01,209,,27,88,092,*76,1606995270108
NMEA,$GLGSV,2,1,08,66,00,000,12,86,16,182,16,65,25,271,22,72,23,224,33*68,1606995270108
NMEA,$GLGSV,2,2,08,74,35,043,,73,08,087,,84,35,045,,85,56,137,*6C,1606995270110
NMEA,$GAGSV,2,1,06,02,16,289,,03,37,277,,05,37,206,,08,04,317,*62,1606995270110
NMEA,$GAGSV,2,2,06,25,46,338,,36,22,174,*64,1606995270110
NMEA,$PQGSV,1,1,03,193,21,170,17,194,60,042,16,195,65,108,18,0,5*64,1606995270111
NMEA,$PQGSV,4,1,16,02,40,239,20,03,59,202,21,05,16,255,28,06,59,187,14,0,4*62,1606995270111
NMEA,$PQGSV,4,2,16,10,47,293,25,14,18,247,28,16,61,192,12,24,42,333,18,0,4*63,1606995270113
NMEA,$PQGSV,4,3,16,26,52,052,16,01,52,129,,04,37,113,,07,59,337,,0,4*6B,1606995270113
NMEA,$PQGSV,4,4,16,08,11,167,,09,70,260,,11,02,203,,12,48,181,,0,4*6A,1606995270113
NMEA,$GNGSA,A,3,04,08,09,16,21,26,31,,,,,,1.2,0.9,0.9,1*35,1606995270115
NMEA,$GNGSA,A,2,65,72,,,,,,,,,,,1.2,0.9,0.9,2*36,1606995270115
NMEA,$PQGSA,A,2,14,,,,,,,,,,,,1.2,0.9,0.9,4*3B,1606995270115
NMEA,$GNVTG,,T,,M,0.0,N,0.0,K,A*3D,1606995270115
NMEA,$GNRMC,113431.00,A,2255.527348,N,12017.672580,E,0.0,,031220,2.8,W,A*1E,1606995270116
NMEA,$GNGGA,113431.00,2255.527348,N,12017.672580,E,1,10,0.9,35.0,M,17.5,M,,*4E,1606995270116
NMEA,$GPGSV,3,1,12,03,02,230,18,04,52,274,26,08,49,217,27,09,23,307,29*74,1606995271106
NMEA,$GPGSV,3,2,12,11,00,000,21,16,47,008,14,21,07,182,17,26,30,046,17*7B,1606995271106
Raw,24775555,24781552000000,,,-1291005707889169920,0.0,82.2704314487055,-6.17239994892061,18.38521180231509,4198,2,0.0,207,52471359642230,720,12.3,-393.9701232910156,17.079999923706055,0,0.0,0.0,,,,,0,,3,,
Raw,24775555,24781552000000,,,-1291005707889169920,0.0,82.2704314487055,-6.17239994892061,18.38521180231509,4198,22,0.0,207,52471364915856,61,18.7,-830.6282958984375,1.2025001049041748,0,0.0,0.0,,,,,0,,3,,
Raw,24775556,24781552000000,,,-1291005707889169920,0.0,82.2704314487055,-6.17239994892061,18.38521180231509,4198,1,0.0,207,52471367546516,24,25.2,237.37969970703125,0.5922999978065491,0,0.0,0.0,,,,,0,,3,,
Raw,24775556,24781552000000,,,-1291005707889169920,0.0,82.2704314487055,-6.17239994892061,18.38521180231509,4198,8,0.0,207,52471366624957,11,33.4,587.554443359375,0.23190000653266907,0,0.0,0.0,,,,,0,,3,,
Raw,24775557,24781552000000,,,-1291005707889169920,0.0,82.2704314487055,-6.17239994892061,18.38521180231509,4198,3,0.0,15,387289355841435,61,18.2,292.81439208984375,1.0989999771118164,0,0.0,0.0,,,,,0,,1,,
Raw,24775558,24781552000000,,,-1291005707889169920,0.0,82.2704314487055,-6.17239994892061,18.38521180231509,4198,4,0.0,15,387289370426609,21,26.2,-30.2135066986084,0.12620000541210175,0,0.0,0.0,,,,,0,,1,,
Raw,24775559,24781552000000,,,-1291005707889169920,0.0,82.2704314487055,-6.17239994892061,18.38521180231509,4198,8,0.0,15,387289370542791,19,27.4,-429.2073669433594,0.5414999723434448,0,0.0,0.0,,,,,0,,1,,
Raw,24775559,24781552000000,,,-1291005707889169920,0.0,82.2704314487055,-6.17239994892061,18.38521180231509,4198,9,0.0,15,387289363315883,16,29.0,-397.32281494140625,0.031200001016259193,0,0.0,0.0,,,,,0,,1,,
Raw,24775560,24781552000000,,,-1291005707889169920,0.0,82.2704314487055,-6.17239994892061,18.38521180231509,4198,16,0.0,15,387289369755577,677,14.1,243.33802795410156,16.775001525878906,0,0.0,0.0,,,,,0,,1,,
Raw,24775560,24781552000000,,,-1291005707889169920,0.0,82.2704314487055,-6.17239994892061,18.38521180231509,4198,21,0.0,15,387289360652483,89,16.7,-581.7658081054688,2.6665000915527344,0,0.0,0.0,,,,,0,,1,,
Raw,24775561,24781552000000,,,-1291005707889169920,0.0,82.2704314487055,-6.17239994892061,18.38521180231509,4198,26,0.0,15,387289364958758,235,17.2,334.14617919921875,9.21250057220459,0,0.0,0.0,,,,,0,,1,,
Raw,24775561,24781552000000,,,-1291005707889169920,0.0,82.2704314487055,-6.17239994892061,18.38521180231509,4198,31,0.0,15,387289363201354,80,16.8,396.3531799316406,1.1710000038146973,0,0.0,0.0,,,,,0,,1,,
Raw,24775562,24781552000000,,,-1291005707889169920,0.0,82.2704314487055,-6.17239994892061,18.38521180231509,4198,2,0.0,783,387275316108736,48,21.0,10.984659194946289,2.253499984741211,0,0.0,0.0,,,,,0,,5,,
Raw,24775562,24781552000000,,,-1291005707889169920,0.0,82.2704314487055,-6.17239994892061,18.38521180231509,4198,3,0.0,783,387275319493797,875,20.9,-2.2180562019348145,19.670000076293945,0,0.0,0.0,,,,,0,,5,,
Raw,24775563,24781552000000,,,-1291005707889169920,0.0,82.2704314487055,-6.17239994892061,18.38521180231509,4198,5,0.0,783,387275307835724,24,28.4,2.7269606590270996,1.915000081062317,0,0.0,0.0,,,,,0,,5,,
Raw,24775563,24781552000000,,,-1291005707889169920,0.0,82.2704314487055,-6.17239994892061,18.38521180231509,4198,6,0.0,15,387275320278563,220,13.5,177.4156951904297,7.356500148773193,0,0.0,0.0,,,,,0,,5,,
Raw,24775563,24781552000000,,,-1291005707889169920,0.0,82.2704314487055,-6.17239994892061,18.38521180231509,4198,10,0.0,15,387275315954758,35,22.3,48.07708740234375,0.6889999508857727,0,0.0,0.0,,,,,0,,5,,
Raw,24775564,24781552000000,,,-1291005707889169920,0.0,82.2704314487055,-6.17239994892061,18.38521180231509,4198,14,0.0,15,387275356763763,17,28.2,307.1844177246094,0.05730000138282776,0,0.0,0.0,,,,,0,,5,,
Raw,24775564,24781552000000,,,-1291005707889169920,0.0,82.2704314487055,-6.17239994892061,18.38521180231509,4198,16,0.0,15,387275319403542,285,11.7,189.79261779785156,8.375,0,0.0,0.0,,,,,0,,5,,
Raw,24775565,24781552000000,,,-1291005707889169920,0.0,82.2704314487055,-6.17239994892061,18.38521180231509,4198,24,0.0,15,387275363093461,80,16.3,-287.3678894042969,1.0809999704360962,0,0.0,0.0,,,,,0,,5,,
Raw,24775565,24781552000000,,,-1291005707889169920,0.0,82.2704314487055,-6.17239994892061,18.38521180231509,4198,26,0.0,15,387275366726679,168,15.7,19.808874130249023,6.425500392913818,0,0.0,0.0,,,,,0,,5,,
Fix,gps,22.925456,120.294543,52.488647,0.000000,6.432000,1606995272000
NMEA,$GPGSV,3,3,12,31,26,111,17,18,07,053,,22,01,209,,27,88,092,*77,1606995271106
NMEA,$GLGSV,2,1,08,66,00,000,12,86,16,182,19,65,25,271,25,72,23,224,33*60,1606995271106
NMEA,$GLGSV,2,2,08,74,35,043,,73,08,087,,84,35,045,,85,56,137,*6C,1606995271106
NMEA,$GAGSV,2,1,06,02,16,289,,03,37,277,,05,37,206,,08,04,317,*62,1606995271107
NMEA,$GAGSV,2,2,06,25,46,338,,36,22,174,*64,1606995271107
NMEA,$PQGSV,1,1,03,193,21,170,17,194,60,042,16,195,65,108,17,0,5*6B,1606995271107
NMEA,$PQGSV,4,1,16,02,40,239,21,03,59,202,21,05,16,255,28,06,59,187,14,0,4*63,1606995271108
NMEA,$PQGSV,4,2,16,10,47,293,22,14,18,247,28,16,61,192,12,24,42,333,16,0,4*6A,1606995271108
NMEA,$PQGSV,4,3,16,26,52,052,16,01,52,129,,04,37,113,,07,59,337,,0,4*6B,1606995271109
NMEA,$PQGSV,4,4,16,08,11,167,,09,70,260,,11,02,203,,12,48,181,,0,4*6A,1606995271109
NMEA,$GNGSA,A,3,04,08,09,16,21,26,31,,,,,,1.2,0.9,0.9,1*35,1606995271112
NMEA,$GNGSA,A,2,65,72,,,,,,,,,,,1.2,0.9,0.9,2*36,1606995271112
NMEA,$PQGSA,A,2,14,,,,,,,,,,,,1.2,0.9,0.9,4*3B,1606995271113
NMEA,$GNVTG,,T,,M,0.0,N,0.0,K,A*3D,1606995271113
NMEA,$GNRMC,113432.00,A,2255.527352,N,12017.672583,E,0.0,,031220,2.8,W,A*15,1606995271113
NMEA,$GNGGA,113432.00,2255.527352,N,12017.672583,E,1,10,0.9,35.0,M,17.5,M,,*45,1606995271114
NMEA,$GPGSV,3,1,12,03,02,230,18,04,52,274,30,08,49,217,30,09,23,307,33*7E,1606995272106
Fix,gps,22.925456,120.294543,52.506042,0.000000,6.432000,1606995273000
Raw,24776556,24782552000000,,,-1291005707889169920,0.0,83.19418702740222,-9.155429004208187,19.44204186238446,4198,2,0.0,207,52472359643544,833,12.3,-393.9701232910156,18.580001831054688,0,0.0,0.0,,,,,0,,3,,
Raw,24776556,24782552000000,,,-1291005707889169920,0.0,83.19418702740222,-9.155429004208187,19.44204186238446,4198,22,0.0,207,52472364918428,46,20.1,-832.5672607421875,1.0525000095367432,0,0.0,0.0,,,,,0,,3,,
Raw,24776557,24782552000000,,,-1291005707889169920,0.0,83.19418702740222,-9.155429004208187,19.44204186238446,4198,1,0.0,207,52472367545662,14,30.0,235.578125,0.597000002861023,0,0.0,0.0,,,,,0,,3,,
Raw,24776557,24782552000000,,,-1291005707889169920,0.0,83.19418702740222,-9.155429004208187,19.44204186238446,4198,8,0.0,207,52472366622971,14,30.0,585.8093872070312,0.23479999601840973,0,0.0,0.0,,,,,0,,3,,
Raw,24776558,24782552000000,,,-1291005707889169920,0.0,83.19418702740222,-9.155429004208187,19.44204186238446,4198,3,0.0,15,387290355840458,70,18.2,292.81439208984375,2.5989999771118164,0,0.0,0.0,,,,,0,,1,,
Raw,24776558,24782552000000,,,-1291005707889169920,0.0,83.19418702740222,-9.155429004208187,19.44204186238446,4198,4,0.0,15,387290370426694,16,29.6,-31.667707443237305,0.04170000180602074,0,0.0,0.0,,,,,0,,1,,
Raw,24776559,24782552000000,,,-1291005707889169920,0.0,83.19418702740222,-9.155429004208187,19.44204186238446,4198,8,0.0,15,387290370544239,16,29.9,-430.8248596191406,0.43150001764297485,0,0.0,0.0,,,,,0,,1,,
Raw,24776559,24782552000000,,,-1291005707889169920,0.0,83.19418702740222,-9.155429004208187,19.44204186238446,4198,9,0.0,15,387290363317193,11,33.4,-399.11505126953125,0.027400000020861626,0,0.0,0.0,,,,,0,,1,,
Raw,24776560,24782552000000,,,-1291005707889169920,0.0,83.19418702740222,-9.155429004208187,19.44204186238446,4198,16,0.0,15,387290369754881,145,14.3,239.5987548828125,4.985000133514404,0,0.0,0.0,,,,,0,,1,,
Raw,24776560,24782552000000,,,-1291005707889169920,0.0,83.19418702740222,-9.155429004208187,19.44204186238446,4198,21,0.0,15,387290360654517,64,18.9,-586.152099609375,1.746500015258789,0,0.0,0.0,,,,,0,,1,,
Raw,24776561,24782552000000,,,-1291005707889169920,0.0,83.19418702740222,-9.155429004208187,19.44204186238446,4198,26,0.0,15,387290364957643,298,17.2,334.14617919921875,10.71250057220459,0,0.0,0.0,,,,,0,,1,,
Raw,24776561,24782552000000,,,-1291005707889169920,0.0,83.19418702740222,-9.155429004208187,19.44204186238446,4198,31,0.0,15,387290363200064,70,17.5,394.8117980957031,1.0809999704360962,0,0.0,0.0,,,,,0,,1,,
Raw,24776562,24782552000000,,,-1291005707889169920,0.0,83.19418702740222,-9.155429004208187,19.44204186238446,4198,2,0.0,783,387276316108699,65,21.0,10.984659194946289,3.75350022315979,0,0.0,0.0,,,,,0,,5,,
Raw,24776562,24782552000000,,,-1291005707889169920,0.0,83.19418702740222,-9.155429004208187,19.44204186238446,4198,3,0.0,783,387276319493804,1009,20.9,-2.2180562019348145,21.170000076293945,0,0.0,0.0,,,,,0,,5,,
Raw,24776563,24782552000000,,,-1291005707889169920,0.0,83.19418702740222,-9.155429004208187,19.44204186238446,4198,5,0.0,783,387276307835718,23,26.5,0.5569145679473877,1.2450000047683716,0,0.0,0.0,,,,,0,,5,,
Raw,24776563,24782552000000,,,-1291005707889169920,0.0,83.19418702740222,-9.155429004208187,19.44204186238446,4198,6,0.0,15,387276320278041,115,14.8,172.42266845703125,2.6665000915527344,0,0.0,0.0,,,,,0,,5,,
Raw,24776564,24782552000000,,,-1291005707889169920,0.0,83.19418702740222,-9.155429004208187,19.44204186238446,4198,10,0.0,15,387276315954610,61,18.4,45.897438049316406,0.9389999508857727,0,0.0,0.0,,,,,0,,5,,
Raw,24776565,24782552000000,,,-1291005707889169920,0.0,83.19418702740222,-9.155429004208187,19.44204186238446,4198,14,0.0,15,387276356762745,14,30.0,305.4236755371094,0.049800001084804535,0,0.0,0.0,,,,,0,,5,,
Raw,24776566,24782552000000,,,-1291005707889169920,0.0,83.19418702740222,-9.155429004208187,19.44204186238446,4198,16,0.0,15,387276319402908,341,11.7,189.79261779785156,9.875,0,0.0,0.0,,,,,0,,5,,
Raw,24776566,24782552000000,,,-1291005707889169920,0.0,83.19418702740222,-9.155429004208187,19.44204186238446,4198,24,0.0,15,387276363094436,61,18.1,-291.9288330078125,0.9210000038146973,0,0.0,0.0,,,,,0,,5,,
Raw,24776567,24782552000000,,,-1291005707889169920,0.0,83.19418702740222,-9.155429004208187,19.44204186238446,4198,26,0.0,15,387276366726613,212,15.7,19.808874130249023,7.925500392913818,0,0.0,0.0,,,,,0,,5,,
NMEA,$GPGSV,3,2,12,11,00,000,21,16,47,008,14,21,07,182,19,26,30,046,17*75,1606995272106
NMEA,$GPGSV,3,3,12,31,26,111,18,18,07,053,,22,01,209,,27,88,092,*78,1606995272106
NMEA,$GLGSV,2,1,08,66,00,000,12,86,16,182,20,65,25,271,30,72,23,224,30*6D,1606995272106
NMEA,$GLGSV,2,2,08,74,35,043,,73,08,087,,84,35,045,,85,56,137,*6C,1606995272106
NMEA,$GAGSV,2,1,06,02,16,289,,03,37,277,,05,37,206,,08,04,317,*62,1606995272108
NMEA,$GAGSV,2,2,06,25,46,338,,36,22,174,*64,1606995272108
NMEA,$PQGSV,1,1,03,193,21,170,17,194,60,042,16,195,65,108,17,0,5*6B,1606995272108
NMEA,$PQGSV,4,1,16,02,40,239,21,03,59,202,21,05,16,255,27,06,59,187,15,0,4*6D,1606995272109
NMEA,$PQGSV,4,2,16,10,47,293,18,14,18,247,30,16,61,192,12,24,42,333,18,0,4*64,1606995272109
NMEA,$PQGSV,4,3,16,26,52,052,16,01,52,129,,04,37,113,,07,59,337,,0,4*6B,1606995272110
NMEA,$PQGSV,4,4,16,08,11,167,,09,70,260,,11,02,203,,12,48,181,,0,4*6A,1606995272111
NMEA,$GNGSA,A,3,04,08,09,16,21,26,31,,,,,,1.2,0.9,0.9,1*35,1606995272113
NMEA,$GNGSA,A,2,65,72,,,,,,,,,,,1.2,0.9,0.9,2*36,1606995272113
NMEA,$PQGSA,A,2,14,,,,,,,,,,,,1.2,0.9,0.9,4*3B,1606995272113
NMEA,$GNVTG,,T,,M,0.0,N,0.0,K,A*3D,1606995272114
NMEA,$GNRMC,113433.00,A,2255.527354,N,12017.672576,E,0.0,,031220,2.8,W,A*18,1606995272114
NMEA,$GNGGA,113433.00,2255.527354,N,12017.672576,E,1,10,0.9,35.0,M,17.5,M,,*48,1606995272117
Raw,24777664,24783552000000,,,-1291005707889169920,0.0,80.98952821455896,-14.67492774334293,19.61804659889496,4198,2,0.0,207,52473359644858,956,12.3,-393.9701232910156,20.080001831054688,0,0.0,0.0,,,,,0,,3,,
Raw,24777668,24783552000000,,,-1291005707889169920,0.0,80.98952821455896,-14.67492774334293,19.61804659889496,4198,22,0.0,207,52473364921054,53,19.8,-832.4922485351562,1.1225000619888306,0,0.0,0.0,,,,,0,,3,,
