# 
# Header Description:
# 
# Version: v2.0.0.1 Platform: 8.0.0 Manufacturer: Sony Model: G8142
# 
# Raw,ElapsedRealtimeMillis,TimeNanos,LeapSecond,TimeUncertaintyNanos,FullBiasNanos,BiasNanos,BiasUncertaintyNanos,DriftNanosPerSecond,DriftUncertaintyNanosPerSecond,HardwareClockDiscontinuityCount,Svid,TimeOffsetNanos,State,ReceivedSvTimeNanos,ReceivedSvTimeUncertaintyNanos,Cn0DbHz,PseudorangeRateMetersPerSecond,PseudorangeRateUncertaintyMetersPerSecond,AccumulatedDeltaRangeState,AccumulatedDeltaRangeMeters,AccumulatedDeltaRangeUncertaintyMeters,CarrierFrequencyHz,CarrierCycles,CarrierPhase,CarrierPhaseUncertainty,MultipathIndicator,SnrInDb,ConstellationType,AgcDb,CarrierFrequencyHz
# 
# Fix,Provider,Latitude,Longitude,Altitude,Speed,Accuracy,(UTC)TimeInMs
# 
# Nav,Svid,Type,Status,MessageId,Sub-messageId,Data(Bytes)
# 
Raw,26222544,26228600000000,,,-1291005707845281536,0.0,59.510890423553064,24.934746068992673,19.876469256094484,4292,95,0.0,3,15777151,149,19.7,-133.95346069335938,7.139000415802002,0,0.0,0.0,,,,,0,,3,,
Raw,26222544,26228600000000,,,-1291005707845281536,0.0,59.510890423553064,24.934746068992673,19.876469256094484,4292,2,0.0,207,53918365234074,14,30.2,-210.19381713867188,0.23330000042915344,0,0.0,0.0,,,,,0,,3,,
Raw,26222544,26228600000000,,,-1291005707845281536,0.0,59.510890423553064,24.934746068992673,19.876469256094484,4292,22,0.0,207,53918372909479,61,18.6,-763.1881103515625,1.214500069618225,0,0.0,0.0,,,,,0,,3,,
Raw,26222544,26228600000000,,,-1291005707845281536,0.0,59.510890423553064,24.934746068992673,19.876469256094484,4292,12,0.0,207,53918364111448,14,30.7,-414.2851867675781,0.23180000483989716,0,0.0,0.0,,,,,0,,3,,
Raw,26222544,26228600000000,,,-1291005707845281536,0.0,59.510890423553064,24.934746068992673,19.876469256094484,4292,1,0.0,207,53918370128745,14,30.7,390.74444580078125,0.24079999327659607,0,0.0,0.0,,,,,0,,3,,
Raw,26222545,26228600000000,,,-1291005707845281536,0.0,59.510890423553064,24.934746068992673,19.876469256094484,4292,21,0.0,207,53918379983339,372,15.3,-176.96023559570312,11.955000877380371,0,0.0,0.0,,,,,0,,3,,
Raw,26222546,26228600000000,,,-1291005707845281536,0.0,59.510890423553064,24.934746068992673,19.876469256094484,4292,8,0.0,207,53918367810267,19,27.1,618.709716796875,0.251800000667572,0,0.0,0.0,,,,,0,,3,,
Raw,26222546,26228600000000,,,-1291005707845281536,0.0,59.510890423553064,24.934746068992673,19.876469256094484,4292,4,0.0,15,388736374246864,19,27.4,151.7966766357422,0.062300004065036774,0,0.0,0.0,,,,,0,,1,,
Raw,26222546,26228600000000,,,-1291005707845281536,0.0,59.510890423553064,24.934746068992673,19.876469256094484,4292,7,0.0,15,388736359931641,70,17.1,-592.64111328125,1.1649999618530273,0,0.0,0.0,,,,,0,,1,,
Raw,26222546,26228600000000,,,-1291005707845281536,0.0,59.510890423553064,24.934746068992673,19.876469256094484,4292,8,0.0,15,388736376354960,14,30.2,-269.91900634765625,0.049800001084804535,0,0.0,0.0,,,,,0,,1,,
Raw,26222546,26228600000000,,,-1291005707845281536,0.0,59.510890423553064,24.934746068992673,19.876469256094484,4292,9,0.0,15,388736368979440,10,34.8,-238.98455810546875,0.0340999998152256,0,0.0,0.0,,,,,0,,1,,
Raw,26222547,26228600000000,,,-1291005707845281536,0.0,59.510890423553064,24.934746068992673,19.876469256094484,4292,16,0.0,15,388736372650864,320,16.1,269.75079345703125,11.024500846862793,0,0.0,0.0,,,,,0,,1,,
Raw,26222547,26228600000000,,,-1291005707845281536,0.0,59.510890423553064,24.934746068992673,19.876469256094484,4292,21,0.0,15,388736367619239,17,28.2,-588.075927734375,0.043800000101327896,0,0.0,0.0,,,,,0,,1,,
Raw,26222547,26228600000000,,,-1291005707845281536,0.0,59.510890423553064,24.934746068992673,19.876469256094484,4292,27,0.0,15,388736378216065,155,18.7,190.6647491455078,7.023500442504883,0,0.0,0.0,,,,,0,,1,,
Raw,26222547,26228600000000,,,-1291005707845281536,0.0,59.510890423553064,24.934746068992673,19.876469256094484,4292,2,0.0,783,388722320214071,87,22.0,9.016254425048828,5.19350004196167,0,0.0,0.0,,,,,0,,5,,
Raw,26222548,26228600000000,,,-1291005707845281536,0.0,59.510890423553064,24.934746068992673,19.876469256094484,4292,3,0.0,783,388722323629301,14,30.0,-0.9890034198760986,0.36500000953674316,0,0.0,0.0,,,,,0,,5,,
Raw,26222548,26228600000000,,,-1291005707845281536,0.0,59.510890423553064,24.934746068992673,19.876469256094484,4292,5,0.0,783,388722311931766,42,22.6,5.213871955871582,2.1649999618530273,0,0.0,0.0,,,,,0,,5,,
Raw,26222548,26228600000000,,,-1291005707845281536,0.0,59.510890423553064,24.934746068992673,19.876469256094484,4292,6,0.0,15,388722323432779,19,27.4,225.2719268798828,0.460999995470047,0,0.0,0.0,,,,,0,,5,,
Raw,26222548,26228600000000,,,-1291005707845281536,0.0,59.510890423553064,24.934746068992673,19.876469256094484,4292,9,0.0,15,388722325748702,46,20.7,116.1646957397461,0.793999969959259,0,0.0,0.0,,,,,0,,5,,
Raw,26222548,26228600000000,,,-1291005707845281536,0.0,59.510890423553064,24.934746068992673,19.876469256094484,4292,10,0.0,15,388722319842501,31,23.6,47.76982116699219,0.6150000095367432,0,0.0,0.0,,,,,0,,5,,
Raw,26222549,26228600000000,,,-1291005707845281536,0.0,59.510890423553064,24.934746068992673,19.876469256094484,4292,11,0.0,15,388722358361648,11,33.9,-626.5073852539062,0.04990000277757645,0,0.0,0.0,,,,,0,,5,,
Raw,26222549,26228600000000,,,-1291005707845281536,0.0,59.510890423553064,24.934746068992673,19.876469256094484,4292,12,0.0,15,388722371922640,27,24.4,-339.89068603515625,0.5929999947547913,0,0.0,0.0,,,,,0,,5,,
Raw,26222549,26228600000000,,,-1291005707845281536,0.0,59.510890423553064,24.934746068992673,19.876469256094484,4292,13,0.0,15,388722308232307,31,23.9,-211.04180908203125,0.5885000228881836,0,0.0,0.0,,,,,0,,5,,
Raw,26222549,26228600000000,,,-1291005707845281536,0.0,59.510890423553064,24.934746068992673,19.876469256094484,4292,14,0.0,15,388722359291540,19,27.6,346.44207763671875,0.0398000031709671,0,0.0,0.0,,,,,0,,5,,
Raw,26222549,26228600000000,,,-1291005707845281536,0.0,59.510890423553064,24.934746068992673,19.876469256094484,4292,16,0.0,15,388722322489796,17,28.7,239.4072723388672,0.03629999980330467,0,0.0,0.0,,,,,0,,5,,
Raw,26222550,26228600000000,,,-1291005707845281536,0.0,59.510890423553064,24.934746068992673,19.876469256094484,4292,24,0.0,15,388722368573179,53,19.9,-269.7098693847656,0.7985000014305115,0,0.0,0.0,,,,,0,,5,,
Raw,26222550,26228600000000,,,-1291005707845281536,0.0,59.510890423553064,24.934746068992673,19.876469256094484,4292,25,0.0,15,388722355677866,11,33.5,-430.8265686035156,0.04540000110864639,0,0.0,0.0,,,,,0,,5,,
Raw,26222550,26228600000000,,,-1291005707845281536,0.0,59.510890423553064,24.934746068992673,19.876469256094484,4292,26,0.0,15,388722370617468,70,17.1,80.10926818847656,1.0115000009536743,0,0.0,0.0,,,,,0,,5,,
Raw,26222550,26228600000000,,,-1291005707845281536,0.0,59.510890423553064,24.934746068992673,19.876469256094484,4292,2,0.0,7183,388736355927371,16,29.9,-208.93345642089844,0.03420000150799751,0,0.0,0.0,,,,,0,,6,,
Raw,26222551,26228600000000,,,-1291005707845281536,0.0,59.510890423553064,24.934746068992673,19.876469256094484,4292,3,0.0,7183,388736360218570,17,28.3,165.32713317871094,0.41050001978874207,0,0.0,0.0,,,,,0,,6,,
Raw,26222551,26228600000000,,,-1291005707845281536,0.0,59.510890423553064,24.934746068992673,19.876469256094484,4292,5,0.0,7183,388736358563466,13,31.9,479.78912353515625,0.03720000013709068,0,0.0,0.0,,,,,0,,6,,
Raw,26222551,26228600000000,,,-1291005707845281536,0.0,59.510890423553064,24.934746068992673,19.876469256094484,4292,8,0.0,7183,388736358276996,9,35.8,-223.31117248535156,0.048600003123283386,0,0.0,0.0,,,,,0,,6,,
Raw,26222551,26228600000000,,,-1291005707845281536,0.0,59.510890423553064,24.934746068992673,19.876469256094484,4292,24,0.0,7183,388736358219635,907,16.1,157.9818115234375,19.773500442504883,0,0.0,0.0,,,,,0,,6,,
Raw,26222551,26228600000000,,,-1291005707845281536,0.0,59.510890423553064,24.934746068992673,19.876469256094484,4292,36,0.0,7183,388736359907913,24,25.0,-518.826171875,0.5189999938011169,0,0.0,0.0,,,,,0,,6,,
Fix,gps,22.925411,120.294624,56.362366,0.500000,10.720000,1606996719000
NMEA,$GPGSV,3,1,11,04,51,254,27,07,05,314,17,08,59,230,30,09,28,298,35*7F,1606996718451
NMEA,$GPGSV,3,2,11,11,00,000,33,16,42,022,16,21,16,177,28,27,76,014,19*78,1606996718451
NMEA,$GPGSV,3,3,11,18,03,045,,26,24,056,,31,19,120,*4A,1606996718451
NMEA,$GLGSV,3,1,09,66,04,317,30,86,29,182,19,76,02,306,31,65,20,258,31*62,1606996718451
NMEA,$GLGSV,3,2,09,85,66,115,15,72,14,215,27,74,35,059,,73,04,098,*6A,1606996718451
NMEA,$GLGSV,3,3,09,84,27,035,*53,1606996718452
NMEA,$GAGSV,2,1,07,02,18,298,30,03,35,264,28,05,29,201,32,08,09,312,36*60,1606996718452
NMEA,$GAGSV,2,2,07,24,29,060,16,36,30,171,25,25,47,351,*56,1606996718452
NMEA,$PQGSV,1,1,03,193,18,168,18,194,61,046,12,195,68,099,19,0,5*6C,1606996718452
NMEA,$PQGSV,4,1,16,02,40,239,22,03,59,202,30,05,16,255,23,06,53,189,27,0,4*6F,1606996718452
NMEA,$PQGSV,4,2,16,09,66,248,21,10,46,300,24,11,11,205,34,12,59,182,24,0,4*6A,1606996718452
NMEA,$PQGSV,4,3,16,13,04,187,24,14,14,239,28,16,55,195,29,24,48,343,20,0,4*6A,1606996718453
NMEA,$PQGSV,4,4,16,25,04,306,34,26,50,068,17,01,52,129,,04,37,113,,0,4*6B,1606996718453
NMEA,$GNGSA,A,3,04,07,08,09,16,21,27,,,,,,1.3,1.1,0.7,1*37,1606996718454
NMEA,$GNGSA,A,2,65,66,72,,,,,,,,,,1.3,1.1,0.7,2*30,1606996718454
NMEA,$GNGSA,A,3,02,03,04,05,,,,,,,,,1.3,1.1,0.7,3*36,1606996718454
NMEA,$PQGSA,A,2,11,12,14,,,,,,,,,,1.3,1.1,0.7,4*3E,1606996718454
NMEA,$GNVTG,145.2,T,145.2,M,1.0,N,1.8,K,A*35,1606996718454
NMEA,$GNRMC,115839.00,A,2255.524634,N,12017.677460,E,1.0,145.2,031220,2.8,W,A*36,1606996718455
NMEA,$GNGGA,115839.00,2255.524634,N,12017.677460,E,1,12,1.1,38.9,M,17.5,M,,*44,1606996718455
Fix,gps,22.925414,120.294628,55.096680,0.000000,10.720000,1606996720000
Raw,26223584,26229600000000,,,-1291005707845281536,0.0,56.43697295454331,23.620796018359137,17.097084453543612,4292,95,0.0,3,15777598,198,19.7,-133.95346069335938,8.638999938964844,0,0.0,0.0,,,,,0,,3,,
Raw,26223585,26229600000000,,,-1291005707845281536,0.0,56.43697295454331,23.620796018359137,17.097084453543612,4292,2,0.0,207,53919365234825,16,29.9,-213.43060302734375,0.23420000076293945,0,0.0,0.0,,,,,0,,3,,
Raw,26223585,26229600000000,,,-1291005707845281536,0.0,56.43697295454331,23.620796018359137,17.097084453543612,4292,22,0.0,207,53919372912024,70,18.6,-763.1881103515625,2.7145001888275146,0,0.0,0.0,,,,,0,,3,,
Raw,26223585,26229600000000,,,-1291005707845281536,0.0,56.43697295454331,23.620796018359137,17.097084453543612,4292,12,0.0,207,53919364112814,17,28.0,-417.6788024902344,0.23930001258850098,0,0.0,0.0,,,,,0,,3,,
Raw,26223585,26229600000000,,,-1291005707845281536,0.0,56.43697295454331,23.620796018359137,17.097084453543612,4292,1,0.0,207,53919370127468,19,27.7,387.33880615234375,0.2563000023365021,0,0.0,0.0,,,,,0,,3,,
Raw,26223585,26229600000000,,,-1291005707845281536,0.0,56.43697295454331,23.620796018359137,17.097084453543612,4292,21,0.0,207,53919379983929,452,15.3,-176.96023559570312,13.455000877380371,0,0.0,0.0,,,,,0,,3,,
Raw,26223586,26229600000000,,,-1291005707845281536,0.0,56.43697295454331,23.620796018359137,17.097084453543612,4292,8,0.0,207,53919367808195,35,22.4,614.421630859375,0.9369999766349792,0,0.0,0.0,,,,,0,,3,,
Raw,26223586,26229600000000,,,-1291005707845281536,0.0,56.43697295454331,23.620796018359137,17.097084453543612,4292,4,0.0,15,388737374246405,24,25.9,148.48321533203125,0.4027999937534332,0,0.0,0.0,,,,,0,,1,,
Raw,26223586,26229600000000,,,-1291005707845281536,0.0,56.43697295454331,23.620796018359137,17.097084453543612,4292,7,0.0,15,388737359933613,80,16.9,-597.446044921875,1.1649999618530273,0,0.0,0.0,,,,,0,,1,,
Raw,26223586,26229600000000,,,-1291005707845281536,0.0,56.43697295454331,23.620796018359137,17.097084453543612,4292,8,0.0,15,388737376355874,13,31.8,-273.14404296875,0.04920000210404396,0,0.0,0.0,,,,,0,,1,,
Raw,26223586,26229600000000,,,-1291005707845281536,0.0,56.43697295454331,23.620796018359137,17.097084453543612,4292,9,0.0,15,388737368980237,9,35.2,-242.22744750976562,0.03360000252723694,0,0.0,0.0,,,,,0,,1,,
Raw,26223587,26229600000000,,,-1291005707845281536,0.0,56.43697295454331,23.620796018359137,17.097084453543612,4292,16,0.0,15,388737372649964,395,16.1,269.75079345703125,12.524500846862793,0,0.0,0.0,,,,,0,,1,,
Raw,26223587,26229600000000,,,-1291005707845281536,0.0,56.43697295454331,23.620796018359137,17.097084453543612,4292,21,0.0,15,388737367621184,17,28.8,-591.4158935546875,0.043800000101327896,0,0.0,0.0,,,,,0,,1,,
Raw,26223587,26229600000000,,,-1291005707845281536,0.0,56.43697295454331,23.620796018359137,17.097084453543612,4292,27,0.0,15,388737378215429,204,18.7,190.6647491455078,8.523500442504883,0,0.0,0.0,,,,,0,,1,,
Raw,26223587,26229600000000,,,-1291005707845281536,0.0,56.43697295454331,23.620796018359137,17.097084453543612,4292,2,0.0,783,388723320214041,125,22.0,9.016254425048828,6.69350004196167,0,0.0,0.0,,,,,0,,5,,
Raw,26223587,26229600000000,,,-1291005707845281536,0.0,56.43697295454331,23.620796018359137,17.097084453543612,4292,3,0.0,783,388723323629306,13,31.3,-1.065819263458252,0.33500000834465027,0,0.0,0.0,,,,,0,,5,,
Raw,26223587,26229600000000,,,-1291005707845281536,0.0,56.43697295454331,23.620796018359137,17.097084453543612,4292,5,0.0,783,388723311931749,59,22.6,5.213871955871582,3.6650002002716064,0,0.0,0.0,,,,,0,,5,,
Raw,26223588,26229600000000,,,-1291005707845281536,0.0,56.43697295454331,23.620796018359137,17.097084453543612,4292,6,0.0,15,388723323432040,16,29.0,221.6327667236328,0.39100000262260437,0,0.0,0.0,,,,,0,,5,,
Raw,26223588,26229600000000,,,-1291005707845281536,0.0,56.43697295454331,23.620796018359137,17.097084453543612,4292,9,0.0,15,388723325748276,31,23.0,112.85201263427734,0.6240000128746033,0,0.0,0.0,,,,,0,,5,,
Raw,26223588,26229600000000,,,-1291005707845281536,0.0,56.43697295454331,23.620796018359137,17.097084453543612,4292,10,0.0,15,388723319842379,24,25.0,44.4571418762207,0.5249999761581421,0,0.0,0.0,,,,,0,,5,,
Raw,26223588,26229600000000,,,-1291005707845281536,0.0,56.43697295454331,23.620796018359137,17.097084453543612,4292,11,0.0,15,388723358363737,13,31.7,-629.833251953125,0.05220000073313713,0,0.0,0.0,,,,,0,,5,,
Raw,26223588,26229600000000,,,-1291005707845281536,0.0,56.43697295454331,23.620796018359137,17.097084453543612,4292,12,0.0,15,388723371923778,27,24.8,-344.0867614746094,0.5429999828338623,0,0.0,0.0,,,,,0,,5,,
Raw,26223589,26229600000000,,,-1291005707845281536,0.0,56.43697295454331,23.620796018359137,17.097084453543612,4292,13,0.0,15,388723308233020,31,23.8,-214.1240234375,0.5885000228881836,0,0.0,0.0,,,,,0,,5,,
Raw,26223589,26229600000000,,,-1291005707845281536,0.0,56.43697295454331,23.620796018359137,17.097084453543612,4292,14,0.0,15,388723359290424,31,23.0,343.78912353515625,0.6150000095367432,0,0.0,0.0,,,,,0,,5,,
Raw,26223589,26229600000000,,,-1291005707845281536,0.0,56.43697295454331,23.620796018359137,17.097084453543612,4292,16,0.0,15,388723322488993,16,29.4,236.0660400390625,0.02970000170171261,0,0.0,0.0,,,,,0,,5,,
Raw,26223589,26229600000000,,,-1291005707845281536,0.0,56.43697295454331,23.620796018359137,17.097084453543612,4292,24,0.0,15,388723368574161,40,21.4,-273.3298034667969,0.7384999990463257,0,0.0,0.0,,,,,0,,5,,
Raw,26223589,26229600000000,,,-1291005707845281536,0.0,56.43697295454331,23.620796018359137,17.097084453543612,4292,25,0.0,15,388723355679320,12,32.6,-434.1988525390625,0.046400003135204315,0,0.0,0.0,,,,,0,,5,,
Raw,26223589,26229600000000,,,-1291005707845281536,0.0,56.43697295454331,23.620796018359137,17.097084453543612,4292,26,0.0,15,388723370617201,78,17.1,80.10926818847656,2.511500120162964,0,0.0,0.0,,,,,0,,5,,
Raw,26223590,26229600000000,,,-1291005707845281536,0.0,56.43697295454331,23.620796018359137,17.097084453543612,4292,2,0.0,7183,388737355928089,16,29.5,-213.9852294921875,0.3739999830722809,0,0.0,0.0,,,,,0,,6,,
Raw,26223590,26229600000000,,,-1291005707845281536,0.0,56.43697295454331,23.620796018359137,17.097084453543612,4292,3,0.0,7183,388737360218030,19,27.7,162.26341247558594,0.44050002098083496,0,0.0,0.0,,,,,0,,6,,
Raw,26223590,26229600000000,,,-1291005707845281536,0.0,56.43697295454331,23.620796018359137,17.097084453543612,4292,5,0.0,7183,388737358561877,14,30.3,474.6495056152344,0.34849998354911804,0,0.0,0.0,,,,,0,,6,,
Raw,26223590,26229600000000,,,-1291005707845281536,0.0,56.43697295454331,23.620796018359137,17.097084453543612,4292,8,0.0,7183,388737358277754,9,35.0,-228.18113708496094,0.25349998474121094,0,0.0,0.0,,,,,0,,6,,
Raw,26223590,26229600000000,,,-1291005707845281536,0.0,56.43697295454331,23.620796018359137,17.097084453543612,4292,24,0.0,7183,388737358219108,1040,16.1,157.9818115234375,21.273500442504883,0,0.0,0.0,,,,,0,,6,,
Raw,26223591,26229600000000,,,-1291005707845281536,0.0,56.43697295454331,23.620796018359137,17.097084453543612,4292,36,0.0,7183,388737359909689,19,27.1,-521.6901245117188,0.4390000104904175,0,0.0,0.0,,,,,0,,6,,
NMEA,$GPGSV,3,1,11,04,51,254,26,07,05,314,17,08,59,230,32,09,28,298,35*7C,1606996719452
NMEA,$GPGSV,3,2,11,11,00,000,34,16,42,022,16,21,16,177,29,27,76,014,19*7E,1606996719452
NMEA,$GPGSV,3,3,11,18,03,045,,26,24,056,,31,19,120,*4A,1606996719452
NMEA,$GLGSV,3,1,09,66,04,317,30,86,29,182,19,76,02,306,28,65,20,258,28*62,1606996719452
NMEA,$GLGSV,3,2,09,85,66,115,15,72,14,215,22,74,35,059,,73,04,098,*6F,1606996719452
NMEA,$GLGSV,3,3,09,84,27,035,*53,1606996719453
NMEA,$GAGSV,2,1,07,02,18,298,30,03,35,264,28,05,29,201,30,08,09,312,35*61,1606996719453
NMEA,$GAGSV,2,2,07,24,29,060,16,36,30,171,27,25,47,351,*54,1606996719453
NMEA,$PQGSV,1,1,03,193,18,168,18,194,61,046,12,195,68,099,19,0,5*6C,1606996719453
NMEA,$PQGSV,4,1,16,02,40,239,22,03,59,202,31,05,16,255,23,06,53,189,29,0,4*60,1606996719454
NMEA,$PQGSV,4,2,16,09,66,248,23,10,46,300,25,11,11,205,32,12,59,182,25,0,4*6E,1606996719454
NMEA,$PQGSV,4,3,16,13,04,187,24,14,14,239,23,16,55,195,29,24,48,343,21,0,4*60,1606996719456
NMEA,$PQGSV,4,4,16,25,04,306,33,26,50,068,17,01,52,129,,04,37,113,,0,4*6C,1606996719456
NMEA,$GNGSA,A,3,04,07,08,09,21,27,,,,,,,1.3,1.1,0.7,1*30,1606996719457
NMEA,$GNGSA,A,2,65,66,72,,,,,,,,,,1.3,1.1,0.7,2*30,1606996719458
NMEA,$GNGSA,A,3,02,03,04,05,,,,,,,,,1.3,1.1,0.7,3*36,1606996719458
NMEA,$PQGSA,A,2,11,12,14,,,,,,,,,,1.3,1.1,0.7,4*3E,1606996719458
NMEA,$GNVTG,,T,,M,0.0,N,0.0,K,A*3D,1606996719458
NMEA,$GNRMC,115840.00,A,2255.524848,N,12017.677686,E,0.0,,031220,2.8,W,A*1A,1606996719458
NMEA,$GNGGA,115840.00,2255.524848,N,12017.677686,E,1,12,1.1,37.6,M,17.5,M,,*45,1606996719458
Fix,gps,22.925416,120.294630,55.140930,0.000000,11.792000,1606996721000
NMEA,$GPGSV,3,1,11,04,51,254,28,07,05,314,17,08,59,230,33,09,28,298,36*70,1606996720449
Raw,26224587,26230600000000,,,-1291005707845281536,0.0,59.08252933295444,11.242086228781043,15.361099043090247,4292,95,0.0,3,15778044,257,19.7,-133.95346069335938,10.13900089263916,0,0.0,0.0,,,,,0,,3,,
Raw,26224588,26230600000000,,,-1291005707845281536,0.0,59.08252933295444,11.242086228781043,15.361099043090247,4292,2,0.0,207,53920365235494,16,29.3,-215.6875457763672,0.6240000128746033,0,0.0,0.0,,,,,0,,3,,
Raw,26224588,26230600000000,,,-1291005707845281536,0.0,59.08252933295444,11.242086228781043,15.361099043090247,4292,22,0.0,207,53920372914574,64,18.6,-767.6935424804688,1.964500069618225,0,0.0,0.0,,,,,0,,3,,
Raw,26224589,26230600000000,,,-1291005707845281536,0.0,59.08252933295444,11.242086228781043,15.361099043090247,4292,12,0.0,207,53920364114290,21,26.6,-418.50714111328125,0.3172000050544739,0,0.0,0.0,,,,,0,,3,,
Raw,26224589,26230600000000,,,-1291005707845281536,0.0,59.08252933295444,11.242086228781043,15.361099043090247,4292,1,0.0,207,53920370126129,21,26.8,385.4099426269531,0.326200008392334,0,0.0,0.0,,,,,0,,3,,
Raw,26224591,26230600000000,,,-1291005707845281536,0.0,59.08252933295444,11.242086228781043,15.361099043090247,4292,21,0.0,207,53920379984520,542,15.3,-176.96023559570312,14.955000877380371,0,0.0,0.0,,,,,0,,3,,
Raw,26224592,26230600000000,,,-1291005707845281536,0.0,59.08252933295444,11.242086228781043,15.361099043090247,4292,8,0.0,207,53920367806219,53,19.6,611.4151000976562,1.1269999742507935,0,0.0,0.0,,,,,0,,3,,
Raw,26224592,26230600000000,,,-1291005707845281536,0.0,59.08252933295444,11.242086228781043,15.361099043090247,4292,4,0.0,15,388738374245900,19,27.9,146.45054626464844,0.062300004065036774,0,0.0,0.0,,,,,0,,1,,
Raw,26224593,26230600000000,,,-1291005707845281536,0.0,59.08252933295444,11.242086228781043,15.361099043090247,4292,7,0.0,15,388738359935934,80,16.8,-600.5953979492188,1.1649999618530273,0,0.0,0.0,,,,,0,,1,,
Raw,26224593,26230600000000,,,-1291005707845281536,0.0,59.08252933295444,11.242086228781043,15.361099043090247,4292,8,0.0,15,388738376356797,12,32.6,-275.2682189941406,0.0479000024497509,0,0.0,0.0,,,,,0,,1,,
Raw,26224594,26230600000000,,,-1291005707845281536,0.0,59.08252933295444,11.242086228781043,15.361099043090247,4292,9,0.0,15,388738368981049,9,35.5,-244.37460327148438,0.03360000252723694,0,0.0,0.0,,,,,0,,1,,
Raw,26224594,26230600000000,,,-1291005707845281536,0.0,59.08252933295444,11.242086228781043,15.361099043090247,4292,16,0.0,15,388738372649065,479,16.1,269.75079345703125,14.024500846862793,0,0.0,0.0,,,,,0,,1,,
Raw,26224595,26230600000000,,,-1291005707845281536,0.0,59.08252933295444,11.242086228781043,15.361099043090247,4292,21,0.0,15,388738367623175,19,27.5,-593.6665649414062,0.05180000141263008,0,0.0,0.0,,,,,0,,1,,
Raw,26224595,26230600000000,,,-1291005707845281536,0.0,59.08252933295444,11.242086228781043,15.361099043090247,4292,27,0.0,15,388738378214793,262,18.7,190.6647491455078,10.023500442504883,0,0.0,0.0,,,,,0,,1,,
Raw,26224596,26230600000000,,,-1291005707845281536,0.0,59.08252933295444,11.242086228781043,15.361099043090247,4292,2,0.0,783,388724320214011,172,22.0,9.016254425048828,8.193500518798828,0,0.0,0.0,,,,,0,,5,,
Raw,26224596,26230600000000,,,-1291005707845281536,0.0,59.08252933295444,11.242086228781043,15.361099043090247,4292,3,0.0,783,388724323629320,13,31.5,-5.329095840454102,0.33500000834465027,0,0.0,0.0,,,,,0,,5,,
Raw,26224597,26230600000000,,,-1291005707845281536,0.0,59.08252933295444,11.242086228781043,15.361099043090247,4292,5,0.0,783,388724311931731,87,22.6,5.213871955871582,5.164999961853027,0,0.0,0.0,,,,,0,,5,,
Raw,26224597,26230600000000,,,-1291005707845281536,0.0,59.08252933295444,11.242086228781043,15.361099043090247,4292,6,0.0,15,388724323431307,17,28.3,220.95184326171875,0.03779999911785126,0,0.0,0.0,,,,,0,,5,,
Raw,26224598,26230600000000,,,-1291005707845281536,0.0,59.08252933295444,11.242086228781043,15.361099043090247,4292,9,0.0,15,388724325747903,27,24.5,111.02763366699219,0.5839999914169312,0,0.0,0.0,,,,,0,,5,,
Raw,26224599,26230600000000,,,-1291005707845281536,0.0,59.08252933295444,11.242086228781043,15.361099043090247,4292,10,0.0,15,388724319842251,21,26.1,42.96697998046875,0.10970000177621841,0,0.0,0.0,,,,,0,,5,,
Raw,26224599,26230600000000,,,-1291005707845281536,0.0,59.08252933295444,11.242086228781043,15.361099043090247,4292,11,0.0,15,388724358365841,14,30.5,-632.0656127929688,0.052800003439188004,0,0.0,0.0,,,,,0,,5,,
Raw,26224600,26230600000000,,,-1291005707845281536,0.0,59.08252933295444,11.242086228781043,15.361099043090247,4292,12,0.0,15,388724371924933,35,22.8,-345.5846862792969,0.6330000162124634,0,0.0,0.0,,,,,0,,5,,
Raw,26224600,26230600000000,,,-1291005707845281536,0.0,59.08252933295444,11.242086228781043,15.361099043090247,4292,13,0.0,15,388724308233715,27,24.0,-216.34210205078125,0.5885000228881836,0,0.0,0.0,,,,,0,,5,,
Raw,26224601,26230600000000,,,-1291005707845281536,0.0,59.08252933295444,11.242086228781043,15.361099043090247,4292,14,0.0,15,388724359289228,40,21.4,342.14715576171875,0.7249999642372131,0,0.0,0.0,,,,,0,,5,,
Raw,26224601,26230600000000,,,-1291005707845281536,0.0,59.08252933295444,11.242086228781043,15.361099043090247,4292,16,0.0,15,388724322488217,17,28.3,233.8298797607422,0.03629999980330467,0,0.0,0.0,,,,,0,,5,,
Raw,26224602,26230600000000,,,-1291005707845281536,0.0,59.08252933295444,11.242086228781043,15.361099043090247,4292,24,0.0,15,388724368575059,40,21.4,-276.1335754394531,0.7384999990463257,0,0.0,0.0,,,,,0,,5,,
Raw,26224603,26230600000000,,,-1291005707845281536,0.0,59.08252933295444,11.242086228781043,15.361099043090247,4292,25,0.0,15,388724355680764,12,32.5,-436.4757995605469,0.046400003135204315,0,0.0,0.0,,,,,0,,5,,
Raw,26224603,26230600000000,,,-1291005707845281536,0.0,59.08252933295444,11.242086228781043,15.361099043090247,4292,26,0.0,15,388724370616933,97,17.1,80.10926818847656,4.011500358581543,0,0.0,0.0,,,,,0,,5,,
Raw,26224604,26230600000000,,,-1291005707845281536,0.0,59.08252933295444,11.242086228781043,15.361099043090247,4292,2,0.0,7183,388738355928803,16,29.4,-216.28778076171875,0.3739999830722809,0,0.0,0.0,,,,,0,,6,,
Raw,26224605,26230600000000,,,-1291005707845281536,0.0,59.08252933295444,11.242086228781043,15.361099043090247,4292,3,0.0,7183,388738360217485,21,26.7,159.99891662597656,0.4805000126361847,0,0.0,0.0,,,,,0,,6,,
Raw,26224606,26230600000000,,,-1291005707845281536,0.0,59.08252933295444,11.242086228781043,15.361099043090247,4292,5,0.0,7183,388738358560290,16,29.1,472.1566467285156,0.37849998474121094,0,0.0,0.0,,,,,0,,6,,
Raw,26224606,26230600000000,,,-1291005707845281536,0.0,59.08252933295444,11.242086228781043,15.361099043090247,4292,8,0.0,7183,388738358278517,10,34.9,-230.22679138183594,0.273499995470047,0,0.0,0.0,,,,,0,,6,,
Raw,26224607,26230600000000,,,-1291005707845281536,0.0,59.08252933295444,11.242086228781043,15.361099043090247,4292,24,0.0,7183,388738358218581,1184,16.1,157.9818115234375,22.773500442504883,0,0.0,0.0,,,,,0,,6,,
Raw,26224608,26230600000000,,,-1291005707845281536,0.0,59.08252933295444,11.242086228781043,15.361099043090247,4292,36,0.0,7183,388738359911442,21,26.3,-523.5359497070312,0.4790000021457672,0,0.0,0.0,,,,,0,,6,,
NMEA,$GPGSV,3,2,11,11,00,000,34,16,42,022,16,21,16,177,28,27,76,014,19*7F,1606996720449
NMEA,$GPGSV,3,3,11,18,03,045,,26,24,056,,31,19,120,*4A,1606996720450
NMEA,$GLGSV,3,1,09,66,04,317,29,86,29,182,19,76,02,306,27,65,20,258,27*6A,1606996720450
NMEA,$GLGSV,3,2,09,85,66,115,15,72,14,215,20,74,35,059,,73,04,098,*6D,1606996720450
NMEA,$GLGSV,3,3,09,84,27,035,*53,1606996720450
NMEA,$GAGSV,2,1,07,02,18,298,29,03,35,264,27,05,29,201,29,08,09,312,35*6E,1606996720450
NMEA,$GAGSV,2,2,07,24,29,060,16,36,30,171,26,25,47,351,*55,1606996720451
NMEA,$PQGSV,1,1,03,193,18,168,18,194,61,046,12,195,68,099,,0,5*64,1606996720452
NMEA,$PQGSV,4,1,16,02,40,239,22,03,59,202,32,05,16,255,23,06,53,189,28,0,4*62,1606996720452
NMEA,$PQGSV,4,2,16,09,66,248,25,10,46,300,26,11,11,205,31,12,59,182,23,0,4*6E,1606996720452
NMEA,$PQGSV,4,3,16,13,04,187,24,14,14,239,21,16,55,195,28,24,48,343,21,0,4*63,1606996720453
NMEA,$PQGSV,4,4,16,25,04,306,33,26,50,068,17,01,52,129,,04,37,113,,0,4*6C,1606996720453
NMEA,$GNGSA,A,3,04,07,08,09,21,27,,,,,,,1.4,1.2,0.8,1*3B,1606996720454
NMEA,$GNGSA,A,2,65,66,72,,,,,,,,,,1.4,1.2,0.8,2*3B,1606996720454
NMEA,$GNGSA,A,3,02,03,04,05,,,,,,,,,1.4,1.2,0.8,3*3D,1606996720454
NMEA,$PQGSA,A,2,11,12,14,,,,,,,,,,1.4,1.2,0.8,4*35,1606996720455
NMEA,$GNVTG,,T,,M,0.0,N,0.0,K,A*3D,1606996720456
NMEA,$GNRMC,115841.00,A,2255.524985,N,12017.677774,E,0.0,,031220,2.8,W,A*17,1606996720458
NMEA,$GNGGA,115841.00,2255.524985,N,12017.677774,E,1,12,1.2,37.7,M,17.5,M,,*4A,1606996720458
Raw,26225733,26231600000000,,,-1291005707845281536,0.0,66.99196819681674,4.34314464123807,16.164230401890514,4292,95,0.0,3,15778491,325,19.7,-133.95346069335938,11.63900089263916,0,0.0,0.0,,,,,0,,3,,
Raw,26225733,26231600000000,,,-1291005707845281536,0.0,66.99196819681674,4.34314464123807,16.164230401890514,4292,2,0.0,207,53921365236194,11,33.4,-216.6780548095703,0.23040001094341278,0,0.0,0.0,,,,,0,,3,,
Raw,26225734,26231600000000,,,-1291005707845281536,0.0,66.99196819681674,4.34314464123807,16.164230401890514,4292,22,0.0,207,53921372917162,61,18.2,-770.4192504882812,1.214500069618225,0,0.0,0.0,,,,,0,,3,,
Raw,26225735,26231600000000,,,-1291005707845281536,0.0,66.99196819681674,4.34314464123807,16.164230401890514,4292,12,0.0,207,53921364115689,16,29.5,-421.30767822265625,0.6225000023841858,0,0.0,0.0,,,,,0,,3,,
Raw,26225735,26231600000000,,,-1291005707845281536,0.0,66.99196819681674,4.34314464123807,16.164230401890514,4292,1,0.0,207,53921370124879,35,22.6,384.00933837890625,0.9414999485015869,0,0.0,0.0,,,,,0,,3,,
Raw,26225736,26231600000000,,,-1291005707845281536,0.0,66.99196819681674,4.34314464123807,16.164230401890514,4292,21,0.0,207,53921379985110,642,15.3,-176.96023559570312,16.454999923706055,0,0.0,0.0,,,,,0,,3,,
Raw,26225737,26231600000000,,,-1291005707845281536,0.0,66.99196819681674,4.34314464123807,16.164230401890514,4292,8,0.0,207,53921367804148,21,26.8,611.2032470703125,0.32170000672340393,0,0.0,0.0,,,,,0,,3,,
Raw,26225737,26231600000000,,,-1291005707845281536,0.0,66.99196819681674,4.34314464123807,16.164230401890514,4292,4,0.0,15,388739374245401,13,31.5,145.13809204101562,0.04620000347495079,0,0.0,0.0,,,,,0,,1,,
Raw,26225738,26231600000000,,,-1291005707845281536,0.0,66.99196819681674,4.34314464123807,16.164230401890514,4292,7,0.0,15,388739359937688,16,29.1,-600.3226928710938,0.025200001895427704,0,0.0,0.0,,,,,0,,1,,
Raw,26225738,26231600000000,,,-1291005707845281536,0.0,66.99196819681674,4.34314464123807,16.164230401890514,4292,8,0.0,15,388739376357679,10,34.3,-276.4715270996094,0.04610000178217888,0,0.0,0.0,,,,,0,,1,,
Raw,26225739,26231600000000,,,-1291005707845281536,0.0,66.99196819681674,4.34314464123807,16.164230401890514,4292,9,0.0,15,388739368981860,11,33.6,-245.5490264892578,0.03490000218153,0,0.0,0.0,,,,,0,,1,,
Raw,26225740,26231600000000,,,-1291005707845281536,0.0,66.99196819681674,4.34314464123807,16.164230401890514,4292,16,0.0,15,388739372648165,574,16.1,269.75079345703125,15.524500846862793,0,0.0,0.0,,,,,0,,1,,
Raw,26225740,26231600000000,,,-1291005707845281536,0.0,66.99196819681674,4.34314464123807,16.164230401890514,4292,21,0.0,15,388739367625189,17,28.4,-595.029052734375,0.043800000101327896,0,0.0,0.0,,,,,0,,1,,
Raw,26225741,26231600000000,,,-1291005707845281536,0.0,66.99196819681674,4.34314464123807,16.164230401890514,4292,27,0.0,15,388739378214157,331,18.7,190.6647491455078,11.523500442504883,0,0.0,0.0,,,,,0,,1,,
Raw,26225742,26231600000000,,,-1291005707845281536,0.0,66.99196819681674,4.34314464123807,16.164230401890514,4292,2,0.0,783,388725320213981,230,22.0,9.016254425048828,9.693500518798828,0,0.0,0.0,,,,,0,,5,,
Raw,26225742,26231600000000,,,-1291005707845281536,0.0,66.99196819681674,4.34314464123807,16.164230401890514,4292,3,0.0,783,388725323629319,14,30.7,-7.115062713623047,0.36500000953674316,0,0.0,0.0,,,,,0,,5,,
Raw,26225743,26231600000000,,,-1291005707845281536,0.0,66.99196819681674,4.34314464123807,16.164230401890514,4292,5,0.0,783,388725311931664,34,24.3,2.534921169281006,2.075000047683716,0,0.0,0.0,,,,,0,,5,,
Raw,26225743,26231600000000,,,-1291005707845281536,0.0,66.99196819681674,4.34314464123807,16.164230401890514,4292,6,0.0,15,388725323430576,14,30.7,218.43533325195312,0.3709999918937683,0,0.0,0.0,,,,,0,,5,,
Raw,26225744,26231600000000,,,-1291005707845281536,0.0,66.99196819681674,4.34314464123807,16.164230401890514,4292,9,0.0,15,388725325747552,17,28.3,110.04822540283203,0.42399999499320984,0,0.0,0.0,,,,,0,,5,,
Raw,26225745,26231600000000,,,-1291005707845281536,0.0,66.99196819681674,4.34314464123807,16.164230401890514,4292,10,0.0,15,388725319842095,27,24.2,41.19247055053711,0.574999988079071,0,0.0,0.0,,,,,0,,5,,
Raw,26225745,26231600000000,,,-1291005707845281536,0.0,66.99196819681674,4.34314464123807,16.164230401890514,4292,11,0.0,15,388725358367945,12,32.6,-633.3743896484375,0.05090000107884407,0,0.0,0.0,,,,,0,,5,,
Raw,26225746,26231600000000,,,-1291005707845281536,0.0,66.99196819681674,4.34314464123807,16.164230401890514,4292,12,0.0,15,388725371926093,27,24.9,-346.842529296875,0.5429999828338623,0,0.0,0.0,,,,,0,,5,,
Raw,26225746,26231600000000,,,-1291005707845281536,0.0,66.99196819681674,4.34314464123807,16.164230401890514,4292,13,0.0,15,388725308234446,24,25.9,-217.65756225585938,0.5084999799728394,0,0.0,0.0,,,,,0,,5,,
Raw,26225747,26231600000000,,,-1291005707845281536,0.0,66.99196819681674,4.34314464123807,16.164230401890514,4292,14,0.0,15,388725359288087,40,21.0,340.55322265625,0.7249999642372131,0,0.0,0.0,,,,,0,,5,,
Raw,26225747,26231600000000,,,-1291005707845281536,0.0,66.99196819681674,4.34314464123807,16.164230401890514,4292,16,0.0,15,388725322487419,13,31.1,232.63003540039062,0.028200000524520874,0,0.0,0.0,,,,,0,,5,,
Raw,26225748,26231600000000,,,-1291005707845281536,0.0,66.99196819681674,4.34314464123807,16.164230401890514,4292,24,0.0,15,388725368576036,40,21.4,-277.6122741699219,0.7384999990463257,0,0.0,0.0,,,,,0,,5,,
Raw,26225749,26231600000000,,,-1291005707845281536,0.0,66.99196819681674,4.34314464123807,16.164230401890514,4292,25,0.0,15,388725355682239,13,31.7,-437.79583740234375,0.047700002789497375,0,0.0,0.0,,,,,0,,5,,
Raw,26225749,26231600000000,,,-1291005707845281536,0.0,66.99196819681674,4.34314464123807,16.164230401890514,4292,26,0.0,15,388725370616685,131,13.6,75.81719207763672,2.871500015258789,0,0.0,0.0,,,,,0,,5,,
Raw,26225750,26231600000000,,,-1291005707845281536,0.0,66.99196819681674,4.34314464123807,16.164230401890514,4292,2,0.0,7183,388739355929510,17,28.8,-217.3343963623047,0.39399999380111694,0,0.0,0.0,,,,,0,,6,,
Raw,26225751,26231600000000,,,-1291005707845281536,0.0,66.99196819681674,4.34314464123807,16.164230401890514,4292,3,0.0,7183,388739360216966,13,31.0,159.32337951660156,0.3305000066757202,0,0.0,0.0,,,,,0,,6,,
Raw,26225751,26231600000000,,,-1291005707845281536,0.0,66.99196819681674,4.34314464123807,16.164230401890514,4292,5,0.0,7183,388739358558732,13,31.9,470.9863586425781,0.31849998235702515,0,0.0,0.0,,,,,0,,6,,
Raw,26225752,26231600000000,,,-1291005707845281536,0.0,66.99196819681674,4.34314464123807,16.164230401890514,4292,8,0.0,7183,388739358279293,13,31.7,-231.44467163085938,0.3334999978542328,0,0.0,0.0,,,,,0,,6,,
Raw,26225753,26231600000000,,,-1291005707845281536,0.0,66.99196819681674,4.34314464123807,16.164230401890514,4292,24,0.0,7183,388739358218054,1338,16.1,157.9818115234375,24.273500442504883,0,0.0,0.0,,,,,0,,6,,
Raw,26225753,26231600000000,,,-1291005707845281536,0.0,66.99196819681674,4.34314464123807,16.164230401890514,4292,36,0.0,7183,388739359913206,21,26.5,-525.4769897460938,0.4790000021457672,0,0.0,0.0,,,,,0,,6,,
Fix,gps,22.925418,120.294631,54.589172,0.000000,10.720000,1606996722000
NMEA,$GPGSV,3,1,11,04,51,254,32,07,05,314,29,08,59,230,34,09,28,298,34*73,1606996721450
NMEA,$GPGSV,3,2,11,11,00,000,36,16,42,022,16,21,16,177,28,27,76,014,19*7D,1606996721450
NMEA,$GPGSV,3,3,11,18,03,045,,26,24,056,,31,19,120,*4A,1606996721450
NMEA,$GLGSV,3,1,09,66,04,317,33,86,29,182,18,76,02,306,30,65,20,258,23*62,1606996721450
NMEA,$GLGSV,3,2,09,85,66,115,15,72,14,215,27,74,35,059,,73,04,098,*6A,1606996721450
NMEA,$GLGSV,3,3,09,84,27,035,*53,1606996721452
NMEA,$GAGSV,2,1,07,02,18,298,29,03,35,264,31,05,29,201,32,08,09,312,32*64,1606996721453
NMEA,$GAGSV,2,2,07,24,29,060,16,36,30,171,27,25,47,351,*54,1606996721454
NMEA,$PQGSV,1,1,03,194,61,046,12,195,68,099,21,193,18,168,,0,5*6E,1606996721455
NMEA,$PQGSV,4,1,16,02,40,239,22,03,59,202,31,05,16,255,24,06,53,189,31,0,4*6E,1606996721456
NMEA,$PQGSV,4,2,16,09,66,248,28,10,46,300,24,11,11,205,33,12,59,182,25,0,4*65,1606996721456
NMEA,$PQGSV,4,3,16,13,04,187,26,14,14,239,21,16,55,195,31,24,48,343,21,0,4*69,1606996721456
NMEA,$PQGSV,4,4,16,25,04,306,32,26,50,068,14,01,52,129,,04,37,113,,0,4*6E,1606996721456
NMEA,$GNGSA,A,3,04,07,08,09,21,,,,,,,,1.4,1.2,0.8,1*3E,1606996721458
NMEA,$GNGSA,A,2,65,66,72,,,,,,,,,,1.4,1.2,0.8,2*3B,1606996721458
NMEA,$GNGSA,A,3,02,03,04,05,,,,,,,,,1.4,1.2,0.8,3*3D,1606996721459
NMEA,$PQGSA,A,2,11,12,14,,,,,,,,,,1.4,1.2,0.8,4*35,1606996721459
NMEA,$GNVTG,,T,,M,0.0,N,0.0,K,A*3D,1606996721459
NMEA,$GNRMC,115842.00,A,2255.525074,N,12017.677868,E,0.0,,031220,2.8,W,A*10,1606996721463
NMEA,$GNGGA,115842.00,2255.525074,N,12017.677868,E,1,12,1.2,37.1,M,17.5,M,,*4B,1606996721465
Fix,gps,22.925418,120.294629,54.035522,0.000000,10.720000,1606996723000
NMEA,$GPGSV,3,1,11,04,51,254,31,07,05,314,27,08,59,230,33,09,28,298,33*7E,1606996722450
Raw,26226586,26232600000000,,,-1291005707845281536,0.0,47.27369741885923,-1.115080850488616,9.768896713517329,4292,95,0.0,3,15778938,404,19.7,-133.95346069335938,13.13900089263916,0,0.0,0.0,,,,,0,,3,,
Raw,26226587,26232600000000,,,-1291005707845281536,0.0,47.27369741885923,-1.115080850488616,9.768896713517329,4292,2,0.0,207,53922365236934,11,33.8,-217.41131591796875,0.23040001094341278,0,0.0,0.0,,,,,0,,3,,
Raw,26226588,26232600000000,,,-1291005707845281536,0.0,47.27369741885923,-1.115080850488616,9.768896713517329,4292,22,0.0,207,53922372919731,70,18.2,-770.4192504882812,2.7145001888275146,0,0.0,0.0,,,,,0,,3,,
Raw,26226588,26232600000000,,,-1291005707845281536,0.0,47.27369741885923,-1.115080850488616,9.768896713517329,4292,12,0.0,207,53922364117099,11,33.2,-422.1646423339844,0.2289000153541565,0,0.0,0.0,,,,,0,,3,,
Raw,26226588,26232600000000,,,-1291005707845281536,0.0,47.27369741885923,-1.115080850488616,9.768896713517329,4292,1,0.0,207,53922370123551,40,21.9,384.4770202636719,1.0015000104904175,0,0.0,0.0,,,,,0,,3,,
Raw,26226589,26232600000000,,,-1291005707845281536,0.0,47.27369741885923,-1.115080850488616,9.768896713517329,4292,21,0.0,207,53922379985700,752,15.3,-176.96023559570312,17.954999923706055,0,0.0,0.0,,,,,0,,3,,
Raw,26226589,26232600000000,,,-1291005707845281536,0.0,47.27369741885923,-1.115080850488616,9.768896713517329,4292,8,0.0,207,53922367802099,19,27.1,610.0612182617188,0.7070000171661377,0,0.0,0.0,,,,,0,,3,,
Raw,26226590,26232600000000,,,-1291005707845281536,0.0,47.27369741885923,-1.115080850488616,9.768896713517329,4292,4,0.0,15,388740374244909,14,30.7,144.45582580566406,0.046800002455711365,0,0.0,0.0,,,,,0,,1,,
Raw,26226591,26232600000000,,,-1291005707845281536,0.0,47.27369741885923,-1.115080850488616,9.768896713517329,4292,7,0.0,15,388740359939649,21,26.8,-600.9759521484375,0.5249999761581421,0,0.0,0.0,,,,,0,,1,,
Raw,26226591,26232600000000,,,-1291005707845281536,0.0,47.27369741885923,-1.115080850488616,9.768896713517329,4292,8,0.0,15,388740376358612,11,33.1,-277.1766357421875,0.04690000042319298,0,0.0,0.0,,,,,0,,1,,
Raw,26226592,26232600000000,,,-1291005707845281536,0.0,47.27369741885923,-1.115080850488616,9.768896713517329,4292,9,0.0,15,388740368982678,11,33.4,-246.2680206298828,0.03490000218153,0,0.0,0.0,,,,,0,,1,,
Raw,26226592,26232600000000,,,-1291005707845281536,0.0,47.27369741885923,-1.115080850488616,9.768896713517329,4292,16,0.0,15,388740372647265,678,16.1,269.75079345703125,17.024499893188477,0,0.0,0.0,,,,,0,,1,,
Raw,26226593,26232600000000,,,-1291005707845281536,0.0,47.27369741885923,-1.115080850488616,9.768896713517329,4292,21,0.0,15,388740367627141,17,28.2,-595.9141235351562,0.5069999694824219,0,0.0,0.0,,,,,0,,1,,
Raw,26226593,26232600000000,,,-1291005707845281536,0.0,47.27369741885923,-1.115080850488616,9.768896713517329,4292,27,0.0,15,388740378213521,409,18.7,190.6647491455078,13.023500442504883,0,0.0,0.0,,,,,0,,1,,
Raw,26226594,26232600000000,,,-1291005707845281536,0.0,47.27369741885923,-1.115080850488616,9.768896713517329,4292,2,0.0,783,388726320213951,297,22.0,9.016254425048828,11.193500518798828,0,0.0,0.0,,,,,0,,5,,
Raw,26226594,26232600000000,,,-1291005707845281536,0.0,47.27369741885923,-1.115080850488616,9.768896713517329,4292,3,0.0,783,388726323629328,14,30.1,-6.654168605804443,0.36500000953674316,0,0.0,0.0,,,,,0,,5,,
Raw,26226595,26232600000000,,,-1291005707845281536,0.0,47.27369741885923,-1.115080850488616,9.768896713517329,4292,5,0.0,783,388726311931655,51,24.3,2.534921169281006,3.575000047683716,0,0.0,0.0,,,,,0,,5,,
Raw,26226595,26232600000000,,,-1291005707845281536,0.0,47.27369741885923,-1.115080850488616,9.768896713517329,4292,6,0.0,15,388726323429858,14,30.2,217.3695068359375,0.3709999918937683,0,0.0,0.0,,,,,0,,5,,
Raw,26226596,26232600000000,,,-1291005707845281536,0.0,47.27369741885923,-1.115080850488616,9.768896713517329,4292,9,0.0,15,388726325747188,21,26.4,108.70394897460938,0.5040000081062317,0,0.0,0.0,,,,,0,,5,,
Raw,26226596,26232600000000,,,-1291005707845281536,0.0,47.27369741885923,-1.115080850488616,9.768896713517329,4292,10,0.0,15,388726319841969,24,25.6,39.20484924316406,0.38030001521110535,0,0.0,0.0,,,,,0,,5,,
Raw,26226596,26232600000000,,,-1291005707845281536,0.0,47.27369741885923,-1.115080850488616,9.768896713517329,4292,11,0.0,15,388726358370079,13,31.5,-634.135986328125,0.05220000073313713,0,0.0,0.0,,,,,0,,5,,
Raw,26226597,26232600000000,,,-1291005707845281536,0.0,47.27369741885923,-1.115080850488616,9.768896713517329,4292,12,0.0,15,388726371927241,21,26.1,-347.33221435546875,0.5130000114440918,0,0.0,0.0,,,,,0,,5,,
Raw,26226597,26232600000000,,,-1291005707845281536,0.0,47.27369741885923,-1.115080850488616,9.768896713517329,4292,13,0.0,15,388726308235188,27,24.8,-218.91543579101562,0.5385000109672546,0,0.0,0.0,,,,,0,,5,,
Raw,26226598,26232600000000,,,-1291005707845281536,0.0,47.27369741885923,-1.115080850488616,9.768896713517329,4292,14,0.0,15,388726359286987,46,20.9,339.0649108886719,0.7249999642372131,0,0.0,0.0,,,,,0,,5,,
Raw,26226598,26232600000000,,,-1291005707845281536,0.0,47.27369741885923,-1.115080850488616,9.768896713517329,4292,16,0.0,15,388726322486658,16,29.1,231.8162384033203,0.02970000170171261,0,0.0,0.0,,,,,0,,5,,
Raw,26226599,26232600000000,,,-1291005707845281536,0.0,47.27369741885923,-1.115080850488616,9.768896713517329,4292,24,0.0,15,388726368576922,35,22.7,-278.0347900390625,0.6784999966621399,0,0.0,0.0,,,,,0,,5,,
Raw,26226599,26232600000000,,,-1291005707845281536,0.0,47.27369741885923,-1.115080850488616,9.768896713517329,4292,25,0.0,15,388726355683703,10,34.5,-438.6430969238281,0.044600002467632294,0,0.0,0.0,,,,,0,,5,,
Raw,26226600,26232600000000,,,-1291005707845281536,0.0,47.27369741885923,-1.115080850488616,9.768896713517329,4292,26,0.0,15,388726370616432,151,13.6,75.81719207763672,4.371500015258789,0,0.0,0.0,,,,,0,,5,,
Raw,26226601,26232600000000,,,-1291005707845281536,0.0,47.27369741885923,-1.115080850488616,9.768896713517329,4292,2,0.0,7183,388740355930251,10,34.2,-218.609375,0.2540000081062317,0,0.0,0.0,,,,,0,,6,,
Raw,26226601,26232600000000,,,-1291005707845281536,0.0,47.27369741885923,-1.115080850488616,9.768896713517329,4292,3,0.0,7183,388740360216432,16,29.4,158.00083923339844,0.390500009059906,0,0.0,0.0,,,,,0,,6,,
Raw,26226602,26232600000000,,,-1291005707845281536,0.0,47.27369741885923,-1.115080850488616,9.768896713517329,4292,5,0.0,7183,388740358557167,16,29.6,469.7875061035156,0.37849998474121094,0,0.0,0.0,,,,,0,,6,,
Raw,26226602,26232600000000,,,-1291005707845281536,0.0,47.27369741885923,-1.115080850488616,9.768896713517329,4292,8,0.0,7183,388740358280066,9,35.7,-232.614990234375,0.25349998474121094,0,0.0,0.0,,,,,0,,6,,
Raw,26226603,26232600000000,,,-1291005707845281536,0.0,47.27369741885923,-1.115080850488616,9.768896713517329,4292,24,0.0,7183,388740358217527,1501,16.1,157.9818115234375,25.773500442504883,0,0.0,0.0,,,,,0,,6,,
Raw,26226603,26232600000000,,,-1291005707845281536,0.0,47.27369741885923,-1.115080850488616,9.768896713517329,4292,36,0.0,7183,388740359914942,21,26.1,-525.9431762695312,0.4790000021457672,0,0.0,0.0,,,,,0,,6,,
NMEA,$GPGSV,3,2,11,11,00,000,36,16,42,022,16,21,16,177,28,27,76,014,19*7D,1606996722450
NMEA,$GPGSV,3,3,11,18,03,045,,26,24,056,,31,19,120,*4A,1606996722450
NMEA,$GLGSV,3,1,09,66,04,317,34,86,29,182,18,76,02,306,33,65,20,258,22*67,1606996722451
NMEA,$GLGSV,3,2,09,85,66,115,15,72,14,215,27,74,35,059,,73,04,098,*6A,1606996722451
NMEA,$GLGSV,3,3,09,84,27,035,*53,1606996722452
NMEA,$GAGSV,2,1,07,02,18,298,34,03,35,264,29,05,29,201,30,08,09,312,36*67,1606996722452
NMEA,$GAGSV,2,2,07,24,29,060,16,36,30,171,26,25,47,351,*55,1606996722452
NMEA,$PQGSV,1,1,03,194,61,046,12,195,68,099,19,193,18,168,,0,5*65,1606996722452
NMEA,$PQGSV,4,1,16,02,40,239,22,03,59,202,30,05,16,255,24,06,53,189,30,0,4*6E,1606996722455
NMEA,$PQGSV,4,2,16,09,66,248,26,10,46,300,26,11,11,205,32,12,59,182,26,0,4*6B,1606996722456
NMEA,$PQGSV,4,3,16,13,04,187,25,14,14,239,21,16,55,195,29,24,48,343,23,0,4*61,1606996722456
NMEA,$PQGSV,4,4,16,25,04,306,35,26,50,068,14,01,52,129,,04,37,113,,0,4*69,1606996722456
NMEA,$GNGSA,A,3,04,07,08,09,21,,,,,,,,1.4,1.2,0.8,1*3E,1606996722457
NMEA,$GNGSA,A,2,65,66,72,,,,,,,,,,1.4,1.2,0.8,2*3B,1606996722457
NMEA,$GNGSA,A,3,02,03,04,05,,,,,,,,,1.4,1.2,0.8,3*3D,1606996722457
NMEA,$PQGSA,A,2,11,12,14,,,,,,,,,,1.4,1.2,0.8,4*35,1606996722458
NMEA,$GNVTG,,T,,M,0.0,N,0.0,K,A*3D,1606996722458
NMEA,$GNRMC,115843.00,A,2255.525107,N,12017.677769,E,0.0,,031220,2.8,W,A*1A,1606996722458
NMEA,$GNGGA,115843.00,2255.525107,N,12017.677769,E,1,12,1.2,36.6,M,17.5,M,,*47,1606996722458
Raw,26227588,26233600000000,,,-1291005707845281536,0.0,46.20790059561841,-3.512736015694142,14.127593031223293,4292,95,0.0,3,15779385,493,19.7,-133.95346069335938,14.63900089263916,0,0.0,0.0,,,,,0,,3,,
Raw,26227588,26233600000000,,,-1291005707845281536,0.0,46.20790059561841,-3.512736015694142,14.127593031223293,4292,2,0.0,207,53923365237641,11,33.5,-218.54586791992188,0.23040001094341278,0,0.0,0.0,,,,,0,,3,,
Raw,26227588,26233600000000,,,-1291005707845281536,0.0,46.20790059561841,-3.512736015694142,14.127593031223293,4292,22,0.0,207,53923372922306,84,16.5,-772.8826904296875,2.134500026702881,0,0.0,0.0,,,,,0,,3,,
Raw,26227588,26233600000000,,,-1291005707845281536,0.0,46.20790059561841,-3.512736015694142,14.127593031223293,4292,12,0.0,207,53923364118489,11,33.1,-423.46563720703125,0.2289000153541565,0,0.0,0.0,,,,,0,,3,,
Raw,26227589,26233600000000,,,-1291005707845281536,0.0,46.20790059561841,-3.512736015694142,14.127593031223293,4292,1,0.0,207,53923370122234,40,21.1,382.07318115234375,1.0015000104904175,0,0.0,0.0,,,,,0,,3,,
Raw,26227589,26233600000000,,,-1291005707845281536,0.0,46.20790059561841,-3.512736015694142,14.127593031223293,4292,21,0.0,207,53923379986290,872,15.3,-176.96023559570312,19.455001831054688,0,0.0,0.0,,,,,0,,3,,
Raw,26227589,26233600000000,,,-1291005707845281536,0.0,46.20790059561841,-3.512736015694142,14.127593031223293,4292,8,0.0,207,53923367800177,24,25.1,608.9967651367188,0.7870000004768372,0,0.0,0.0,,,,,0,,3,,
Raw,26227589,26233600000000,,,-1291005707845281536,0.0,46.20790059561841,-3.512736015694142,14.127593031223293,4292,4,0.0,15,388741374244453,16,29.3,143.19564819335938,0.047700002789497375,0,0.0,0.0,,,,,0,,1,,
Raw,26227589,26233600000000,,,-1291005707845281536,0.0,46.20790059561841,-3.512736015694142,14.127593031223293,4292,7,0.0,15,388741359941662,19,27.9,-603.25,0.4950000047683716,0,0.0,0.0,,,,,0,,1,,
Raw,26227590,26233600000000,,,-1291005707845281536,0.0,46.20790059561841,-3.512736015694142,14.127593031223293,4292,8,0.0,15,388741376359544,12,32.6,-278.3418884277344,0.0479000024497509,0,0.0,0.0,,,,,0,,1,,
Raw,26227590,26233600000000,,,-1291005707845281536,0.0,46.20790059561841,-3.512736015694142,14.127593031223293,4292,9,0.0,15,388741368983506,13,31.1,-247.40374755859375,0.03720000013709068,0,0.0,0.0,,,,,0,,1,,
Raw,26227590,26233600000000,,,-1291005707845281536,0.0,46.20790059561841,-3.512736015694142,14.127593031223293,4292,16,0.0,15,388741372646365,792,16.1,269.75079345703125,18.524499893188477,0,0.0,0.0,,,,,0,,1,,
Raw,26227590,26233600000000,,,-1291005707845281536,0.0,46.20790059561841,-3.512736015694142,14.127593031223293,4292,21,0.0,15,388741367629092,16,29.2,-597.0385131835938,0.03720000013709068,0,0.0,0.0,,,,,0,,1,,
Raw,26227590,26233600000000,,,-1291005707845281536,0.0,46.20790059561841,-3.512736015694142,14.127593031223293,4292,26,0.0,15,388741367464293,752,17.6,327.0957946777344,2.2720000743865967,0,0.0,0.0,,,,,0,,1,,
Raw,26227591,26233600000000,,,-1291005707845281536,0.0,46.20790059561841,-3.512736015694142,14.127593031223293,4292,27,0.0,15,388741378212885,498,18.7,190.6647491455078,14.523500442504883,0,0.0,0.0,,,,,0,,1,,
Raw,26227591,26233600000000,,,-1291005707845281536,0.0,46.20790059561841,-3.512736015694142,14.127593031223293,4292,2,0.0,783,388727320213921,375,22.0,9.016254425048828,12.693500518798828,0,0.0,0.0,,,,,0,,5,,
Raw,26227591,26233600000000,,,-1291005707845281536,0.0,46.20790059561841,-3.512736015694142,14.127593031223293,4292,3,0.0,783,388727323629347,14,30.0,-11.608787536621094,0.36500000953674316,0,0.0,0.0,,,,,0,,5,,
Raw,26227591,26233600000000,,,-1291005707845281536,0.0,46.20790059561841,-3.512736015694142,14.127593031223293,4292,5,0.0,783,388727311931647,78,24.3,2.534921169281006,5.075000286102295,0,0.0,0.0,,,,,0,,5,,
Raw,26227591,26233600000000,,,-1291005707845281536,0.0,46.20790059561841,-3.512736015694142,14.127593031223293,4292,6,0.0,15,388727323429133,14,30.5,216.17222595214844,0.030300000682473183,0,0.0,0.0,,,,,0,,5,,
Raw,26227591,26233600000000,,,-1291005707845281536,0.0,46.20790059561841,-3.512736015694142,14.127593031223293,4292,9,0.0,15,388727325746810,21,26.8,107.75308227539062,0.11870000511407852,0,0.0,0.0,,,,,0,,5,,
Raw,26227592,26233600000000,,,-1291005707845281536,0.0,46.20790059561841,-3.512736015694142,14.127593031223293,4292,10,0.0,15,388727319841824,19,27.8,38.65877914428711,0.0398000031709671,0,0.0,0.0,,,,,0,,5,,
Raw,26227592,26233600000000,,,-1291005707845281536,0.0,46.20790059561841,-3.512736015694142,14.127593031223293,4292,11,0.0,15,388727358372185,13,31.9,-635.4049682617188,0.05220000073313713,0,0.0,0.0,,,,,0,,5,,
Raw,26227592,26233600000000,,,-1291005707845281536,0.0,46.20790059561841,-3.512736015694142,14.127593031223293,4292,12,0.0,15,388727371928413,27,24.8,-348.532470703125,0.5429999828338623,0,0.0,0.0,,,,,0,,5,,
Raw,26227592,26233600000000,,,-1291005707845281536,0.0,46.20790059561841,-3.512736015694142,14.127593031223293,4292,13,0.0,15,388727308235945,35,22.6,-220.3461151123047,0.6784999966621399,0,0.0,0.0,,,,,0,,5,,
Raw,26227592,26233600000000,,,-1291005707845281536,0.0,46.20790059561841,-3.512736015694142,14.127593031223293,4292,14,0.0,15,388727359285861,53,19.3,339.1129150390625,0.8449999690055847,0,0.0,0.0,,,,,0,,5,,
Raw,26227593,26233600000000,,,-1291005707845281536,0.0,46.20790059561841,-3.512736015694142,14.127593031223293,4292,16,0.0,15,388727322485869,14,30.4,230.5509796142578,0.028800001367926598,0,0.0,0.0,,,,,0,,5,,
Raw,26227593,26233600000000,,,-1291005707845281536,0.0,46.20790059561841,-3.512736015694142,14.127593031223293,4292,24,0.0,15,388727368577829,31,23.9,-279.4942932128906,0.5885000228881836,0,0.0,0.0,,,,,0,,5,,
Raw,26227593,26233600000000,,,-1291005707845281536,0.0,46.20790059561841,-3.512736015694142,14.127593031223293,4292,25,0.0,15,388727355685164,11,33.3,-439.9412841796875,0.04540000110864639,0,0.0,0.0,,,,,0,,5,,
Raw,26227593,26233600000000,,,-1291005707845281536,0.0,46.20790059561841,-3.512736015694142,14.127593031223293,4292,26,0.0,15,388727370616179,181,13.6,75.81719207763672,5.871500015258789,0,0.0,0.0,,,,,0,,5,,
Raw,26227593,26233600000000,,,-1291005707845281536,0.0,46.20790059561841,-3.512736015694142,14.127593031223293,4292,2,0.0,7183,388741355930985,11,33.5,-219.68453979492188,0.27399998903274536,0,0.0,0.0,,,,,0,,6,,
Raw,26227594,26233600000000,,,-1291005707845281536,0.0,46.20790059561841,-3.512736015694142,14.127593031223293,4292,3,0.0,7183,388741360215897,14,30.5,156.46896362304688,0.3605000078678131,0,0.0,0.0,,,,,0,,6,,
Raw,26227594,26233600000000,,,-1291005707845281536,0.0,46.20790059561841,-3.512736015694142,14.127593031223293,4292,5,0.0,7183,388741358555601,16,29.4,469.1880798339844,0.37849998474121094,0,0.0,0.0,,,,,0,,6,,
Raw,26227594,26233600000000,,,-1291005707845281536,0.0,46.20790059561841,-3.512736015694142,14.127593031223293,4292,8,0.0,7183,388741358280834,8,36.3,-233.5188751220703,0.2435000091791153,0,0.0,0.0,,,,,0,,6,,
Raw,26227594,26233600000000,,,-1291005707845281536,0.0,46.20790059561841,-3.512736015694142,14.127593031223293,4292,24,0.0,7183,388741358217000,1675,16.1,157.9818115234375,27.273500442504883,0,0.0,0.0,,,,,0,,6,,
Raw,26227594,26233600000000,,,-1291005707845281536,0.0,46.20790059561841,-3.512736015694142,14.127593031223293,4292,36,0.0,7183,388741359916700,24,25.7,-527.5321044921875,0.5189999938011169,0,0.0,0.0,,,,,0,,6,,
Fix,gps,22.925417,120.294625,53.917969,0.000000,10.720000,1606996724000
NMEA,$GPGSV,3,1,11,04,51,254,29,07,05,314,28,08,59,230,33,09,28,298,31*7A,1606996723468
NMEA,$GPGSV,3,2,11,11,00,000,35,16,42,022,16,21,16,177,29,26,24,056,18*7E,1606996723468
NMEA,$GPGSV,3,3,11,27,76,014,19,18,03,045,,31,19,120,*42,1606996723468
NMEA,$GLGSV,3,1,09,66,04,317,34,86,29,182,17,76,02,306,33,65,20,258,21*6B,1606996723468
NMEA,$GLGSV,3,2,09,85,66,115,15,72,14,215,25,74,35,059,,73,04,098,*68,1606996723469
NMEA,$GLGSV,3,3,09,84,27,035,*53,1606996723469
NMEA,$GAGSV,2,1,07,02,18,298,34,03,35,264,31,05,29,201,29,08,09,312,36*66,1606996723471
NMEA,$GAGSV,2,2,07,24,29,060,16,36,30,171,26,25,47,351,*55,1606996723472
NMEA,$PQGSV,1,1,03,194,61,046,12,195,68,099,19,193,18,168,,0,5*65,1606996723472
NMEA,$PQGSV,4,1,16,02,40,239,22,03,59,202,30,05,16,255,24,06,53,189,31,0,4*6F,1606996723473
NMEA,$PQGSV,4,2,16,09,66,248,27,10,46,300,28,11,11,205,32,12,59,182,25,0,4*67,1606996723476
NMEA,$PQGSV,4,3,16,13,04,187,23,14,14,239,19,16,55,195,30,24,48,343,24,0,4*63,1606996723476
NMEA,$PQGSV,4,4,16,25,04,306,33,26,50,068,14,01,52,129,,04,37,113,,0,4*6F,1606996723477
NMEA,$GNGSA,A,3,04,07,08,09,21,,,,,,,,1.1,0.8,0.8,1*30,1606996723478
NMEA,$GNGSA,A,2,65,66,72,,,,,,,,,,1.1,0.8,0.8,2*35,1606996723478
NMEA,$GNGSA,A,3,02,03,04,05,,,,,,,,,1.1,0.8,0.8,3*33,1606996723478
NMEA,$PQGSA,A,2,11,12,14,,,,,,,,,,1.1,0.8,0.8,4*3B,1606996723479
NMEA,$GNVTG,,T,,M,0.0,N,0.0,K,A*3D,1606996723479
NMEA,$GNRMC,115844.00,A,2255.524997,N,12017.677496,E,0.0,,031220,2.8,W,A*1E,1606996723479
NMEA,$GNGGA,115844.00,2255.524997,N,12017.677496,E,1,12,0.8,36.4,M,17.5,M,,*4A,1606996723479
Fix,gps,22.925416,120.294623,53.514221,0.000000,10.720000,1606996725000
NMEA,$GPGSV,3,1,11,04,51,254,29,07,05,314,29,08,59,230,33,09,28,298,33*79,1606996724450
NMEA,$GPGSV,3,2,11,11,00,000,36,16,42,022,16,21,16,177,29,27,76,014,19*7C,1606996724451
NMEA,$GPGSV,3,3,11,18,03,045,,26,24,056,,31,19,120,*4A,1606996724451
NMEA,$GLGSV,3,1,09,74,35,059,11,66,04,317,35,86,29,182,19,76,02,306,34*67,1606996724451
NMEA,$GLGSV,3,2,09,65,20,258,25,85,66,115,15,72,14,215,27,73,04,098,*6A,1606996724451
NMEA,$GLGSV,3,3,09,84,27,035,*53,1606996724452
Raw,26228677,26234600000000,,,-1291005707845281536,0.0,42.416115320520476,-7.625518616070875,11.020984413989364,4292,10,0.0,207,53924374094158,382,10.7,73.46316528320312,10.592500686645508,0,0.0,0.0,,,,,0,,3,,
Raw,26228678,26234600000000,,,-1291005707845281536,0.0,42.416115320520476,-7.625518616070875,11.020984413989364,4292,95,0.0,3,15779832,592,19.7,-133.95346069335938,16.138999938964844,0,0.0,0.0,,,,,0,,3,,
Raw,26228679,26234600000000,,,-1291005707845281536,0.0,42.416115320520476,-7.625518616070875,11.020984413989364,4292,2,0.0,207,53924365238396,10,34.7,-218.15928649902344,0.22960001230239868,0,0.0,0.0,,,,,0,,3,,
Raw,26228679,26234600000000,,,-1291005707845281536,0.0,42.416115320520476,-7.625518616070875,11.020984413989364,4292,22,0.0,207,53924372924651,61,18.8,-772.873291015625,1.214500069618225,0,0.0,0.0,,,,,0,,3,,
Raw,26228680,26234600000000,,,-1291005707845281536,0.0,42.416115320520476,-7.625518616070875,11.020984413989364,4292,12,0.0,207,53924364119893,11,33.8,-423.265869140625,0.2289000153541565,0,0.0,0.0,,,,,0,,3,,
Raw,26228681,26234600000000,,,-1291005707845281536,0.0,42.416115320520476,-7.625518616070875,11.020984413989364,4292,1,0.0,207,53924370120977,27,24.8,382.3350830078125,0.8314999938011169,0,0.0,0.0,,,,,0,,3,,
Raw,26228681,26234600000000,,,-1291005707845281536,0.0,42.416115320520476,-7.625518616070875,11.020984413989364,4292,21,0.0,207,53924379986881,1002,15.3,-176.96023559570312,20.955001831054688,0,0.0,0.0,,,,,0,,3,,
Raw,26228682,26234600000000,,,-1291005707845281536,0.0,42.416115320520476,-7.625518616070875,11.020984413989364,4292,8,0.0,207,53924367798074,21,26.8,609.4916381835938,0.7369999885559082,0,0.0,0.0,,,,,0,,3,,
Raw,26228683,26234600000000,,,-1291005707845281536,0.0,42.416115320520476,-7.625518616070875,11.020984413989364,4292,4,0.0,15,388742374243989,17,28.8,143.64234924316406,0.05430000275373459,0,0.0,0.0,,,,,0,,1,,
Raw,26228684,26234600000000,,,-1291005707845281536,0.0,42.416115320520476,-7.625518616070875,11.020984413989364,4292,7,0.0,15,388742359943683,16,29.3,-602.241455078125,0.025200001895427704,0,0.0,0.0,,,,,0,,1,,
Raw,26228685,26234600000000,,,-1291005707845281536,0.0,42.416115320520476,-7.625518616070875,11.020984413989364,4292,8,0.0,15,388742376360477,11,33.3,-278.0161437988281,0.04690000042319298,0,0.0,0.0,,,,,0,,1,,
Raw,26228695,26234600000000,,,-1291005707845281536,0.0,42.416115320520476,-7.625518616070875,11.020984413989364,4292,9,0.0,15,388742368984329,11,33.0,-247.0845489501953,0.03490000218153,0,0.0,0.0,,,,,0,,1,,
Raw,26228697,26234600000000,,,-1291005707845281536,0.0,42.416115320520476,-7.625518616070875,11.020984413989364,4292,16,0.0,15,388742372645465,917,16.1,269.75079345703125,20.02450180053711,0,0.0,0.0,,,,,0,,1,,
Raw,26228698,26234600000000,,,-1291005707845281536,0.0,42.416115320520476,-7.625518616070875,11.020984413989364,4292,21,0.0,15,388742367631114,17,28.7,-596.7899780273438,0.043800000101327896,0,0.0,0.0,,,,,0,,1,,
Raw,26228700,26234600000000,,,-1291005707845281536,0.0,42.416115320520476,-7.625518616070875,11.020984413989364,4292,27,0.0,15,388742378212249,597,18.7,190.6647491455078,16.023500442504883,0,0.0,0.0,,,,,0,,1,,
Raw,26228701,26234600000000,,,-1291005707845281536,0.0,42.416115320520476,-7.625518616070875,11.020984413989364,4292,2,0.0,783,388728320213891,462,22.0,9.016254425048828,14.193500518798828,0,0.0,0.0,,,,,0,,5,,
Raw,26228701,26234600000000,,,-1291005707845281536,0.0,42.416115320520476,-7.625518616070875,11.020984413989364,4292,3,0.0,783,388728323629377,13,31.0,-5.559543609619141,0.33500000834465027,0,0.0,0.0,,,,,0,,5,,
Raw,26228702,26234600000000,,,-1291005707845281536,0.0,42.416115320520476,-7.625518616070875,11.020984413989364,4292,5,0.0,783,388728311931682,34,24.1,-1.2194507122039795,2.075000047683716,0,0.0,0.0,,,,,0,,5,,
Raw,26228703,26234600000000,,,-1291005707845281536,0.0,42.416115320520476,-7.625518616070875,11.020984413989364,4292,6,0.0,15,388728323428403,14,30.3,216.46044921875,0.030300000682473183,0,0.0,0.0,,,,,0,,5,,
Raw,26228703,26234600000000,,,-1291005707845281536,0.0,42.416115320520476,-7.625518616070875,11.020984413989364,4292,9,0.0,15,388728325746491,21,26.3,108.1331558227539,0.11870000511407852,0,0.0,0.0,,,,,0,,5,,
Raw,26228704,26234600000000,,,-1291005707845281536,0.0,42.416115320520476,-7.625518616070875,11.020984413989364,4292,10,0.0,15,388728319841703,17,28.0,38.926551818847656,0.03180000185966492,0,0.0,0.0,,,,,0,,5,,
Raw,26228704,26234600000000,,,-1291005707845281536,0.0,42.416115320520476,-7.625518616070875,11.020984413989364,4292,11,0.0,15,388728358374321,12,32.1,-635.1804809570312,0.05090000107884407,0,0.0,0.0,,,,,0,,5,,
Raw,26228705,26234600000000,,,-1291005707845281536,0.0,42.416115320520476,-7.625518616070875,11.020984413989364,4292,12,0.0,15,388728371929586,24,25.5,-348.846923828125,0.3982999920845032,0,0.0,0.0,,,,,0,,5,,
Raw,26228705,26234600000000,,,-1291005707845281536,0.0,42.416115320520476,-7.625518616070875,11.020984413989364,4292,13,0.0,15,388728308236649,35,22.8,-220.32691955566406,0.6285000443458557,0,0.0,0.0,,,,,0,,5,,
Raw,26228706,26234600000000,,,-1291005707845281536,0.0,42.416115320520476,-7.625518616070875,11.020984413989364,4292,14,0.0,15,388728359284726,53,19.7,338.219970703125,0.8449999690055847,0,0.0,0.0,,,,,0,,5,,
Raw,26228706,26234600000000,,,-1291005707845281536,0.0,42.416115320520476,-7.625518616070875,11.020984413989364,4292,16,0.0,15,388728322485113,14,30.2,230.84243774414062,0.028800001367926598,0,0.0,0.0,,,,,0,,5,,
Raw,26228707,26234600000000,,,-1291005707845281536,0.0,42.416115320520476,-7.625518616070875,11.020984413989364,4292,24,0.0,15,388728368578768,24,25.8,-279.107666015625,0.3937999904155731,0,0.0,0.0,,,,,0,,5,,
Raw,26228707,26234600000000,,,-1291005707845281536,0.0,42.416115320520476,-7.625518616070875,11.020984413989364,4292,25,0.0,15,388728355686627,10,34.6,-439.75030517578125,0.044600002467632294,0,0.0,0.0,,,,,0,,5,,
