# 
# Header Description:
# 
# Version: v2.0.0.1 Platform: 8.0.0 Manufacturer: Sony Model: G8142
# 
# Raw,ElapsedRealtimeMillis,TimeNanos,LeapSecond,TimeUncertaintyNanos,FullBiasNanos,BiasNanos,BiasUncertaintyNanos,DriftNanosPerSecond,DriftUncertaintyNanosPerSecond,HardwareClockDiscontinuityCount,Svid,TimeOffsetNanos,State,ReceivedSvTimeNanos,ReceivedSvTimeUncertaintyNanos,Cn0DbHz,PseudorangeRateMetersPerSecond,PseudorangeRateUncertaintyMetersPerSecond,AccumulatedDeltaRangeState,AccumulatedDeltaRangeMeters,AccumulatedDeltaRangeUncertaintyMeters,CarrierFrequencyHz,CarrierCycles,CarrierPhase,CarrierPhaseUncertainty,MultipathIndicator,SnrInDb,ConstellationType,AgcDb,CarrierFrequencyHz
# 
# Fix,Provider,Latitude,Longitude,Altitude,Speed,Accuracy,(UTC)TimeInMs
# 
# Nav,Svid,Type,Status,MessageId,Sub-messageId,Data(Bytes)
# 
Raw,26655595,26661979000000,,,-1291005707782705664,0.0,4214.324522763491,29.160133781844078,14.615529962108763,4430,2,0.0,207,54351681931342,31,23.9,-156.62855529785156,0.8829999566078186,0,0.0,0.0,,,,,0,,3,,
Raw,26655596,26661979000000,,,-1291005707782705664,0.0,4214.324522763491,29.160133781844078,14.615529962108763,4430,22,0.0,207,54351690426350,16,29.8,-736.130859375,0.24469999969005585,0,0.0,0.0,,,,,0,,3,,
Raw,26655596,26661979000000,,,-1291005707782705664,0.0,4214.324522763491,29.160133781844078,14.615529962108763,4430,1,0.0,207,54351685973813,13,31.1,420.9589538574219,0.2313000112771988,0,0.0,0.0,,,,,0,,3,,
Raw,26655596,26661979000000,,,-1291005707782705664,0.0,4214.324522763491,29.160133781844078,14.615529962108763,4430,8,0.0,207,54351683354072,14,30.7,610.53076171875,0.2612999975681305,0,0.0,0.0,,,,,0,,3,,
Raw,26655596,26661979000000,,,-1291005707782705664,0.0,4214.324522763491,29.160133781844078,14.615529962108763,4430,1,0.0,15,389169676707839,46,20.4,-610.9568481445312,0.9254999756813049,0,0.0,0.0,,,,,0,,1,,
Raw,26655596,26661979000000,,,-1291005707782705664,0.0,4214.324522763491,29.160133781844078,14.615529962108763,4430,4,0.0,15,389169690426225,14,30.6,197.85292053222656,0.04179999977350235,0,0.0,0.0,,,,,0,,1,,
Raw,26655597,26661979000000,,,-1291005707782705664,0.0,4214.324522763491,29.160133781844078,14.615529962108763,4430,7,0.0,15,389169677230774,12,32.0,-605.7491455078125,0.04690000042319298,0,0.0,0.0,,,,,0,,1,,
Raw,26655597,26661979000000,,,-1291005707782705664,0.0,4214.324522763491,29.160133781844078,14.615529962108763,4430,8,0.0,15,389169693144981,19,27.9,-225.15615844726562,0.08309999853372574,0,0.0,0.0,,,,,0,,1,,
Raw,26655597,26661979000000,,,-1291005707782705664,0.0,4214.324522763491,29.160133781844078,14.615529962108763,4430,9,0.0,15,389169685724239,24,25.2,-192.81524658203125,0.18690000474452972,0,0.0,0.0,,,,,0,,1,,
Raw,26655597,26661979000000,,,-1291005707782705664,0.0,4214.324522763491,29.160133781844078,14.615529962108763,4430,21,0.0,15,389169684900269,16,29.6,-585.7192993164062,0.0357000008225441,0,0.0,0.0,,,,,0,,1,,
Fix,gps,22.925492,120.294691,54.446777,0.000000,6.432000,1606997152000
NMEA,$GPGSV,3,1,12,01,00,000,20,04,50,250,31,07,07,316,32,08,61,234,28*7A,1606997151450
NMEA,$GPGSV,3,2,12,09,30,295,25,11,00,000,36,21,18,175,30,16,41,025,*72,1606997151450
NMEA,$GPGSV,3,3,12,18,02,042,,26,23,059,,27,73,015,,31,18,122,*71,1606997151451
NMEA,$GLGSV,3,1,09,66,05,314,24,86,32,182,30,65,18,254,31,72,11,212,31*61,1606997151451
NMEA,$GLGSV,3,2,09,74,34,063,,73,02,101,,76,04,310,,84,24,032,*66,1606997151451
NMEA,$GLGSV,3,3,09,85,68,106,*58,1606997151451
NMEA,$GAGSV,1,1,0,*74,1606997151451
NMEA,$PQGSV,1,1,03,193,17,168,,194,61,047,,195,68,098,,0,5*61,1606997151452
NMEA,$PQGSV,1,1,0,*73,1606997151456
NMEA,$GNGSA,A,3,04,07,08,09,21,,,,,,,,2.2,2.0,0.8,1*3A,1606997151458
NMEA,$GNGSA,A,2,65,66,72,,,,,,,,,,2.2,2.0,0.8,2*3F,1606997151459
NMEA,$GNVTG,,T,,M,0.0,N,0.0,K,A*3D,1606997151460
NMEA,$GNRMC,120552.00,A,2255.529506,N,12017.681482,E,0.0,,031220,2.8,W,A*17,1606997151460
NMEA,$GNGGA,120552.00,2255.529506,N,12017.681482,E,1,08,2.0,37.0,M,17.5,M,,*47,1606997151460
Raw,26656536,26662992000000,,,-1291005707781872896,0.0,4227.413330227137,16.22546527709762,13.000107223564372,4431,2,0.0,207,54352694099007,21,26.7,-162.17037963867188,0.31870001554489136,0,0.0,0.0,,,,,0,,3,,
Raw,26656536,26662992000000,,,-1291005707781872896,0.0,4227.413330227137,16.22546527709762,13.000107223564372,4431,22,0.0,207,54352702595872,16,29.3,-741.8702392578125,0.26269999146461487,0,0.0,0.0,,,,,0,,3,,
Raw,26656537,26662992000000,,,-1291005707781872896,0.0,4227.413330227137,16.22546527709762,13.000107223564372,4431,12,0.0,207,54352693324508,31,23.6,-438.6238708496094,0.8709999918937683,0,0.0,0.0,,,,,0,,3,,
Raw,26656537,26662992000000,,,-1291005707781872896,0.0,4227.413330227137,16.22546527709762,13.000107223564372,4431,1,0.0,207,54352698139551,13,31.4,415.1795959472656,0.2508000135421753,0,0.0,0.0,,,,,0,,3,,
Raw,26656537,26662992000000,,,-1291005707781872896,0.0,4227.413330227137,16.22546527709762,13.000107223564372,4431,8,0.0,207,54352695519072,14,30.4,604.6976928710938,0.2493000030517578,0,0.0,0.0,,,,,0,,3,,
Raw,26656537,26662992000000,,,-1291005707781872896,0.0,4227.413330227137,16.22546527709762,13.000107223564372,4431,4,0.0,15,389170702592683,14,30.4,192.180908203125,0.059800002723932266,0,0.0,0.0,,,,,0,,1,,
Raw,26656537,26662992000000,,,-1291005707781872896,0.0,4227.413330227137,16.22546527709762,13.000107223564372,4431,7,0.0,15,389170689399955,14,30.6,-611.6507568359375,0.040300000458955765,0,0.0,0.0,,,,,0,,1,,
Raw,26656538,26662992000000,,,-1291005707781872896,0.0,4227.413330227137,16.22546527709762,13.000107223564372,4431,8,0.0,15,389170705312918,27,24.8,-230.99749755859375,0.609000027179718,0,0.0,0.0,,,,,0,,1,,
Raw,26656538,26662992000000,,,-1291005707781872896,0.0,4227.413330227137,16.22546527709762,13.000107223564372,4431,9,0.0,15,389170697891940,16,29.5,-198.9434356689453,0.0552000030875206,0,0.0,0.0,,,,,0,,1,,
Raw,26656538,26662992000000,,,-1291005707781872896,0.0,4227.413330227137,16.22546527709762,13.000107223564372,4431,21,0.0,15,389170697069313,16,29.8,-591.5753784179688,0.0552000030875206,0,0.0,0.0,,,,,0,,1,,
Fix,gps,22.925492,120.294690,54.459412,0.000000,7.504000,1606997153000
NMEA,$GPGSV,3,1,12,04,50,250,30,07,07,316,31,08,61,234,25,09,30,295,30*71,1606997152447
NMEA,$GPGSV,3,2,12,11,00,000,36,21,18,175,30,01,00,000,,16,41,025,*70,1606997152447
NMEA,$GPGSV,3,3,12,18,02,042,,26,23,059,,27,73,015,,31,18,122,*71,1606997152447
NMEA,$GLGSV,3,1,09,66,05,314,27,86,32,182,29,76,04,310,24,65,18,254,31*6D,1606997152447
NMEA,$GLGSV,3,2,09,72,11,212,30,74,34,063,,73,02,101,,84,24,032,*66,1606997152447
NMEA,$GLGSV,3,3,09,85,68,106,*58,1606997152448
NMEA,$GAGSV,1,1,0,*74,1606997152448
NMEA,$PQGSV,1,1,03,193,17,168,,194,61,047,,195,68,098,,0,5*61,1606997152448
NMEA,$PQGSV,1,1,0,*73,1606997152448
NMEA,$GNGSA,A,3,04,07,08,09,21,,,,,,,,2.2,2.0,0.8,1*3A,1606997152449
NMEA,$GNGSA,A,2,65,66,72,,,,,,,,,,2.2,2.0,0.8,2*3F,1606997152449
NMEA,$GNVTG,,T,,M,0.0,N,0.0,K,A*3D,1606997152450
NMEA,$GNRMC,120553.00,A,2255.529503,N,12017.681380,E,0.0,,031220,2.8,W,A*16,1606997152450
NMEA,$GNGGA,120553.00,2255.529503,N,12017.681380,E,1,08,2.0,37.0,M,17.5,M,,*46,1606997152450
Raw,26657545,26663986000000,,,-1291005707781574656,0.0,4288.088995963335,-3.435830569842102,9.210683383018539,4432,22,0.0,207,54353696300442,14,30.9,-739.64306640625,0.2508000135421753,0,0.0,0.0,,,,,0,,3,,
Raw,26657545,26663986000000,,,-1291005707781574656,0.0,4288.088995963335,-3.435830569842102,9.210683383018539,4432,12,0.0,207,54353687028093,35,22.0,-436.0124206542969,0.921999990940094,0,0.0,0.0,,,,,0,,3,,
Raw,26657545,26663986000000,,,-1291005707781574656,0.0,4288.088995963335,-3.435830569842102,9.210683383018539,4432,1,0.0,207,54353691840106,12,32.9,417.3856506347656,0.2379000037908554,0,0.0,0.0,,,,,0,,3,,
Raw,26657546,26663986000000,,,-1291005707781574656,0.0,4288.088995963335,-3.435830569842102,9.210683383018539,4432,21,0.0,207,54353702492949,46,20.9,-112.40464782714844,1.0644999742507935,0,0.0,0.0,,,,,0,,3,,
Raw,26657546,26663986000000,,,-1291005707781574656,0.0,4288.088995963335,-3.435830569842102,9.210683383018539,4432,8,0.0,207,54353689219035,14,30.1,606.872802734375,0.2402999997138977,0,0.0,0.0,,,,,0,,3,,
Raw,26657546,26663986000000,,,-1291005707781574656,0.0,4288.088995963335,-3.435830569842102,9.210683383018539,4432,4,0.0,15,389171696294010,14,30.5,194.36231994628906,0.05079999938607216,0,0.0,0.0,,,,,0,,1,,
Raw,26657546,26663986000000,,,-1291005707781574656,0.0,4288.088995963335,-3.435830569842102,9.210683383018539,4432,7,0.0,15,389171683103957,12,32.3,-609.5413208007812,0.05590000003576279,0,0.0,0.0,,,,,0,,1,,
Raw,26657547,26663986000000,,,-1291005707781574656,0.0,4288.088995963335,-3.435830569842102,9.210683383018539,4432,8,0.0,15,389171699015625,24,25.6,-228.49224853515625,0.2079000025987625,0,0.0,0.0,,,,,0,,1,,
Raw,26657547,26663986000000,,,-1291005707781574656,0.0,4288.088995963335,-3.435830569842102,9.210683383018539,4432,9,0.0,15,389171691594596,17,28.5,-196.6956329345703,0.05729999765753746,0,0.0,0.0,,,,,0,,1,,
Raw,26657547,26663986000000,,,-1291005707781574656,0.0,4288.088995963335,-3.435830569842102,9.210683383018539,4432,21,0.0,15,389171690773286,11,33.7,-589.3781127929688,0.03400000184774399,0,0.0,0.0,,,,,0,,1,,
Fix,gps,22.925492,120.294689,54.453125,0.000000,7.504000,1606997154000
NMEA,$GPGSV,3,1,12,04,50,250,31,07,07,316,32,08,61,234,26,09,30,295,29*78,1606997153448
NMEA,$GPGSV,3,2,12,11,00,000,36,21,18,175,34,01,00,000,,16,41,025,*74,1606997153450
NMEA,$GPGSV,3,3,12,18,02,042,,26,23,059,,27,73,015,,31,18,122,*71,1606997153450
NMEA,$GLGSV,2,1,08,86,32,182,31,76,04,310,22,65,18,254,33,85,68,106,21*61,1606997153451
NMEA,$GLGSV,2,2,08,72,11,212,30,74,34,063,,73,02,101,,84,24,032,*66,1606997153451
NMEA,$GAGSV,1,1,0,*74,1606997153452
NMEA,$PQGSV,1,1,03,193,17,168,,194,61,047,,195,68,098,,0,5*61,1606997153453
NMEA,$PQGSV,1,1,0,*73,1606997153453
NMEA,$GNGSA,A,3,04,07,08,09,21,,,,,,,,2.2,2.0,0.8,1*3A,1606997153455
NMEA,$GNGSA,A,2,65,72,,,,,,,,,,,2.2,2.0,0.8,2*3F,1606997153455
NMEA,$GNVTG,,T,,M,0.0,N,0.0,K,A*3D,1606997153455
NMEA,$GNRMC,120554.00,A,2255.529504,N,12017.681323,E,0.0,,031220,2.8,W,A*1F,1606997153455
NMEA,$GNGGA,120554.00,2255.529504,N,12017.681323,E,1,07,2.0,37.0,M,17.5,M,,*40,1606997153455
Raw,26658542,26664971000000,,,-1291005707780971008,0.0,4266.695119440556,3.7691975154316433,11.11820167742403,4433,2,0.0,207,54354672198470,40,21.6,-164.11517333984375,0.9894999861717224,0,0.0,0.0,,,,,0,,3,,
Raw,26658543,26664971000000,,,-1291005707780971008,0.0,4266.695119440556,3.7691975154316433,11.11820167742403,4433,22,0.0,207,54354680699133,14,30.2,-743.5108032226562,0.25679999589920044,0,0.0,0.0,,,,,0,,3,,
Raw,26658544,26664971000000,,,-1291005707780971008,0.0,4266.695119440556,3.7691975154316433,11.11820167742403,4433,1,0.0,207,54354676234987,12,32.9,413.50933837890625,0.24539999663829803,0,0.0,0.0,,,,,0,,3,,
Raw,26658544,26664971000000,,,-1291005707780971008,0.0,4266.695119440556,3.7691975154316433,11.11820167742403,4433,8,0.0,207,54354673613308,14,30.5,602.8660888671875,0.24629999697208405,0,0.0,0.0,,,,,0,,3,,
Raw,26658545,26664971000000,,,-1291005707780971008,0.0,4266.695119440556,3.7691975154316433,11.11820167742403,4433,4,0.0,15,389172680689674,16,29.4,190.544189453125,0.059700001031160355,0,0.0,0.0,,,,,0,,1,,
Raw,26658546,26664971000000,,,-1291005707780971008,0.0,4266.695119440556,3.7691975154316433,11.11820167742403,4433,7,0.0,15,389172667502295,12,32.3,-613.5446166992188,0.03189999982714653,0,0.0,0.0,,,,,0,,1,,
Raw,26658546,26664971000000,,,-1291005707780971008,0.0,4266.695119440556,3.7691975154316433,11.11820167742403,4433,8,0.0,15,389172683412668,24,25.1,-232.4611358642578,0.18389999866485596,0,0.0,0.0,,,,,0,,1,,
Raw,26658547,26664971000000,,,-1291005707780971008,0.0,4266.695119440556,3.7691975154316433,11.11820167742403,4433,9,0.0,15,389172675991550,17,28.2,-200.5894775390625,0.0632999986410141,0,0.0,0.0,,,,,0,,1,,
Raw,26658548,26664971000000,,,-1291005707780971008,0.0,4266.695119440556,3.7691975154316433,11.11820167742403,4433,21,0.0,15,389172675171544,12,32.4,-593.3295288085938,0.04390000179409981,0,0.0,0.0,,,,,0,,1,,
Raw,26658549,26664971000000,,,-1291005707780971008,0.0,4266.695119440556,3.7691975154316433,11.11820167742403,4433,27,0.0,15,389172684607474,40,21.0,225.37429809570312,0.8374999761581421,0,0.0,0.0,,,,,0,,1,,
Fix,gps,22.925492,120.294688,54.441223,0.000000,8.576000,1606997155000
NMEA,$GPGSV,3,1,12,04,50,250,29,07,07,316,32,08,61,234,25,09,30,295,28*73,1606997154446
NMEA,$GPGSV,3,2,12,11,00,000,36,21,18,175,32,27,73,015,21,01,00,000,*71,1606997154446
NMEA,$GPGSV,3,3,12,16,41,025,,18,02,042,,26,23,059,,31,18,122,*71,1606997154446
NMEA,$GLGSV,2,1,07,66,05,314,22,86,32,182,30,65,18,254,33,72,11,212,31*6A,1606997154447
NMEA,$GLGSV,2,2,07,74,34,063,,73,02,101,,84,24,032,*5E,1606997154447
NMEA,$GAGSV,1,1,0,*74,1606997154448
NMEA,$PQGSV,1,1,03,193,17,168,,194,61,047,,195,68,098,,0,5*61,1606997154448
NMEA,$PQGSV,1,1,0,*73,1606997154449
NMEA,$GNGSA,A,3,04,07,08,09,21,,,,,,,,1.6,1.4,0.8,1*3A,1606997154450
NMEA,$GNGSA,A,2,65,66,72,,,,,,,,,,1.6,1.4,0.8,2*3F,1606997154450
NMEA,$GNVTG,,T,,M,0.0,N,0.0,K,A*3D,1606997154450
NMEA,$GNRMC,120555.00,A,2255.529509,N,12017.681296,E,0.0,,031220,2.8,W,A*1C,1606997154450
NMEA,$GNGGA,120555.00,2255.529509,N,12017.681296,E,1,08,1.4,37.0,M,17.5,M,,*4B,1606997154451
Raw,26659541,26665983000000,,,-1291005707780839680,0.0,4277.272149920464,-9.624479654717303,9.135544648967748,4434,2,0.0,207,54355684067154,35,22.8,-162.02566528320312,0.9174999594688416,0,0.0,0.0,,,,,0,,3,,
Raw,26659542,26665983000000,,,-1291005707780839680,0.0,4277.272149920464,-9.624479654717303,9.135544648967748,4434,22,0.0,207,54355692570275,11,33.0,-742.5765380859375,0.2370000034570694,0,0.0,0.0,,,,,0,,3,,
Raw,26659543,26665983000000,,,-1291005707780839680,0.0,4277.272149920464,-9.624479654717303,9.135544648967748,4434,12,0.0,207,54355683295525,35,22.3,-439.25103759765625,0.9159999489784241,0,0.0,0.0,,,,,0,,3,,
Raw,26659543,26665983000000,,,-1291005707780839680,0.0,4277.272149920464,-9.624479654717303,9.135544648967748,4434,1,0.0,207,54355688102167,10,34.2,414.45037841796875,0.22910000383853912,0,0.0,0.0,,,,,0,,3,,
Raw,26659544,26665983000000,,,-1291005707780839680,0.0,4277.272149920464,-9.624479654717303,9.135544648967748,4434,8,0.0,207,54355685479799,35,22.4,602.7315673828125,0.918999969959259,0,0.0,0.0,,,,,0,,3,,
Raw,26659545,26665983000000,,,-1291005707780839680,0.0,4277.272149920464,-9.624479654717303,9.135544648967748,4434,4,0.0,15,389173692557701,17,28.3,191.53880310058594,0.058800000697374344,0,0.0,0.0,,,,,0,,1,,
Raw,26659545,26665983000000,,,-1291005707780839680,0.0,4277.272149920464,-9.624479654717303,9.135544648967748,4434,7,0.0,15,389173679372935,13,31.3,-612.594970703125,0.05230000242590904,0,0.0,0.0,,,,,0,,1,,
Raw,26659546,26665983000000,,,-1291005707780839680,0.0,4277.272149920464,-9.624479654717303,9.135544648967748,4434,8,0.0,15,389173695282024,21,26.0,-231.3915557861328,0.12020000070333481,0,0.0,0.0,,,,,0,,1,,
Raw,26659547,26665983000000,,,-1291005707780839680,0.0,4277.272149920464,-9.624479654717303,9.135544648967748,4434,9,0.0,15,389173687860859,19,27.7,-199.5250701904297,0.07410000264644623,0,0.0,0.0,,,,,0,,1,,
Raw,26659547,26665983000000,,,-1291005707780839680,0.0,4277.272149920464,-9.624479654717303,9.135544648967748,4434,21,0.0,15,389173687042156,9,35.3,-592.4039916992188,0.02550000138580799,0,0.0,0.0,,,,,0,,1,,
Raw,26659548,26665983000000,,,-1291005707780839680,0.0,4277.272149920464,-9.624479654717303,9.135544648967748,4434,27,0.0,15,389173696475224,35,22.5,227.9908447265625,0.7354999780654907,0,0.0,0.0,,,,,0,,1,,
Fix,gps,22.925492,120.294688,54.443420,0.000000,8.576000,1606997156000
NMEA,$GPGSV,3,1,12,04,50,250,28,07,07,316,31,08,61,234,26,09,30,295,28*72,1606997155446
NMEA,$GPGSV,3,2,12,11,00,000,36,21,18,175,35,27,73,015,23,01,00,000,*74,1606997155446
NMEA,$GPGSV,3,3,12,16,41,025,,18,02,042,,26,23,059,,31,18,122,*71,1606997155448
NMEA,$GLGSV,3,1,09,66,05,314,23,86,32,182,33,76,04,310,22,65,18,254,34*61,1606997155449
NMEA,$GLGSV,3,2,09,72,11,212,22,74,34,063,,73,02,101,,84,24,032,*65,1606997155450
NMEA,$GLGSV,3,3,09,85,68,106,*58,1606997155451
NMEA,$GAGSV,1,1,0,*74,1606997155452
NMEA,$PQGSV,1,1,03,193,17,168,,194,61,047,,195,68,098,,0,5*61,1606997155452
NMEA,$PQGSV,1,1,0,*73,1606997155452
NMEA,$GNGSA,A,3,04,07,08,09,21,27,,,,,,,1.6,1.4,0.8,1*3F,1606997155453
NMEA,$GNGSA,A,2,65,66,72,,,,,,,,,,1.6,1.4,0.8,2*3F,1606997155453
NMEA,$GNVTG,,T,,M,0.0,N,0.0,K,A*3D,1606997155454
NMEA,$GNRMC,120556.00,A,2255.529513,N,12017.681284,E,0.0,,031220,2.8,W,A*17,1606997155454
NMEA,$GNGGA,120556.00,2255.529513,N,12017.681284,E,1,09,1.4,37.0,M,17.5,M,,*41,1606997155454
Raw,26660539,26666977000000,,,-1291005707780081920,0.0,4277.040716260672,-6.459088802021957,11.127812621433977,4435,2,0.0,207,54356677310415,21,26.5,-160.95545959472656,0.3232000172138214,0,0.0,0.0,,,,,0,,3,,
Raw,26660541,26666977000000,,,-1291005707780081920,0.0,4277.040716260672,-6.459088802021957,11.127812621433977,4435,22,0.0,207,54356685814993,11,33.4,-740.7874145507812,0.226500004529953,0,0.0,0.0,,,,,0,,3,,
Raw,26660541,26666977000000,,,-1291005707780081920,0.0,4277.040716260672,-6.459088802021957,11.127812621433977,4435,12,0.0,207,54356676539565,31,23.4,-441.4974365234375,1.025499939918518,0,0.0,0.0,,,,,0,,3,,
Raw,26660542,26666977000000,,,-1291005707780081920,0.0,4277.040716260672,-6.459088802021957,11.127812621433977,4435,1,0.0,207,54356681343172,11,33.9,416.1014099121094,0.25049999356269836,0,0.0,0.0,,,,,0,,3,,
Raw,26660542,26666977000000,,,-1291005707780081920,0.0,4277.040716260672,-6.459088802021957,11.127812621433977,4435,8,0.0,207,54356678720255,17,28.2,605.3457641601562,0.2678000032901764,0,0.0,0.0,,,,,0,,3,,
Raw,26660543,26666977000000,,,-1291005707780081920,0.0,4277.040716260672,-6.459088802021957,11.127812621433977,4435,4,0.0,15,389174685799287,21,26.9,193.63087463378906,0.10520000010728836,0,0.0,0.0,,,,,0,,1,,
Raw,26660544,26666977000000,,,-1291005707780081920,0.0,4277.040716260672,-6.459088802021957,11.127812621433977,4435,7,0.0,15,389174672617323,14,30.0,-610.9736328125,0.04480000212788582,0,0.0,0.0,,,,,0,,1,,
Raw,26660545,26666977000000,,,-1291005707780081920,0.0,4277.040716260672,-6.459088802021957,11.127812621433977,4435,8,0.0,15,389174688525188,31,23.9,-230.70252990722656,0.6634999513626099,0,0.0,0.0,,,,,0,,1,,
Raw,26660546,26666977000000,,,-1291005707780081920,0.0,4277.040716260672,-6.459088802021957,11.127812621433977,4435,9,0.0,15,389174681103748,21,26.7,-197.85549926757812,0.12919999659061432,0,0.0,0.0,,,,,0,,1,,
Raw,26660546,26666977000000,,,-1291005707780081920,0.0,4277.040716260672,-6.459088802021957,11.127812621433977,4435,21,0.0,15,389174680286451,11,33.9,-590.5635375976562,0.049000002443790436,0,0.0,0.0,,,,,0,,1,,
Fix,gps,22.925492,120.294688,54.440002,0.000000,8.576000,1606997157000
NMEA,$GPGSV,3,1,11,04,50,250,27,07,07,316,30,08,61,234,24,09,30,295,27*72,1606997156445
NMEA,$GPGSV,3,2,11,11,00,000,36,21,18,175,34,01,00,000,,16,41,025,*77,1606997156446
NMEA,$GPGSV,3,3,11,18,02,042,,26,23,059,,31,18,122,*47,1606997156446
NMEA,$GLGSV,3,1,09,66,05,314,27,86,32,182,33,76,04,310,23,65,18,254,34*64,1606997156447
NMEA,$GLGSV,3,2,09,72,11,212,28,74,34,063,,73,02,101,,84,24,032,*6F,1606997156447
NMEA,$GLGSV,3,3,09,85,68,106,*58,1606997156449
NMEA,$GAGSV,1,1,0,*74,1606997156449
NMEA,$PQGSV,1,1,03,193,17,168,,194,61,047,,195,68,098,,0,5*61,1606997156449
NMEA,$PQGSV,1,1,0,*73,1606997156451
NMEA,$GNGSA,A,3,04,07,08,09,21,,,,,,,,1.6,1.4,0.8,1*3A,1606997156452
NMEA,$GNGSA,A,2,65,66,72,,,,,,,,,,1.6,1.4,0.8,2*3F,1606997156452
NMEA,$GNVTG,,T,,M,0.0,N,0.0,K,A*3D,1606997156452
NMEA,$GNRMC,120557.00,A,2255.529515,N,12017.681279,E,0.0,,031220,2.8,W,A*12,1606997156453
NMEA,$GNGGA,120557.00,2255.529515,N,12017.681279,E,1,08,1.4,37.0,M,17.5,M,,*45,1606997156453
Raw,26661541,26667991000000,,,-1291005707779348224,0.0,4263.425711542368,-0.8324961826264364,9.315722213216782,4436,2,0.0,207,54357690577249,19,27.1,-162.56732177734375,0.2786000072956085,0,0.0,0.0,,,,,0,,3,,
Raw,26661542,26667991000000,,,-1291005707779348224,0.0,4263.425711542368,-0.8324961826264364,9.315722213216782,4436,22,0.0,207,54357699084031,11,33.2,-742.3272094726562,0.2475000023841858,0,0.0,0.0,,,,,0,,3,,
Raw,26661542,26667991000000,,,-1291005707779348224,0.0,4263.425711542368,-0.8324961826264364,9.315722213216782,4436,12,0.0,207,54357689807461,31,23.0,-439.6815490722656,0.8649999499320984,0,0.0,0.0,,,,,0,,3,,
Raw,26661543,26667991000000,,,-1291005707779348224,0.0,4263.425711542368,-0.8324961826264364,9.315722213216782,4436,1,0.0,207,54357694608251,12,32.2,414.73150634765625,0.24240000545978546,0,0.0,0.0,,,,,0,,3,,
Raw,26661543,26667991000000,,,-1291005707779348224,0.0,4263.425711542368,-0.8324961826264364,9.315722213216782,4436,8,0.0,207,54357691984771,13,31.2,603.8558959960938,0.2403000146150589,0,0.0,0.0,,,,,0,,3,,
Raw,26661544,26667991000000,,,-1291005707779348224,0.0,4263.425711542368,-0.8324961826264364,9.315722213216782,4436,7,0.0,15,389175685885910,16,29.7,-612.44287109375,0.03720000013709068,0,0.0,0.0,,,,,0,,1,,
Raw,26661544,26667991000000,,,-1291005707779348224,0.0,4263.425711542368,-0.8324961826264364,9.315722213216782,4436,8,0.0,15,389175701792459,35,22.7,-231.20680236816406,0.7429999709129333,0,0.0,0.0,,,,,0,,1,,
Raw,26661545,26667991000000,,,-1291005707779348224,0.0,4263.425711542368,-0.8324961826264364,9.315722213216782,4436,9,0.0,15,389175694370979,24,25.6,-199.2397918701172,0.20040000975131989,0,0.0,0.0,,,,,0,,1,,
Raw,26661545,26667991000000,,,-1291005707779348224,0.0,4263.425711542368,-0.8324961826264364,9.315722213216782,4436,21,0.0,15,389175693554925,11,33.3,-592.292724609375,0.03849999979138374,0,0.0,0.0,,,,,0,,1,,
Raw,26661546,26667991000000,,,-1291005707779348224,0.0,4263.425711542368,-0.8324961826264364,9.315722213216782,4436,27,0.0,15,389175702982478,40,21.7,227.61978149414062,0.7744999527931213,0,0.0,0.0,,,,,0,,1,,
Fix,gps,22.925492,120.294688,54.395264,0.000000,9.648001,1606997158000
NMEA,$GPGSV,3,1,11,07,07,316,30,08,61,234,23,09,30,295,26,11,00,000,36*72,1606997157447
NMEA,$GPGSV,3,2,11,21,18,175,33,27,73,015,22,01,00,000,,16,41,025,*70,1606997157447
NMEA,$GPGSV,3,3,11,18,02,042,,26,23,059,,31,18,122,*47,1606997157447
NMEA,$GLGSV,3,1,09,66,05,314,27,86,32,182,33,76,04,310,23,65,18,254,32*62,1606997157448
NMEA,$GLGSV,3,2,09,72,11,212,31,74,34,063,,73,02,101,,84,24,032,*67,1606997157449
NMEA,$GLGSV,3,3,09,85,68,106,*58,1606997157449
NMEA,$GAGSV,1,1,0,*74,1606997157449
NMEA,$PQGSV,1,1,03,193,17,168,,194,61,047,,195,68,098,,0,5*61,1606997157450
NMEA,$PQGSV,1,1,0,*73,1606997157450
NMEA,$GNGSA,A,3,07,08,09,21,27,,,,,,,,1.6,1.4,0.8,1*3B,1606997157451
NMEA,$GNGSA,A,2,65,66,72,,,,,,,,,,1.6,1.4,0.8,2*3F,1606997157451
NMEA,$GNVTG,,T,,M,0.0,N,0.0,K,A*3D,1606997157451
NMEA,$GNRMC,120558.00,A,2255.529505,N,12017.681250,E,0.0,,031220,2.8,W,A*17,1606997157451
NMEA,$GNGGA,120558.00,2255.529505,N,12017.681250,E,1,08,1.4,36.9,M,17.5,M,,*48,1606997157452
Fix,gps,22.925492,120.294687,54.395081,0.000000,9.648001,1606997159000
NMEA,$GPGSA,A,1,,,,,,,,,,,,,1.6,1.4,0.8,1*27,1606997158443
NMEA,$GPVTG,,T,,M,0.0,N,0.0,K,A*23,1606997158443
NMEA,$GPRMC,120559.00,A,2255.529500,N,12017.681235,E,0.0,,031220,2.8,W,A*0E,1606997158443
NMEA,$GPGGA,120559.00,2255.529500,N,12017.681235,E,1,00,1.4,36.9,M,17.5,M,,*59,1606997158443
Fix,gps,22.925490,120.294687,54.424927,0.000000,8.576000,1606997160000
Raw,26663572,26669659000000,,,-1291005707779175168,0.0,85.23027645424008,-5.843398686172824,8.537002731729661,4437,2,0.0,207,54359358405105,20,27.5,-161.11676025390625,0.6313000321388245,0,0.0,0.0,,,,,0,,3,,
Raw,26663572,26669659000000,,,-1291005707779175168,0.0,85.23027645424008,-5.843398686172824,8.537002731729661,4437,22,0.0,207,54359366914896,13,32.0,-740.8195190429688,0.6319000124931335,0,0.0,0.0,,,,,0,,3,,
Raw,26663573,26669659000000,,,-1291005707779175168,0.0,85.23027645424008,-5.843398686172824,8.537002731729661,4437,12,0.0,207,54359357636436,26,25.2,-441.6939697265625,1.3630000352859497,0,0.0,0.0,,,,,0,,3,,
Raw,26663574,26669659000000,,,-1291005707779175168,0.0,85.23027645424008,-5.843398686172824,8.537002731729661,4437,1,0.0,207,54359362432719,13,32.5,416.366943359375,0.6379000544548035,0,0.0,0.0,,,,,0,,3,,
Raw,26663574,26669659000000,,,-1291005707779175168,0.0,85.23027645424008,-5.843398686172824,8.537002731729661,4437,8,0.0,207,54359359808228,28,24.7,604.7857055664062,1.2350000143051147,0,0.0,0.0,,,,,0,,3,,
Raw,26663575,26669659000000,,,-1291005707779175168,0.0,85.23027645424008,-5.843398686172824,8.537002731729661,4437,1,0.0,15,389177353193239,423,22.0,-617.4649047851562,1.0609999895095825,0,0.0,0.0,,,,,0,,1,,
Raw,26663575,26669659000000,,,-1291005707779175168,0.0,85.23027645424008,-5.843398686172824,8.537002731729661,4437,4,0.0,15,389177366890854,22,26.1,193.64285278320312,0.9845000505447388,0,0.0,0.0,,,,,0,,1,,
Raw,26663576,26669659000000,,,-1291005707779175168,0.0,85.23027645424008,-5.843398686172824,8.537002731729661,4437,7,0.0,15,389177353715966,20,27.3,-611.6799926757812,0.9240000247955322,0,0.0,0.0,,,,,0,,1,,
Raw,26663577,26669659000000,,,-1291005707779175168,0.0,85.23027645424008,-5.843398686172824,8.537002731729661,4437,8,0.0,15,389177369620429,21,27.0,-228.88523864746094,1.125,0,0.0,0.0,,,,,0,,1,,
Raw,26663578,26669659000000,,,-1291005707779175168,0.0,85.23027645424008,-5.843398686172824,8.537002731729661,4437,9,0.0,15,389177362198810,25,25.2,-197.56289672851562,1.030500054359436,0,0.0,0.0,,,,,0,,1,,
Raw,26663578,26669659000000,,,-1291005707779175168,0.0,85.23027645424008,-5.843398686172824,8.537002731729661,4437,21,0.0,15,389177361384938,13,32.4,-590.6334838867188,0.7820000052452087,0,0.0,0.0,,,,,0,,1,,
Raw,26663579,26669659000000,,,-1291005707779175168,0.0,85.23027645424008,-5.843398686172824,8.537002731729661,4437,6,0.0,15,389163315996651,23,30.0,227.83566284179688,67.5615005493164,0,0.0,0.0,,,,,0,,5,,
Raw,26663579,26669659000000,,,-1291005707779175168,0.0,85.23027645424008,-5.843398686172824,8.537002731729661,4437,11,0.0,15,389163352181065,14,31.7,-625.1461791992188,0.9605000019073486,0,0.0,0.0,,,,,0,,5,,
Raw,26663580,26669659000000,,,-1291005707779175168,0.0,85.23027645424008,-5.843398686172824,8.537002731729661,4437,16,0.0,15,389163315032324,13,32.0,244.8695526123047,0.9259999990463257,0,0.0,0.0,,,,,0,,5,,
Raw,26663581,26669659000000,,,-1291005707779175168,0.0,85.23027645424008,-5.843398686172824,8.537002731729661,4437,25,0.0,15,389163349223123,16,30.9,-448.9979248046875,0.9650000333786011,0,0.0,0.0,,,,,0,,5,,
Raw,26663581,26669659000000,,,-1291005707779175168,0.0,85.23027645424008,-5.843398686172824,8.537002731729661,4437,8,0.0,7183,389177351487422,11,33.7,-199.6370849609375,0.6550000309944153,0,0.0,0.0,,,,,0,,6,,
NMEA,$GPGSV,3,1,11,01,00,000,22,04,50,250,26,07,07,316,27,08,61,234,27*76,1606997159448
NMEA,$GPGSV,3,2,11,09,30,295,25,11,00,000,34,21,18,175,32,16,41,025,*71,1606997159448
NMEA,$GPGSV,3,3,11,18,02,042,,26,23,059,,31,18,122,*47,1606997159451
NMEA,$GLGSV,3,1,09,66,05,314,28,86,32,182,32,76,04,310,25,65,18,254,33*6B,1606997159452
NMEA,$GLGSV,3,2,09,72,11,212,25,74,34,063,,73,02,101,,84,24,032,*62,1606997159452
NMEA,$GLGSV,3,3,09,85,68,106,*58,1606997159452
NMEA,$GAGSV,2,1,07,08,09,309,34,02,20,299,,03,35,261,,05,27,199,*63,1606997159453
NMEA,$GAGSV,2,2,07,24,28,063,,25,47,354,,36,33,170,*53,1606997159453
NMEA,$PQGSV,1,1,03,193,17,168,,194,61,047,,195,68,098,,0,5*61,1606997159453
NMEA,$PQGSV,4,1,14,06,52,191,30,11,14,205,32,16,54,196,32,25,06,307,31,0,4*6D,1606997159454
NMEA,$PQGSV,4,2,14,01,52,129,,02,40,239,,03,59,202,,04,37,113,,0,4*66,1606997159454
NMEA,$PQGSV,4,3,14,05,16,255,,07,57,343,,08,16,165,,09,64,246,,0,4*6E,1606997159455
NMEA,$PQGSV,4,4,14,10,46,302,,13,05,185,,0,4*67,1606997159455
NMEA,$GNGSA,A,3,04,07,08,09,21,,,,,,,,1.5,1.3,0.8,1*3E,1606997159456
NMEA,$GNGSA,A,2,65,66,72,,,,,,,,,,1.5,1.3,0.8,2*3B,1606997159457
NMEA,$GNVTG,,T,,M,0.0,N,0.0,K,A*3D,1606997159457
NMEA,$GNRMC,120600.00,A,2255.529429,N,12017.681223,E,0.0,,031220,2.8,W,A*12,1606997159457
NMEA,$GNGGA,120600.00,2255.529429,N,12017.681223,E,1,08,1.3,37.0,M,17.5,M,,*42,1606997159458
Raw,26664574,26670659000000,,,-1291005707779175424,0.0,68.78779822727665,-1.5755140589989087,14.419341050259211,4437,2,0.0,207,54360358405390,24,25.5,-159.5238800048828,0.8034999966621399,0,0.0,0.0,,,,,0,,3,,
Raw,26664574,26670659000000,,,-1291005707779175424,0.0,68.78779822727665,-1.5755140589989087,14.419341050259211,4437,22,0.0,207,54360366917339,12,32.6,-739.7808227539062,0.5454999804496765,0,0.0,0.0,,,,,0,,3,,
Raw,26664575,26670659000000,,,-1291005707779175424,0.0,68.78779822727665,-1.5755140589989087,14.419341050259211,4437,12,0.0,207,54360357638202,17,28.9,-437.44366455078125,0.2587999999523163,0,0.0,0.0,,,,,0,,3,,
Raw,26664575,26670659000000,,,-1291005707779175424,0.0,68.78779822727665,-1.5755140589989087,14.419341050259211,4437,1,0.0,207,54360362431312,12,32.7,417.1162414550781,0.22690001130104065,0,0.0,0.0,,,,,0,,3,,
Raw,26664576,26670659000000,,,-1291005707779175424,0.0,68.78779822727665,-1.5755140589989087,14.419341050259211,4437,8,0.0,207,54360359806083,21,26.3,605.8659057617188,0.30970001220703125,0,0.0,0.0,,,,,0,,3,,
Raw,26664576,26670659000000,,,-1291005707779175424,0.0,68.78779822727665,-1.5755140589989087,14.419341050259211,4437,1,0.0,15,389178353195314,32,23.8,-616.7417602539062,1.2590000629425049,0,0.0,0.0,,,,,0,,1,,
Raw,26664576,26670659000000,,,-1291005707779175424,0.0,68.78779822727665,-1.5755140589989087,14.419341050259211,4437,4,0.0,15,389178366890172,17,28.1,194.41342163085938,0.04230000078678131,0,0.0,0.0,,,,,0,,1,,
Raw,26664577,26670659000000,,,-1291005707779175424,0.0,68.78779822727665,-1.5755140589989087,14.419341050259211,4437,7,0.0,15,389178353718018,12,32.0,-610.24462890625,0.04340000078082085,0,0.0,0.0,,,,,0,,1,,
Raw,26664577,26670659000000,,,-1291005707779175424,0.0,68.78779822727665,-1.5755140589989087,14.419341050259211,4437,8,0.0,15,389178369621158,24,25.5,-228.32931518554688,0.3953000009059906,0,0.0,0.0,,,,,0,,1,,
Raw,26664577,26670659000000,,,-1291005707779175424,0.0,68.78779822727665,-1.5755140589989087,14.419341050259211,4437,9,0.0,15,389178362199419,27,24.7,-196.421142578125,0.6195000410079956,0,0.0,0.0,,,,,0,,1,,
Raw,26664578,26670659000000,,,-1291005707779175424,0.0,68.78779822727665,-1.5755140589989087,14.419341050259211,4437,21,0.0,15,389178361386949,11,33.7,-589.914306640625,0.024400001391768456,0,0.0,0.0,,,,,0,,1,,
Raw,26664578,26670659000000,,,-1291005707779175424,0.0,68.78779822727665,-1.5755140589989087,14.419341050259211,4437,27,0.0,15,389178370807274,864,16.5,229.03746032714844,2.186500072479248,0,0.0,0.0,,,,,0,,1,,
Raw,26664579,26670659000000,,,-1291005707779175424,0.0,68.78779822727665,-1.5755140589989087,14.419341050259211,4437,6,0.0,15,389164315995891,235,30.0,227.83566284179688,68.9384994506836,0,0.0,0.0,,,,,0,,5,,
Raw,26664579,26670659000000,,,-1291005707779175424,0.0,68.78779822727665,-1.5755140589989087,14.419341050259211,4437,7,0.0,15,389164315028907,46,20.4,25.089962005615234,1.031000018119812,0,0.0,0.0,,,,,0,,5,,
Raw,26664579,26670659000000,,,-1291005707779175424,0.0,68.78779822727665,-1.5755140589989087,14.419341050259211,4437,9,0.0,15,389164318468918,61,18.3,125.00811004638672,1.156499981880188,0,0.0,0.0,,,,,0,,5,,
Raw,26664580,26670659000000,,,-1291005707779175424,0.0,68.78779822727665,-1.5755140589989087,14.419341050259211,4437,11,0.0,15,389164352183150,14,30.7,-624.7359008789062,0.043800000101327896,0,0.0,0.0,,,,,0,,5,,
Raw,26664581,26670659000000,,,-1291005707779175424,0.0,68.78779822727665,-1.5755140589989087,14.419341050259211,4437,16,0.0,15,389164315031511,14,30.0,244.84271240234375,0.04830000177025795,0,0.0,0.0,,,,,0,,5,,
Raw,26664581,26670659000000,,,-1291005707779175424,0.0,68.78779822727665,-1.5755140589989087,14.419341050259211,4437,24,0.0,15,389164361870709,71,17.5,-271.4958190917969,1.2620000839233398,0,0.0,0.0,,,,,0,,5,,
Raw,26664582,26670659000000,,,-1291005707779175424,0.0,68.78779822727665,-1.5755140589989087,14.419341050259211,4437,25,0.0,15,389164349224626,17,28.5,-448.0126647949219,0.046800002455711365,0,0.0,0.0,,,,,0,,5,,
Raw,26664582,26670659000000,,,-1291005707779175424,0.0,68.78779822727665,-1.5755140589989087,14.419341050259211,4437,8,0.0,7183,389178351488080,10,34.2,-200.56155395507812,0.05060000345110893,0,0.0,0.0,,,,,0,,6,,
Fix,gps,22.925489,120.294687,54.432922,0.000000,7.504000,1606997161000
NMEA,$GPGSV,3,1,12,01,00,000,24,04,50,250,28,07,07,316,32,08,61,234,26*78,1606997160458
NMEA,$GPGSV,3,2,12,09,30,295,25,11,00,000,34,21,18,175,34,27,73,015,17*72,1606997160463
NMEA,$GPGSV,3,3,12,16,41,025,,18,02,042,,26,23,059,,31,18,122,*71,1606997160464
NMEA,$GLGSV,3,1,09,66,05,314,26,86,32,182,33,76,04,310,29,65,18,254,33*68,1606997160467
NMEA,$GLGSV,3,2,09,72,11,212,26,74,34,063,,73,02,101,,84,24,032,*61,1606997160468
NMEA,$GLGSV,3,3,09,85,68,106,*58,1606997160468
NMEA,$GAGSV,2,1,07,08,09,309,34,02,20,299,,03,35,261,,05,27,199,*63,1606997160468
NMEA,$GAGSV,2,2,07,24,28,063,,25,47,354,,36,33,170,*53,1606997160468
NMEA,$PQGSV,1,1,03,193,17,168,,194,61,047,,195,68,098,,0,5*61,1606997160468
NMEA,$PQGSV,4,1,15,06,52,191,30,07,57,343,20,09,64,246,18,11,14,205,31,0,4*60,1606997160469
NMEA,$PQGSV,4,2,15,16,54,196,30,24,50,345,18,25,06,307,29,01,52,129,,0,4*68,1606997160469
NMEA,$PQGSV,4,3,15,02,40,239,,03,59,202,,04,37,113,,05,16,255,,0,4*6A,1606997160469
NMEA,$PQGSV,4,4,15,08,16,165,,10,46,302,,13,05,185,,0,4*5B,1606997160469
NMEA,$GNGSA,A,3,04,07,08,09,21,27,,,,,,,1.5,1.3,0.8,1*3B,1606997160470
NMEA,$GNGSA,A,2,65,66,72,,,,,,,,,,1.5,1.3,0.8,2*3B,1606997160470
NMEA,$GNGSA,A,2,08,,,,,,,,,,,,1.5,1.3,0.8,3*34,1606997160470
NMEA,$PQGSA,A,2,11,16,25,,,,,,,,,,1.5,1.3,0.8,4*33,1606997160471
NMEA,$GNVTG,,T,,M,0.0,N,0.0,K,A*3D,1606997160471
NMEA,$GNRMC,120601.00,A,2255.529339,N,12017.681213,E,0.0,,031220,2.8,W,A*16,1606997160471
NMEA,$GNGGA,120601.00,2255.529339,N,12017.681213,E,1,12,1.3,37.0,M,17.5,M,,*4D,1606997160471
Fix,gps,22.925487,120.294687,54.464233,0.000000,7.504000,1606997162000
Raw,26665591,26671659000000,,,-1291005707779175424,0.0,59.64547017356381,1.9378064865957139,8.73633140418751,4437,2,0.0,207,54361358406005,19,27.1,-161.19351196289062,0.26829999685287476,0,0.0,0.0,,,,,0,,3,,
Raw,26665591,26671659000000,,,-1291005707779175424,0.0,59.64547017356381,1.9378064865957139,8.73633140418751,4437,22,0.0,207,54361366919849,12,32.7,-741.461669921875,0.232900008559227,0,0.0,0.0,,,,,0,,3,,
Raw,26665592,26671659000000,,,-1291005707779175424,0.0,59.64547017356381,1.9378064865957139,8.73633140418751,4437,12,0.0,207,54361357639683,19,27.6,-439.30810546875,0.26680001616477966,0,0.0,0.0,,,,,0,,3,,
Raw,26665592,26671659000000,,,-1291005707779175424,0.0,59.64547017356381,1.9378064865957139,8.73633140418751,4437,1,0.0,207,54361362429925,12,32.7,415.4946594238281,0.22690001130104065,0,0.0,0.0,,,,,0,,3,,
Raw,26665593,26671659000000,,,-1291005707779175424,0.0,59.64547017356381,1.9378064865957139,8.73633140418751,4437,8,0.0,207,54361359804139,21,26.0,604.3009643554688,0.30970001220703125,0,0.0,0.0,,,,,0,,3,,
Raw,26665593,26671659000000,,,-1291005707779175424,0.0,59.64547017356381,1.9378064865957139,8.73633140418751,4437,1,0.0,15,389179353197331,35,22.5,-618.7493896484375,0.7459999918937683,0,0.0,0.0,,,,,0,,1,,
Raw,26665593,26671659000000,,,-1291005707779175424,0.0,59.64547017356381,1.9378064865957139,8.73633140418751,4437,4,0.0,15,389179366889517,19,27.0,192.84616088867188,0.050300002098083496,0,0.0,0.0,,,,,0,,1,,
Raw,26665594,26671659000000,,,-1291005707779175424,0.0,59.64547017356381,1.9378064865957139,8.73633140418751,4437,7,0.0,15,389179353720082,16,29.1,-611.9017944335938,0.04620000347495079,0,0.0,0.0,,,,,0,,1,,
Raw,26665594,26671659000000,,,-1291005707779175424,0.0,59.64547017356381,1.9378064865957139,8.73633140418751,4437,8,0.0,15,389179369621886,21,26.7,-230.09884643554688,0.12470000237226486,0,0.0,0.0,,,,,0,,1,,
Raw,26665594,26671659000000,,,-1291005707779175424,0.0,59.64547017356381,1.9378064865957139,8.73633140418751,4437,9,0.0,15,389179362200096,19,27.2,-198.06895446777344,0.04430000111460686,0,0.0,0.0,,,,,0,,1,,
Raw,26665595,26671659000000,,,-1291005707779175424,0.0,59.64547017356381,1.9378064865957139,8.73633140418751,4437,21,0.0,15,389179361388899,10,34.6,-591.6753540039062,0.023600000888109207,0,0.0,0.0,,,,,0,,1,,
Raw,26665595,26671659000000,,,-1291005707779175424,0.0,59.64547017356381,1.9378064865957139,8.73633140418751,4437,27,0.0,15,389179370806488,757,17.6,228.4475555419922,2.8464999198913574,0,0.0,0.0,,,,,0,,1,,
Raw,26665596,26671659000000,,,-1291005707779175424,0.0,59.64547017356381,1.9378064865957139,8.73633140418751,4437,2,0.0,783,389165313105953,30,24.8,-2.736562728881836,1.5,0,0.0,0.0,,,,,0,,5,,
Raw,26665596,26671659000000,,,-1291005707779175424,0.0,59.64547017356381,1.9378064865957139,8.73633140418751,4437,3,0.0,783,389165316530630,16,29.9,-9.07386589050293,0.6365000009536743,0,0.0,0.0,,,,,0,,5,,
Raw,26665596,26671659000000,,,-1291005707779175424,0.0,59.64547017356381,1.9378064865957139,8.73633140418751,4437,5,0.0,783,389165304820936,16,29.1,0.9217895865440369,0.5665000081062317,0,0.0,0.0,,,,,0,,5,,
Raw,26665597,26671659000000,,,-1291005707779175424,0.0,59.64547017356381,1.9378064865957139,8.73633140418751,4437,6,0.0,15,389165315995127,16,29.7,228.10714721679688,0.04620000347495079,0,0.0,0.0,,,,,0,,5,,
Raw,26665597,26671659000000,,,-1291005707779175424,0.0,59.64547017356381,1.9378064865957139,8.73633140418751,4437,7,0.0,15,389165315028904,70,17.5,23.361604690551758,1.0190000534057617,0,0.0,0.0,,,,,0,,5,,
Raw,26665598,26671659000000,,,-1291005707779175424,0.0,59.64547017356381,1.9378064865957139,8.73633140418751,4437,9,0.0,15,389165318468470,81,16.3,124.59521484375,1.1034998893737793,0,0.0,0.0,,,,,0,,5,,
Raw,26665598,26671659000000,,,-1291005707779175424,0.0,59.64547017356381,1.9378064865957139,8.73633140418751,4437,10,0.0,15,389165312678322,16,32.0,35.87145233154297,10.5285005569458,0,0.0,0.0,,,,,0,,5,,
Raw,26665598,26671659000000,,,-1291005707779175424,0.0,59.64547017356381,1.9378064865957139,8.73633140418751,4437,11,0.0,15,389165352185253,14,30.4,-626.424072265625,0.043800000101327896,0,0.0,0.0,,,,,0,,5,,
Raw,26665599,26671659000000,,,-1291005707779175424,0.0,59.64547017356381,1.9378064865957139,8.73633140418751,4437,13,0.0,15,389165301455475,28,24.4,-230.17852783203125,0.8569999933242798,0,0.0,0.0,,,,,0,,5,,
Raw,26665599,26671659000000,,,-1291005707779175424,0.0,59.64547017356381,1.9378064865957139,8.73633140418751,4437,16,0.0,15,389165315030704,14,30.2,243.1300506591797,0.04830000177025795,0,0.0,0.0,,,,,0,,5,,
Raw,26665599,26671659000000,,,-1291005707779175424,0.0,59.64547017356381,1.9378064865957139,8.73633140418751,4437,24,0.0,15,389165361871613,61,18.3,-271.75506591796875,0.9179999828338623,0,0.0,0.0,,,,,0,,5,,
Raw,26665600,26671659000000,,,-1291005707779175424,0.0,59.64547017356381,1.9378064865957139,8.73633140418751,4437,25,0.0,15,389165349226106,14,30.0,-449.6907958984375,0.03930000215768814,0,0.0,0.0,,,,,0,,5,,
Raw,26665600,26671659000000,,,-1291005707779175424,0.0,59.64547017356381,1.9378064865957139,8.73633140418751,4437,8,0.0,7183,389179351488749,9,35.7,-200.45535278320312,0.2549999952316284,0,0.0,0.0,,,,,0,,6,,
NMEA,$GPGSV,3,1,12,01,00,000,23,04,50,250,27,07,07,316,29,08,61,234,27*7B,1606997161464
NMEA,$GPGSV,3,2,12,09,30,295,27,11,00,000,34,21,18,175,35,27,73,015,18*7E,1606997161466
NMEA,$GPGSV,3,3,12,16,41,025,,18,02,042,,26,23,059,,31,18,122,*71,1606997161468
NMEA,$GLGSV,3,1,09,66,05,314,27,86,32,182,33,76,04,310,28,65,18,254,33*68,1606997161469
NMEA,$GLGSV,3,2,09,72,11,212,26,74,34,063,,73,02,101,,84,24,032,*61,1606997161469
NMEA,$GLGSV,3,3,09,85,68,106,*58,1606997161469
NMEA,$GAGSV,2,1,07,08,09,309,36,02,20,299,,03,35,261,,05,27,199,*61,1606997161469
NMEA,$GAGSV,2,2,07,24,28,063,,25,47,354,,36,33,170,*53,1606997161469
NMEA,$PQGSV,1,1,03,195,68,098,17,193,17,168,,194,61,047,,0,5*67,1606997161470
NMEA,$PQGSV,4,1,15,02,40,239,25,03,59,202,30,05,16,255,29,06,52,191,30,0,4*6F,1606997161470
NMEA,$PQGSV,4,2,15,07,57,343,18,09,64,246,16,10,46,302,32,11,14,205,30,0,4*6F,1606997161470
NMEA,$PQGSV,4,3,15,13,05,185,24,16,54,196,30,24,50,345,18,25,06,307,30,0,4*60,1606997161471
NMEA,$PQGSV,4,4,15,01,52,129,,04,37,113,,08,16,165,,0,4*5D,1606997161471
NMEA,$GNGSA,A,3,04,07,08,09,21,27,,,,,,,1.5,1.3,0.8,1*3B,1606997161472
NMEA,$GNGSA,A,2,65,66,72,,,,,,,,,,1.5,1.3,0.8,2*3B,1606997161472
NMEA,$GNGSA,A,2,08,,,,,,,,,,,,1.5,1.3,0.8,3*34,1606997161472
NMEA,$PQGSA,A,2,11,16,25,,,,,,,,,,1.5,1.3,0.8,4*33,1606997161472
NMEA,$GNVTG,,T,,M,0.0,N,0.0,K,A*3D,1606997161472
NMEA,$GNRMC,120602.00,A,2255.529211,N,12017.681201,E,0.0,,031220,2.8,W,A*1D,1606997161473
NMEA,$GNGGA,120602.00,2255.529211,N,12017.681201,E,1,12,1.3,37.0,M,17.5,M,,*46,1606997161473
Raw,26666788,26672659000000,,,-1291005707779175424,0.0,65.45986980199814,-3.6227019955501123,15.739233423908248,4437,2,0.0,207,54362358406464,19,27.1,-162.4640350341797,0.26829999685287476,0,0.0,0.0,,,,,0,,3,,
Raw,26666791,26672659000000,,,-1291005707779175424,0.0,65.45986980199814,-3.6227019955501123,15.739233423908248,4437,22,0.0,207,54362366922312,12,32.1,-742.6641235351562,0.232900008559227,0,0.0,0.0,,,,,0,,3,,
Raw,26666794,26672659000000,,,-1291005707779175424,0.0,65.45986980199814,-3.6227019955501123,15.739233423908248,4437,12,0.0,207,54362357641103,24,25.9,-440.588134765625,0.6072999835014343,0,0.0,0.0,,,,,0,,3,,
Raw,26666797,26672659000000,,,-1291005707779175424,0.0,65.45986980199814,-3.6227019955501123,15.739233423908248,4437,1,0.0,207,54362362428541,12,32.8,414.31109619140625,0.22690001130104065,0,0.0,0.0,,,,,0,,3,,
Raw,26666799,26672659000000,,,-1291005707779175424,0.0,65.45986980199814,-3.6227019955501123,15.739233423908248,4437,8,0.0,207,54362359802108,24,25.2,602.936279296875,0.580299973487854,0,0.0,0.0,,,,,0,,3,,
Raw,26666803,26672659000000,,,-1291005707779175424,0.0,65.45986980199814,-3.6227019955501123,15.739233423908248,4437,1,0.0,15,389180353199453,40,21.3,-619.986328125,0.8659999966621399,0,0.0,0.0,,,,,0,,1,,
Raw,26666805,26672659000000,,,-1291005707779175424,0.0,65.45986980199814,-3.6227019955501123,15.739233423908248,4437,4,0.0,15,389180366888892,21,26.8,191.6664581298828,0.12020000070333481,0,0.0,0.0,,,,,0,,1,,
Raw,26666809,26672659000000,,,-1291005707779175424,0.0,65.45986980199814,-3.6227019955501123,15.739233423908248,4437,7,0.0,15,389180353722124,19,27.9,-613.3828735351562,0.06080000102519989,0,0.0,0.0,,,,,0,,1,,
Raw,26666812,26672659000000,,,-1291005707779175424,0.0,65.45986980199814,-3.6227019955501123,15.739233423908248,4437,8,0.0,15,389180369622660,21,26.7,-231.27313232421875,0.12470000237226486,0,0.0,0.0,,,,,0,,1,,
Raw,26666814,26672659000000,,,-1291005707779175424,0.0,65.45986980199814,-3.6227019955501123,15.739233423908248,4437,9,0.0,15,389180362200793,21,26.2,-199.40908813476562,0.11420000344514847,0,0.0,0.0,,,,,0,,1,,
Raw,26666816,26672659000000,,,-1291005707779175424,0.0,65.45986980199814,-3.6227019955501123,15.739233423908248,4437,16,0.0,15,389180365158963,1163,15.1,260.9306945800781,3.869000196456909,0,0.0,0.0,,,,,0,,1,,
Raw,26666819,26672659000000,,,-1291005707779175424,0.0,65.45986980199814,-3.6227019955501123,15.739233423908248,4437,21,0.0,15,389180361390881,10,34.2,-592.9223022460938,0.023600000888109207,0,0.0,0.0,,,,,0,,1,,
Raw,26666821,26672659000000,,,-1291005707779175424,0.0,65.45986980199814,-3.6227019955501123,15.739233423908248,4437,27,0.0,15,389180370805750,880,16.9,228.51414489746094,3.686500072479248,0,0.0,0.0,,,,,0,,1,,
Raw,26666821,26672659000000,,,-1291005707779175424,0.0,65.45986980199814,-3.6227019955501123,15.739233423908248,4437,2,0.0,783,389166313105962,44,24.8,-2.736562728881836,3.0,0,0.0,0.0,,,,,0,,5,,
Raw,26666822,26672659000000,,,-1291005707779175424,0.0,65.45986980199814,-3.6227019955501123,15.739233423908248,4437,3,0.0,783,389166316530648,16,29.2,-8.545757293701172,0.41350001096725464,0,0.0,0.0,,,,,0,,5,,
Raw,26666822,26672659000000,,,-1291005707779175424,0.0,65.45986980199814,-3.6227019955501123,15.739233423908248,4437,5,0.0,783,389166304820910,17,28.4,-2.967010021209717,0.4884999990463257,0,0.0,0.0,,,,,0,,5,,
Raw,26666823,26672659000000,,,-1291005707779175424,0.0,65.45986980199814,-3.6227019955501123,15.739233423908248,4437,6,0.0,15,389166315994385,16,29.7,227.26046752929688,0.04920000210404396,0,0.0,0.0,,,,,0,,5,,
Raw,26666824,26672659000000,,,-1291005707779175424,0.0,65.45986980199814,-3.6227019955501123,15.739233423908248,4437,7,0.0,15,389166315028751,40,21.4,22.19016456604004,0.7489999532699585,0,0.0,0.0,,,,,0,,5,,
Raw,26666824,26672659000000,,,-1291005707779175424,0.0,65.45986980199814,-3.6227019955501123,15.739233423908248,4437,9,0.0,15,389166318468055,89,16.3,124.59521484375,2.6035001277923584,0,0.0,0.0,,,,,0,,5,,
Raw,26666825,26672659000000,,,-1291005707779175424,0.0,65.45986980199814,-3.6227019955501123,15.739233423908248,4437,10,0.0,15,389166312678220,13,31.7,34.41130828857422,0.013199999928474426,0,0.0,0.0,,,,,0,,5,,
Raw,26666825,26672659000000,,,-1291005707779175424,0.0,65.45986980199814,-3.6227019955501123,15.739233423908248,4437,11,0.0,15,389166352187338,14,30.8,-627.72314453125,0.043800000101327896,0,0.0,0.0,,,,,0,,5,,
Raw,26666826,26672659000000,,,-1291005707779175424,0.0,65.45986980199814,-3.6227019955501123,15.739233423908248,4437,13,0.0,15,389166301456258,27,24.9,-231.4652099609375,0.527999997138977,0,0.0,0.0,,,,,0,,5,,
Raw,26666826,26672659000000,,,-1291005707779175424,0.0,65.45986980199814,-3.6227019955501123,15.739233423908248,4437,16,0.0,15,389166315029894,16,29.2,241.845703125,0.04920000210404396,0,0.0,0.0,,,,,0,,5,,
Raw,26666827,26672659000000,,,-1291005707779175424,0.0,65.45986980199814,-3.6227019955501123,15.739233423908248,4437,24,0.0,15,389166361872520,69,18.3,-271.75506591796875,2.4179999828338623,0,0.0,0.0,,,,,0,,5,,
Raw,26666828,26672659000000,,,-1291005707779175424,0.0,65.45986980199814,-3.6227019955501123,15.739233423908248,4437,25,0.0,15,389166349227624,17,28.5,-451.1089172363281,0.046800002455711365,0,0.0,0.0,,,,,0,,5,,
Raw,26666828,26672659000000,,,-1291005707779175424,0.0,65.45986980199814,-3.6227019955501123,15.739233423908248,4437,8,0.0,7183,389180351489423,9,35.4,-201.62567138671875,0.2549999952316284,0,0.0,0.0,,,,,0,,6,,
Fix,gps,22.925485,120.294686,54.474426,0.000000,6.432000,1606997163000
NMEA,$GPGSV,3,1,12,01,00,000,21,04,50,250,27,07,07,316,28,08,61,234,27*78,1606997162451
NMEA,$GPGSV,3,2,12,09,30,295,26,11,00,000,33,16,41,025,15,21,18,175,34*74,1606997162451
NMEA,$GPGSV,3,3,12,27,73,015,17,18,02,042,,26,23,059,,31,18,122,*77,1606997162451
NMEA,$GLGSV,3,1,09,66,05,314,27,86,32,182,32,76,04,310,26,65,18,254,33*67,1606997162451
NMEA,$GLGSV,3,2,09,72,11,212,25,74,34,063,,73,02,101,,84,24,032,*62,1606997162453
NMEA,$GLGSV,3,3,09,85,68,106,*58,1606997162454
NMEA,$GAGSV,2,1,07,08,09,309,35,02,20,299,,03,35,261,,05,27,199,*62,1606997162454
NMEA,$GAGSV,2,2,07,24,28,063,,25,47,354,,36,33,170,*53,1606997162455
NMEA,$PQGSV,1,1,03,193,17,168,15,195,68,098,17,194,61,047,,0,5*63,1606997162455
NMEA,$PQGSV,4,1,15,02,40,239,25,03,59,202,29,05,16,255,28,06,52,191,30,0,4*66,1606997162456
NMEA,$PQGSV,4,2,15,07,57,343,21,09,64,246,16,10,46,302,32,11,14,205,31,0,4*64,1606997162456
NMEA,$PQGSV,4,3,15,13,05,185,25,16,54,196,29,24,50,345,18,25,06,307,29,0,4*61,1606997162457
NMEA,$PQGSV,4,4,15,01,52,129,,04,37,113,,08,16,165,,0,4*5D,1606997162457
NMEA,$GNGSA,A,3,04,07,08,09,21,27,,,,,,,1.5,1.3,0.8,1*3B,1606997162459
NMEA,$GNGSA,A,2,65,66,72,,,,,,,,,,1.5,1.3,0.8,2*3B,1606997162459
NMEA,$GNGSA,A,2,08,,,,,,,,,,,,1.5,1.3,0.8,3*34,1606997162459
NMEA,$PQGSA,A,2,11,16,25,,,,,,,,,,1.5,1.3,0.8,4*33,1606997162460
NMEA,$GNVTG,,T,,M,0.0,N,0.0,K,A*3D,1606997162460
NMEA,$GNRMC,120603.00,A,2255.529086,N,12017.681189,E,0.0,,031220,2.8,W,A*13,1606997162460
NMEA,$GNGGA,120603.00,2255.529086,N,12017.681189,E,1,12,1.3,37.0,M,17.5,M,,*48,1606997162460
NMEA,$GPGSV,3,1,12,01,00,000,22,04,50,250,27,07,07,316,29,08,61,234,27*7A,1606997163460
Fix,gps,22.925483,120.294686,54.394531,0.000000,6.432000,1606997164000
Raw,26667623,26673659000000,,,-1291005707779175424,0.0,66.74804171780124,-7.660067116665009,16.501030963596143,4437,2,0.0,207,54363358407079,19,27.7,-162.38217163085938,0.26829999685287476,0,0.0,0.0,,,,,0,,3,,
Raw,26667625,26673659000000,,,-1291005707779175424,0.0,66.74804171780124,-7.660067116665009,16.501030963596143,4437,22,0.0,207,54363366924762,12,32.4,-742.6641845703125,0.232900008559227,0,0.0,0.0,,,,,0,,3,,
Raw,26667628,26673659000000,,,-1291005707779175424,0.0,66.74804171780124,-7.660067116665009,16.501030963596143,4437,12,0.0,207,54363357642630,19,27.0,-440.6875915527344,0.26680001616477966,0,0.0,0.0,,,,,0,,3,,
Raw,26667630,26673659000000,,,-1291005707779175424,0.0,66.74804171780124,-7.660067116665009,16.501030963596143,4437,1,0.0,207,54363362427175,11,33.0,414.2845458984375,0.22590000927448273,0,0.0,0.0,,,,,0,,3,,
Raw,26667633,26673659000000,,,-1291005707779175424,0.0,66.74804171780124,-7.660067116665009,16.501030963596143,4437,8,0.0,207,54363359800132,21,26.6,602.9318237304688,0.30970001220703125,0,0.0,0.0,,,,,0,,3,,
Raw,26667635,26673659000000,,,-1291005707779175424,0.0,66.74804171780124,-7.660067116665009,16.501030963596143,4437,1,0.0,15,389181353201444,35,22.3,-619.3773803710938,0.8059999942779541,0,0.0,0.0,,,,,0,,1,,
Raw,26667637,26673659000000,,,-1291005707779175424,0.0,66.74804171780124,-7.660067116665009,16.501030963596143,4437,4,0.0,15,389181366888292,21,26.8,191.71771240234375,0.12020000070333481,0,0.0,0.0,,,,,0,,1,,
Raw,26667651,26673659000000,,,-1291005707779175424,0.0,66.74804171780124,-7.660067116665009,16.501030963596143,4437,7,0.0,15,389181353724127,16,29.3,-613.4445190429688,0.04620000347495079,0,0.0,0.0,,,,,0,,1,,
Raw,26667654,26673659000000,,,-1291005707779175424,0.0,66.74804171780124,-7.660067116665009,16.501030963596143,4437,8,0.0,15,389181369623427,21,26.7,-231.2331085205078,0.12470000237226486,0,0.0,0.0,,,,,0,,1,,
Raw,26667656,26673659000000,,,-1291005707779175424,0.0,66.74804171780124,-7.660067116665009,16.501030963596143,4437,9,0.0,15,389181362201444,24,25.0,-199.38565063476562,0.384799987077713,0,0.0,0.0,,,,,0,,1,,
Raw,26667657,26673659000000,,,-1291005707779175424,0.0,66.74804171780124,-7.660067116665009,16.501030963596143,4437,16,0.0,15,389181365158124,1175,15.2,260.274169921875,4.61899995803833,0,0.0,0.0,,,,,0,,1,,
Raw,26667660,26673659000000,,,-1291005707779175424,0.0,66.74804171780124,-7.660067116665009,16.501030963596143,4437,21,0.0,15,389181361392867,11,33.9,-592.9945678710938,0.024400001391768456,0,0.0,0.0,,,,,0,,1,,
Raw,26667661,26673659000000,,,-1291005707779175424,0.0,66.74804171780124,-7.660067116665009,16.501030963596143,4437,27,0.0,15,389181370805018,1024,16.3,228.2953338623047,4.526500225067139,0,0.0,0.0,,,,,0,,1,,
Raw,26667661,26673659000000,,,-1291005707779175424,0.0,66.74804171780124,-7.660067116665009,16.501030963596143,4437,2,0.0,783,389167313105976,30,24.8,-1.987608790397644,1.5,0,0.0,0.0,,,,,0,,5,,
Raw,26667662,26673659000000,,,-1291005707779175424,0.0,66.74804171780124,-7.660067116665009,16.501030963596143,4437,3,0.0,783,389167316530672,16,29.5,-6.990237712860107,0.41350001096725464,0,0.0,0.0,,,,,0,,5,,
Raw,26667662,26673659000000,,,-1291005707779175424,0.0,66.74804171780124,-7.660067116665009,16.501030963596143,4437,5,0.0,783,389167304820915,16,29.6,3.5143229961395264,0.41350001096725464,0,0.0,0.0,,,,,0,,5,,
Raw,26667663,26673659000000,,,-1291005707779175424,0.0,66.74804171780124,-7.660067116665009,16.501030963596143,4437,6,0.0,15,389167315993608,16,29.6,227.22186279296875,0.04920000210404396,0,0.0,0.0,,,,,0,,5,,
Raw,26667664,26673659000000,,,-1291005707779175424,0.0,66.74804171780124,-7.660067116665009,16.501030963596143,4437,7,0.0,15,389167315028692,53,19.3,22.699068069458008,0.8689999580383301,0,0.0,0.0,,,,,0,,5,,
Raw,26667664,26673659000000,,,-1291005707779175424,0.0,66.74804171780124,-7.660067116665009,16.501030963596143,4437,9,0.0,15,389167318467739,96,15.8,124.21113586425781,1.8535000085830688,0,0.0,0.0,,,,,0,,5,,
Raw,26667665,26673659000000,,,-1291005707779175424,0.0,66.74804171780124,-7.660067116665009,16.501030963596143,4437,10,0.0,15,389167312678093,12,32.5,34.37675476074219,0.04190000146627426,0,0.0,0.0,,,,,0,,5,,
Raw,26667666,26673659000000,,,-1291005707779175424,0.0,66.74804171780124,-7.660067116665009,16.501030963596143,4437,11,0.0,15,389167352189437,14,30.1,-627.7578125,0.043800000101327896,0,0.0,0.0,,,,,0,,5,,
Raw,26667666,26673659000000,,,-1291005707779175424,0.0,66.74804171780124,-7.660067116665009,16.501030963596143,4437,13,0.0,15,389167301456995,31,23.9,-230.46658325195312,0.578000009059906,0,0.0,0.0,,,,,0,,5,,
Raw,26667667,26673659000000,,,-1291005707779175424,0.0,66.74804171780124,-7.660067116665009,16.501030963596143,4437,16,0.0,15,389167315029074,14,30.1,241.8114013671875,0.04830000177025795,0,0.0,0.0,,,,,0,,5,,
Raw,26667668,26673659000000,,,-1291005707779175424,0.0,66.74804171780124,-7.660067116665009,16.501030963596143,4437,24,0.0,15,389167361873457,73,17.7,-273.128173828125,1.7480000257492065,0,0.0,0.0,,,,,0,,5,,
Raw,26667668,26673659000000,,,-1291005707779175424,0.0,66.74804171780124,-7.660067116665009,16.501030963596143,4437,25,0.0,15,389167349229129,21,26.0,-451.8305358886719,0.5099999904632568,0,0.0,0.0,,,,,0,,5,,
Raw,26667669,26673659000000,,,-1291005707779175424,0.0,66.74804171780124,-7.660067116665009,16.501030963596143,4437,8,0.0,7183,389181351490093,10,34.6,-201.0670928955078,0.05060000345110893,0,0.0,0.0,,,,,0,,6,,
NMEA,$GPGSV,3,2,12,09,30,295,25,11,00,000,34,16,41,025,15,21,18,175,34*70,1606997163461
NMEA,$GPGSV,3,3,12,27,73,015,16,18,02,042,,26,23,059,,31,18,122,*76,1606997163463
NMEA,$GLGSV,3,1,09,66,05,314,28,86,32,182,32,76,04,310,27,65,18,254,33*69,1606997163464
NMEA,$GLGSV,3,2,09,72,11,212,27,74,34,063,,73,02,101,,84,24,032,*60,1606997163464
NMEA,$GLGSV,3,3,09,85,68,106,*58,1606997163468
NMEA,$GAGSV,2,1,07,08,09,309,35,02,20,299,,03,35,261,,05,27,199,*62,1606997163469
NMEA,$GAGSV,2,2,07,24,28,063,,25,47,354,,36,33,170,*53,1606997163470
NMEA,$PQGSV,1,1,03,193,17,168,15,195,68,098,17,194,61,047,,0,5*63,1606997163470
NMEA,$PQGSV,4,1,15,02,40,239,25,03,59,202,30,05,16,255,30,06,52,191,30,0,4*67,1606997163471
NMEA,$PQGSV,4,2,15,07,57,343,19,09,64,246,16,10,46,302,33,11,14,205,30,0,4*6F,1606997163472
NMEA,$PQGSV,4,3,15,13,05,185,24,16,54,196,30,24,50,345,18,25,06,307,26,0,4*67,1606997163472
NMEA,$PQGSV,4,4,15,01,52,129,,04,37,113,,08,16,165,,0,4*5D,1606997163473
NMEA,$GNGSA,A,3,04,07,08,09,21,27,,,,,,,1.2,1.0,0.8,1*3F,1606997163475
NMEA,$GNGSA,A,2,65,66,72,,,,,,,,,,1.2,1.0,0.8,2*3F,1606997163476
NMEA,$GNGSA,A,2,08,,,,,,,,,,,,1.2,1.0,0.8,3*30,1606997163476
NMEA,$PQGSA,A,2,11,16,25,,,,,,,,,,1.2,1.0,0.8,4*37,1606997163477
NMEA,$GNVTG,,T,,M,0.0,N,0.0,K,A*3D,1606997163478
NMEA,$GNRMC,120604.00,A,2255.528962,N,12017.681153,E,0.0,,031220,2.8,W,A*11,1606997163478
NMEA,$GNGGA,120604.00,2255.528962,N,12017.681153,E,1,12,1.0,36.9,M,17.5,M,,*41,1606997163479
Fix,gps,22.925481,120.294685,54.378174,0.000000,6.432000,1606997165000
Raw,26668598,26674659000000,,,-1291005707779175424,0.0,63.43272252706811,-8.2074901047288,14.589775654221455,4437,2,0.0,207,54364358407609,17,28.4,-161.30221557617188,0.26030001044273376,0,0.0,0.0,,,,,0,,3,,
Raw,26668599,26674659000000,,,-1291005707779175424,0.0,63.43272252706811,-8.2074901047288,14.589775654221455,4437,22,0.0,207,54364366927254,12,32.5,-741.5892333984375,0.232900008559227,0,0.0,0.0,,,,,0,,3,,
Raw,26668599,26674659000000,,,-1291005707779175424,0.0,63.43272252706811,-8.2074901047288,14.589775654221455,4437,12,0.0,207,54364357644094,21,26.3,-439.7726745605469,0.3366999924182892,0,0.0,0.0,,,,,0,,3,,
Raw,26668600,26674659000000,,,-1291005707779175424,0.0,63.43272252706811,-8.2074901047288,14.589775654221455,4437,1,0.0,207,54364362425778,11,33.4,415.35546875,0.22590000927448273,0,0.0,0.0,,,,,0,,3,,
Raw,26668600,26674659000000,,,-1291005707779175424,0.0,63.43272252706811,-8.2074901047288,14.589775654221455,4437,8,0.0,207,54364359798081,21,26.9,603.9107666015625,0.30970001220703125,0,0.0,0.0,,,,,0,,3,,
Raw,26668600,26674659000000,,,-1291005707779175424,0.0,63.43272252706811,-8.2074901047288,14.589775654221455,4437,1,0.0,15,389182353203565,35,22.8,-619.22509765625,0.7459999918937683,0,0.0,0.0,,,,,0,,1,,
Raw,26668600,26674659000000,,,-1291005707779175424,0.0,63.43272252706811,-8.2074901047288,14.589775654221455,4437,4,0.0,15,389182366887682,21,26.4,192.5269317626953,0.12020000070333481,0,0.0,0.0,,,,,0,,1,,
Raw,26668600,26674659000000,,,-1291005707779175424,0.0,63.43272252706811,-8.2074901047288,14.589775654221455,4437,7,0.0,15,389182353726175,14,30.7,-612.4708251953125,0.04530000314116478,0,0.0,0.0,,,,,0,,1,,
Raw,26668601,26674659000000,,,-1291005707779175424,0.0,63.43272252706811,-8.2074901047288,14.589775654221455,4437,8,0.0,15,389182369624191,21,26.1,-230.12799072265625,0.12470000237226486,0,0.0,0.0,,,,,0,,1,,
Raw,26668601,26674659000000,,,-1291005707779175424,0.0,63.43272252706811,-8.2074901047288,14.589775654221455,4437,9,0.0,15,389182362202166,35,22.4,-198.25746154785156,0.7894999980926514,0,0.0,0.0,,,,,0,,1,,
Raw,26668601,26674659000000,,,-1291005707779175424,0.0,63.43272252706811,-8.2074901047288,14.589775654221455,4437,16,0.0,15,389182365157298,1190,14.9,259.9601745605469,5.369000434875488,0,0.0,0.0,,,,,0,,1,,
Raw,26668601,26674659000000,,,-1291005707779175424,0.0,63.43272252706811,-8.2074901047288,14.589775654221455,4437,21,0.0,15,389182361394848,11,33.6,-591.9697875976562,0.024400001391768456,0,0.0,0.0,,,,,0,,1,,
Raw,26668601,26674659000000,,,-1291005707779175424,0.0,63.43272252706811,-8.2074901047288,14.589775654221455,4437,27,0.0,15,389182370804286,1038,15.8,228.20968627929688,5.276500225067139,0,0.0,0.0,,,,,0,,1,,
Raw,26668601,26674659000000,,,-1291005707779175424,0.0,63.43272252706811,-8.2074901047288,14.589775654221455,4437,2,0.0,783,389168313105982,44,24.8,-1.987608790397644,3.0,0,0.0,0.0,,,,,0,,5,,
Raw,26668602,26674659000000,,,-1291005707779175424,0.0,63.43272252706811,-8.2074901047288,14.589775654221455,4437,3,0.0,783,389168316530715,16,29.4,-4.474520206451416,0.41350001096725464,0,0.0,0.0,,,,,0,,5,,
Raw,26668602,26674659000000,,,-1291005707779175424,0.0,63.43272252706811,-8.2074901047288,14.589775654221455,4437,5,0.0,783,389168304820909,14,30.0,1.1522369384765625,0.3935000002384186,0,0.0,0.0,,,,,0,,5,,
Raw,26668602,26674659000000,,,-1291005707779175424,0.0,63.43272252706811,-8.2074901047288,14.589775654221455,4437,6,0.0,15,389168315992853,14,30.1,228.2398681640625,0.04830000177025795,0,0.0,0.0,,,,,0,,5,,
Raw,26668602,26674659000000,,,-1291005707779175424,0.0,63.43272252706811,-8.2074901047288,14.589775654221455,4437,7,0.0,15,389168315028652,40,21.4,24.129762649536133,0.7489999532699585,0,0.0,0.0,,,,,0,,5,,
Raw,26668602,26674659000000,,,-1291005707779175424,0.0,63.43272252706811,-8.2074901047288,14.589775654221455,4437,9,0.0,15,389168318467289,93,15.5,123.6158218383789,1.1934999227523804,0,0.0,0.0,,,,,0,,5,,
Raw,26668602,26674659000000,,,-1291005707779175424,0.0,63.43272252706811,-8.2074901047288,14.589775654221455,4437,10,0.0,15,389168312677985,12,32.5,35.36159896850586,0.04190000146627426,0,0.0,0.0,,,,,0,,5,,
Raw,26668603,26674659000000,,,-1291005707779175424,0.0,63.43272252706811,-8.2074901047288,14.589775654221455,4437,11,0.0,15,389168352191531,14,30.3,-626.7581176757812,0.043800000101327896,0,0.0,0.0,,,,,0,,5,,
Raw,26668603,26674659000000,,,-1291005707779175424,0.0,63.43272252706811,-8.2074901047288,14.589775654221455,4437,13,0.0,15,389168301457787,24,25.6,-230.16738891601562,0.3833000063896179,0,0.0,0.0,,,,,0,,5,,
Raw,26668603,26674659000000,,,-1291005707779175424,0.0,63.43272252706811,-8.2074901047288,14.589775654221455,4437,16,0.0,15,389168315028278,16,29.8,242.81471252441406,0.04920000210404396,0,0.0,0.0,,,,,0,,5,,
Raw,26668603,26674659000000,,,-1291005707779175424,0.0,63.43272252706811,-8.2074901047288,14.589775654221455,4437,24,0.0,15,389168361874322,70,17.4,-273.90594482421875,0.9980000257492065,0,0.0,0.0,,,,,0,,5,,
Raw,26668603,26674659000000,,,-1291005707779175424,0.0,63.43272252706811,-8.2074901047288,14.589775654221455,4437,25,0.0,15,389168349230616,19,27.6,-450.2304992675781,0.05480000376701355,0,0.0,0.0,,,,,0,,5,,
