# 
# Header Description:
# 
# Version: v2.0.0.1 Platform: 8.0.0 Manufacturer: Sony Model: G8142
# 
# Raw,ElapsedRealtimeMillis,TimeNanos,LeapSecond,TimeUncertaintyNanos,FullBiasNanos,BiasNanos,BiasUncertaintyNanos,DriftNanosPerSecond,DriftUncertaintyNanosPerSecond,HardwareClockDiscontinuityCount,Svid,TimeOffsetNanos,State,ReceivedSvTimeNanos,ReceivedSvTimeUncertaintyNanos,Cn0DbHz,PseudorangeRateMetersPerSecond,PseudorangeRateUncertaintyMetersPerSecond,AccumulatedDeltaRangeState,AccumulatedDeltaRangeMeters,AccumulatedDeltaRangeUncertaintyMeters,CarrierFrequencyHz,CarrierCycles,CarrierPhase,CarrierPhaseUncertainty,MultipathIndicator,SnrInDb,ConstellationType,AgcDb,CarrierFrequencyHz
# 
# Fix,Provider,Latitude,Longitude,Altitude,Speed,Accuracy,(UTC)TimeInMs
# 
# Nav,Svid,Type,Status,MessageId,Sub-messageId,Data(Bytes)
# 
Fix,gps,22.925485,120.294720,47.365295,0.000000,5.360000,1606997586000
NMEA,$GPGSA,A,1,,,,,,,,,,,,,1.5,1.2,0.8,1*22,1606997585441
NMEA,$GPVTG,,T,,M,0.0,N,0.0,K,A*23,1606997585441
NMEA,$GPRMC,121306.00,A,2255.529100,N,12017.683226,E,0.0,,031220,2.8,W,A*07,1606997585442
NMEA,$GPGGA,121306.00,2255.529100,N,12017.683226,E,1,00,1.2,29.9,M,17.5,M,,*58,1606997585442
Raw,27090567,27097111000000,,,-1291005707656670208,0.0,4169.648513197899,17.62530861667202,9.406008622117177,4683,2,0.0,207,54786688089388,12,32.8,-99.76693725585938,0.23340000212192535,0,0.0,0.0,,,,,0,,3,,
Raw,27090568,27097111000000,,,-1291005707656670208,0.0,4169.648513197899,17.62530861667202,9.406008622117177,4683,22,0.0,207,54786697440966,24,25.8,-699.8786010742188,0.4049000144004822,0,0.0,0.0,,,,,0,,3,,
Raw,27090568,27097111000000,,,-1291005707656670208,0.0,4169.648513197899,17.62530861667202,9.406008622117177,4683,12,0.0,207,54786687767704,11,33.1,-448.859619140625,0.22949999570846558,0,0.0,0.0,,,,,0,,3,,
Raw,27090568,27097111000000,,,-1291005707656670208,0.0,4169.648513197899,17.62530861667202,9.406008622117177,4683,1,0.0,207,54786691314280,24,25.4,448.4578857421875,0.39590001106262207,0,0.0,0.0,,,,,0,,3,,
Raw,27090568,27097111000000,,,-1291005707656670208,0.0,4169.648513197899,17.62530861667202,9.406008622117177,4683,8,0.0,207,54786688446750,19,27.1,600.7823486328125,0.27560001611709595,0,0.0,0.0,,,,,0,,3,,
Raw,27090568,27097111000000,,,-1291005707656670208,0.0,4169.648513197899,17.62530861667202,9.406008622117177,4683,4,0.0,15,389604696077142,14,30.6,244.43930053710938,0.05079999938607216,0,0.0,0.0,,,,,0,,1,,
Raw,27090569,27097111000000,,,-1291005707656670208,0.0,4169.648513197899,17.62530861667202,9.406008622117177,4683,7,0.0,15,389604684087773,11,33.5,-613.70458984375,0.02500000037252903,0,0.0,0.0,,,,,0,,1,,
Raw,27090569,27097111000000,,,-1291005707656670208,0.0,4169.648513197899,17.62530861667202,9.406008622117177,4683,8,0.0,15,389604699408940,12,32.1,-177.29586791992188,0.04990000277757645,0,0.0,0.0,,,,,0,,1,,
Raw,27090569,27097111000000,,,-1291005707656670208,0.0,4169.648513197899,17.62530861667202,9.406008622117177,4683,21,0.0,15,389604691716343,31,23.2,-576.0855712890625,0.7279999852180481,0,0.0,0.0,,,,,0,,1,,
Raw,27090569,27097111000000,,,-1291005707656670208,0.0,4169.648513197899,17.62530861667202,9.406008622117177,4683,27,0.0,15,389604699945586,27,24.3,277.4957580566406,0.6800000071525574,0,0.0,0.0,,,,,0,,1,,
Fix,gps,22.925485,120.294719,47.256592,0.000000,5.360000,1606997587000
NMEA,$GPGSV,3,1,10,04,48,244,31,07,09,317,34,08,64,241,32,11,00,000,37*76,1606997586446
NMEA,$GPGSV,3,2,10,21,22,174,23,27,69,015,24,16,39,029,,18,00,000,*7E,1606997586447
NMEA,$GPGSV,3,3,10,26,21,061,,31,15,125,*78,1606997586447
NMEA,$GLGSV,3,1,09,66,06,310,33,86,37,182,26,76,06,313,33,65,16,251,25*6C,1606997586448
NMEA,$GLGSV,3,2,09,72,08,209,27,74,33,068,,73,01,105,,84,21,030,*6E,1606997586448
NMEA,$GLGSV,3,3,09,85,70,092,*5D,1606997586448
NMEA,$GAGSV,1,1,0,*74,1606997586449
NMEA,$PQGSV,1,1,03,194,61,049,21,195,69,094,24,193,16,167,,0,5*69,1606997586449
NMEA,$PQGSV,1,1,0,*73,1606997586450
NMEA,$GNGSA,A,3,04,07,08,21,27,,,,,,,,1.5,1.2,0.8,1*33,1606997586452
NMEA,$GNGSA,A,3,65,66,72,76,86,,,,,,,,1.5,1.2,0.8,2*34,1606997586452
NMEA,$GNVTG,,T,,M,0.0,N,0.0,K,A*3D,1606997586453
NMEA,$GNRMC,121307.00,A,2255.529095,N,12017.683132,E,0.0,,031220,2.8,W,A*13,1606997586453
NMEA,$GNGGA,121307.00,2255.529095,N,12017.683132,E,1,10,1.2,29.8,M,17.5,M,,*4C,1606997586453
Raw,27091545,27098122000000,,,-1291005707655810048,0.0,4188.223276287317,18.875571152352755,11.611461409158368,4684,2,0.0,207,54787698229370,11,33.7,-98.9207763671875,0.2460000067949295,0,0.0,0.0,,,,,0,,3,,
Raw,27091546,27098122000000,,,-1291005707655810048,0.0,4188.223276287317,18.875571152352755,11.611461409158368,4684,22,0.0,207,54787707582957,46,20.9,-698.8577270507812,1.0419999361038208,0,0.0,0.0,,,,,0,,3,,
Raw,27091546,27098122000000,,,-1291005707655810048,0.0,4188.223276287317,18.875571152352755,11.611461409158368,4684,12,0.0,207,54787697908877,11,33.3,-448.189208984375,0.24449999630451202,0,0.0,0.0,,,,,0,,3,,
Raw,27091546,27098122000000,,,-1291005707655810048,0.0,4188.223276287317,18.875571152352755,11.611461409158368,4684,21,0.0,207,54787712836892,40,21.9,-32.6281852722168,0.9894999861717224,0,0.0,0.0,,,,,0,,3,,
Raw,27091546,27098122000000,,,-1291005707655810048,0.0,4188.223276287317,18.875571152352755,11.611461409158368,4684,8,0.0,207,54787698584353,13,31.5,601.3816528320312,0.2508000135421753,0,0.0,0.0,,,,,0,,3,,
Raw,27091546,27098122000000,,,-1291005707655810048,0.0,4188.223276287317,18.875571152352755,11.611461409158368,4684,1,0.0,15,389605693724622,35,22.0,-631.7464599609375,0.7910000085830688,0,0.0,0.0,,,,,0,,1,,
Raw,27091546,27098122000000,,,-1291005707655810048,0.0,4188.223276287317,18.875571152352755,11.611461409158368,4684,4,0.0,15,389605706215984,12,32.4,245.35984802246094,0.030400000512599945,0,0.0,0.0,,,,,0,,1,,
Raw,27091547,27098122000000,,,-1291005707655810048,0.0,4188.223276287317,18.875571152352755,11.611461409158368,4684,7,0.0,15,389605694229577,10,34.7,-612.9766845703125,0.038100000470876694,0,0.0,0.0,,,,,0,,1,,
Raw,27091547,27098122000000,,,-1291005707655810048,0.0,4188.223276287317,18.875571152352755,11.611461409158368,4684,8,0.0,15,389605709549269,11,33.2,-176.3518524169922,0.0325000025331974,0,0.0,0.0,,,,,0,,1,,
Raw,27091547,27098122000000,,,-1291005707655810048,0.0,4188.223276287317,18.875571152352755,11.611461409158368,4684,9,0.0,15,389605702081248,21,26.8,-143.16961669921875,0.1306999921798706,0,0.0,0.0,,,,,0,,1,,
Raw,27091547,27098122000000,,,-1291005707655810048,0.0,4188.223276287317,18.875571152352755,11.611461409158368,4684,27,0.0,15,389605710084449,35,22.5,278.8563537597656,0.7264999747276306,0,0.0,0.0,,,,,0,,1,,
Fix,gps,22.925485,120.294718,47.300232,0.000000,5.360000,1606997588000
NMEA,$GPGSV,3,1,11,01,02,189,22,04,48,244,32,07,09,317,35,08,64,241,33*73,1606997587447
NMEA,$GPGSV,3,2,11,09,30,291,27,11,00,000,37,27,69,015,23,16,39,029,*70,1606997587449
NMEA,$GPGSV,3,3,11,18,00,000,,26,21,061,,31,15,125,*40,1606997587449
NMEA,$GLGSV,2,1,08,66,06,310,34,86,37,182,21,76,06,313,33,85,70,092,22*68,1606997587450
NMEA,$GLGSV,2,2,08,72,08,209,32,74,33,068,,73,01,105,,84,21,030,*6A,1606997587450
NMEA,$GAGSV,1,1,0,*74,1606997587450
NMEA,$PQGSV,1,1,03,194,61,049,22,195,69,094,24,193,16,167,,0,5*6A,1606997587450
NMEA,$PQGSV,1,1,0,*73,1606997587451
NMEA,$GNGSA,A,3,04,07,08,09,27,,,,,,,,1.5,1.2,0.8,1*39,1606997587453
NMEA,$GNGSA,A,3,66,72,76,86,,,,,,,,,1.5,1.2,0.8,2*37,1606997587454
NMEA,$GNVTG,,T,,M,0.0,N,0.0,K,A*3D,1606997587454
NMEA,$GNRMC,121308.00,A,2255.529095,N,12017.683088,E,0.0,,031220,2.8,W,A*1C,1606997587454
NMEA,$GNGGA,121308.00,2255.529095,N,12017.683088,E,1,09,1.2,29.8,M,17.5,M,,*4B,1606997587454
Raw,27092548,27099114000000,,,-1291005707655041024,0.0,4195.238929241896,20.995701660614372,11.63783921560619,4685,2,0.0,207,54788689460789,11,33.7,-100.4980239868164,0.23250000178813934,0,0.0,0.0,,,,,0,,3,,
Raw,27092548,27099114000000,,,-1291005707655041024,0.0,4195.238929241896,20.995701660614372,11.63783921560619,4685,22,0.0,207,54788698816467,46,20.6,-699.9161987304688,1.0584999322891235,0,0.0,0.0,,,,,0,,3,,
Raw,27092548,27099114000000,,,-1291005707655041024,0.0,4195.238929241896,20.995701660614372,11.63783921560619,4685,12,0.0,207,54788689141452,11,33.9,-449.969482421875,0.23250000178813934,0,0.0,0.0,,,,,0,,3,,
Raw,27092549,27099114000000,,,-1291005707655041024,0.0,4195.238929241896,20.995701660614372,11.63783921560619,4685,21,0.0,207,54788704068237,46,20.3,-32.833744049072266,1.037500023841858,0,0.0,0.0,,,,,0,,3,,
Raw,27092549,27099114000000,,,-1291005707655041024,0.0,4195.238929241896,20.995701660614372,11.63783921560619,4685,8,0.0,207,54788689813416,11,33.6,599.6697998046875,0.23250000178813934,0,0.0,0.0,,,,,0,,3,,
Raw,27092549,27099114000000,,,-1291005707655041024,0.0,4195.238929241896,20.995701660614372,11.63783921560619,4685,4,0.0,15,389606697446243,12,32.0,243.6831512451172,0.04690000042319298,0,0.0,0.0,,,,,0,,1,,
Raw,27092549,27099114000000,,,-1291005707655041024,0.0,4195.238929241896,20.995701660614372,11.63783921560619,4685,7,0.0,15,389606685462580,9,35.5,-614.6984252929688,0.02250000089406967,0,0.0,0.0,,,,,0,,1,,
Raw,27092549,27099114000000,,,-1291005707655041024,0.0,4195.238929241896,20.995701660614372,11.63783921560619,4685,8,0.0,15,389606700780908,11,33.3,-177.99888610839844,0.049000002443790436,0,0.0,0.0,,,,,0,,1,,
Raw,27092549,27099114000000,,,-1291005707655041024,0.0,4195.238929241896,20.995701660614372,11.63783921560619,4685,9,0.0,15,389606693312743,21,26.4,-144.7484588623047,0.11719999462366104,0,0.0,0.0,,,,,0,,1,,
Raw,27092550,27099114000000,,,-1291005707655041024,0.0,4195.238929241896,20.995701660614372,11.63783921560619,4685,21,0.0,15,389606693090854,17,28.5,-577.701171875,0.06030000001192093,0,0.0,0.0,,,,,0,,1,,
Raw,27092550,27099114000000,,,-1291005707655041024,0.0,4195.238929241896,20.995701660614372,11.63783921560619,4685,27,0.0,15,389606701314500,31,23.3,276.74407958984375,0.7429999709129333,0,0.0,0.0,,,,,0,,1,,
Fix,gps,22.925485,120.294718,47.316772,0.000000,5.360000,1606997589000
NMEA,$GPGSV,3,1,11,04,48,244,32,07,09,317,36,08,64,241,33,09,30,291,26*77,1606997588452
NMEA,$GPGSV,3,2,11,11,00,000,37,21,22,174,29,27,69,015,23,16,39,029,*7F,1606997588453
NMEA,$GPGSV,3,3,11,18,00,000,,26,21,061,,31,15,125,*40,1606997588454
NMEA,$GLGSV,3,1,09,66,06,310,34,86,37,182,21,76,06,313,34,85,70,092,20*6D,1606997588456
NMEA,$GLGSV,3,2,09,72,08,209,34,74,33,068,,73,01,105,,65,16,250,*63,1606997588459
NMEA,$GLGSV,3,3,09,84,21,030,*50,1606997588461
NMEA,$GAGSV,1,1,0,*74,1606997588462
NMEA,$PQGSV,1,1,03,194,61,049,22,195,69,094,23,193,16,167,,0,5*6D,1606997588463
NMEA,$PQGSV,1,1,0,*73,1606997588464
NMEA,$GNGSA,A,3,04,07,08,09,21,27,,,,,,,1.5,1.2,0.8,1*3A,1606997588466
NMEA,$GNGSA,A,3,65,66,72,76,86,,,,,,,,1.5,1.2,0.8,2*34,1606997588468
NMEA,$GNVTG,,T,,M,0.0,N,0.0,K,A*3D,1606997588469
NMEA,$GNRMC,121309.00,A,2255.529093,N,12017.683064,E,0.0,,031220,2.8,W,A*19,1606997588469
NMEA,$GNGGA,121309.00,2255.529093,N,12017.683064,E,1,11,1.2,29.8,M,17.5,M,,*47,1606997588470
Raw,27093579,27100129000000,,,-1291005707654286848,0.0,4207.025747746229,15.336531291136977,10.748214927667835,4686,2,0.0,207,54789703706814,11,33.9,-100.96490478515625,0.22349999845027924,0,0.0,0.0,,,,,0,,3,,
Raw,27093580,27100129000000,,,-1291005707654286848,0.0,4207.025747746229,15.336531291136977,10.748214927667835,4686,12,0.0,207,54789703388700,12,32.7,-450.317626953125,0.22589999437332153,0,0.0,0.0,,,,,0,,3,,
Raw,27093581,27100129000000,,,-1291005707654286848,0.0,4207.025747746229,15.336531291136977,10.748214927667835,4686,8,0.0,207,54789704057106,35,22.9,598.669921875,0.9174999594688416,0,0.0,0.0,,,,,0,,3,,
Raw,27093582,27100129000000,,,-1291005707654286848,0.0,4207.025747746229,15.336531291136977,10.748214927667835,4686,1,0.0,15,389607699205654,31,23.2,-634.581787109375,0.7400000095367432,0,0.0,0.0,,,,,0,,1,,
Raw,27093583,27100129000000,,,-1291005707654286848,0.0,4207.025747746229,15.336531291136977,10.748214927667835,4686,4,0.0,15,389607711691146,13,31.3,243.50607299804688,0.040300000458955765,0,0.0,0.0,,,,,0,,1,,
Raw,27093583,27100129000000,,,-1291005707654286848,0.0,4207.025747746229,15.336531291136977,10.748214927667835,4686,7,0.0,15,389607699710331,10,34.2,-614.9347534179688,0.04560000076889992,0,0.0,0.0,,,,,0,,1,,
Raw,27093584,27100129000000,,,-1291005707654286848,0.0,4207.025747746229,15.336531291136977,10.748214927667835,4686,8,0.0,15,389607715027210,11,33.3,-178.4246368408203,0.04150000214576721,0,0.0,0.0,,,,,0,,1,,
Raw,27093585,27100129000000,,,-1291005707654286848,0.0,4207.025747746229,15.336531291136977,10.748214927667835,4686,9,0.0,15,389607707558941,16,29.8,-145.25885009765625,0.04020000249147415,0,0.0,0.0,,,,,0,,1,,
Raw,27093585,27100129000000,,,-1291005707654286848,0.0,4207.025747746229,15.336531291136977,10.748214927667835,4686,21,0.0,15,389607707338526,14,30.7,-578.2261962890625,0.037300001829862595,0,0.0,0.0,,,,,0,,1,,
Raw,27093586,27100129000000,,,-1291005707654286848,0.0,4207.025747746229,15.336531291136977,10.748214927667835,4686,27,0.0,15,389607715559339,31,23.8,276.6869812011719,0.6739999651908875,0,0.0,0.0,,,,,0,,1,,
Fix,gps,22.925485,120.294718,47.327087,0.000000,6.432000,1606997590000
NMEA,$GPGSV,3,1,12,01,02,189,23,04,48,244,31,07,09,317,34,08,64,241,33*73,1606997589448
NMEA,$GPGSV,3,2,12,09,30,291,30,11,00,000,37,21,22,174,31,27,69,015,24*77,1606997589448
NMEA,$GPGSV,3,3,12,16,39,029,,18,00,000,,26,21,061,,31,15,125,*75,1606997589448
NMEA,$GLGSV,2,1,07,66,06,310,34,76,06,313,33,72,08,209,23,74,33,068,*6E,1606997589449
NMEA,$GLGSV,2,2,07,73,01,105,,65,16,250,,84,21,030,*5C,1606997589450
NMEA,$GAGSV,1,1,0,*74,1606997589451
NMEA,$PQGSV,1,1,02,195,69,094,23,193,16,167,,0,5*6A,1606997589451
NMEA,$PQGSV,1,1,0,*73,1606997589451
NMEA,$GNGSA,A,3,04,07,08,09,21,27,,,,,,,1.5,1.2,0.8,1*3A,1606997589452
NMEA,$GNGSA,A,3,65,66,72,76,,,,,,,,,1.5,1.2,0.8,2*3A,1606997589453
NMEA,$GNVTG,,T,,M,0.0,N,0.0,K,A*3D,1606997589453
NMEA,$GNRMC,121310.00,A,2255.529091,N,12017.683051,E,0.0,,031220,2.8,W,A*15,1606997589453
NMEA,$GNGGA,121310.00,2255.529091,N,12017.683051,E,1,10,1.2,29.9,M,17.5,M,,*4B,1606997589453
Fix,gps,22.925485,120.294717,47.326904,0.000000,6.432000,1606997591000
NMEA,$GPGSA,A,1,,,,,,,,,,,,,1.5,1.2,0.8,1*22,1606997590441
NMEA,$GPVTG,,T,,M,0.0,N,0.0,K,A*23,1606997590441
NMEA,$GPRMC,121311.00,A,2255.529090,N,12017.683045,E,0.0,,031220,2.8,W,A*0E,1606997590441
NMEA,$GPGGA,121311.00,2255.529090,N,12017.683045,E,1,00,1.2,29.9,M,17.5,M,,*51,1606997590442
Raw,27095543,27101589000000,,,-1291005707653676544,0.0,74.25007061101496,10.189045672080095,7.166340556289063,4687,2,0.0,207,54791163097077,11,33.4,-103.32019805908203,0.2777000069618225,0,0.0,0.0,,,,,0,,3,,
Raw,27095544,27101589000000,,,-1291005707653676544,0.0,74.25007061101496,10.189045672080095,7.166340556289063,4687,22,0.0,207,54791172457747,21,26.9,-703.6714477539062,0.46869999170303345,0,0.0,0.0,,,,,0,,3,,
Raw,27095544,27101589000000,,,-1291005707653676544,0.0,74.25007061101496,10.189045672080095,7.166340556289063,4687,12,0.0,207,54791162780738,13,31.2,-453.21868896484375,0.288100004196167,0,0.0,0.0,,,,,0,,3,,
Raw,27095545,27101589000000,,,-1291005707653676544,0.0,74.25007061101496,10.189045672080095,7.166340556289063,4687,1,0.0,207,54791166313980,21,26.5,444.3673095703125,0.4597000181674957,0,0.0,0.0,,,,,0,,3,,
Raw,27095545,27101589000000,,,-1291005707653676544,0.0,74.25007061101496,10.189045672080095,7.166340556289063,4687,8,0.0,207,54791163444045,19,27.5,596.3524780273438,0.36820003390312195,0,0.0,0.0,,,,,0,,3,,
Raw,27095546,27101589000000,,,-1291005707653676544,0.0,74.25007061101496,10.189045672080095,7.166340556289063,4687,1,0.0,15,389609158598613,17,28.7,-636.7677001953125,0.12439999729394913,0,0.0,0.0,,,,,0,,1,,
Raw,27095546,27101589000000,,,-1291005707653676544,0.0,74.25007061101496,10.189045672080095,7.166340556289063,4687,4,0.0,15,389609171079797,10,34.4,240.6900177001953,0.05509999766945839,0,0.0,0.0,,,,,0,,1,,
Raw,27095547,27101589000000,,,-1291005707653676544,0.0,74.25007061101496,10.189045672080095,7.166340556289063,4687,7,0.0,15,389609159103194,10,34.6,-617.9782104492188,0.06710000336170197,0,0.0,0.0,,,,,0,,1,,
Raw,27095548,27101589000000,,,-1291005707653676544,0.0,74.25007061101496,10.189045672080095,7.166340556289063,4687,8,0.0,15,389609174417897,10,34.4,-180.9040069580078,0.05959999933838844,0,0.0,0.0,,,,,0,,1,,
Raw,27095548,27101589000000,,,-1291005707653676544,0.0,74.25007061101496,10.189045672080095,7.166340556289063,4687,9,0.0,15,389609166949451,17,28.8,-147.73399353027344,0.10639999806880951,0,0.0,0.0,,,,,0,,1,,
Raw,27095549,27101589000000,,,-1291005707653676544,0.0,74.25007061101496,10.189045672080095,7.166340556289063,4687,21,0.0,15,389609166731168,10,34.5,-580.855712890625,0.047599997371435165,0,0.0,0.0,,,,,0,,1,,
Raw,27095550,27101589000000,,,-1291005707653676544,0.0,74.25007061101496,10.189045672080095,7.166340556289063,4687,27,0.0,15,389609174947920,427,22.0,274.0799865722656,1.8875000476837158,0,0.0,0.0,,,,,0,,1,,
Fix,gps,22.925485,120.294718,47.345764,0.000000,6.432000,1606997592000
NMEA,$GPGSV,3,1,12,01,02,189,29,04,48,244,34,07,09,317,35,08,64,241,34*7A,1606997591445
NMEA,$GPGSV,3,2,12,09,30,291,29,11,00,000,32,21,22,174,35,27,69,015,22*78,1606997591450
NMEA,$GPGSV,3,3,12,16,39,029,,18,00,000,,26,21,061,,31,15,125,*75,1606997591450
NMEA,$GLGSV,3,1,09,66,06,310,33,86,37,182,27,76,06,313,31,65,16,250,27*6C,1606997591451
NMEA,$GLGSV,3,2,09,72,08,209,28,74,33,068,,73,01,105,,84,21,030,*61,1606997591451
NMEA,$GLGSV,3,3,09,85,70,092,*5D,1606997591451
NMEA,$GAGSV,1,1,0,*74,1606997591451
NMEA,$PQGSV,1,1,03,195,69,094,25,193,16,167,,194,61,049,,0,5*6B,1606997591452
NMEA,$PQGSV,1,1,0,*73,1606997591452
NMEA,$GNGSA,A,3,04,07,08,09,21,27,,,,,,,1.5,1.2,0.8,1*3A,1606997591453
NMEA,$GNGSA,A,3,65,66,72,76,86,,,,,,,,1.5,1.2,0.8,2*34,1606997591453
NMEA,$GNVTG,,T,,M,0.0,N,0.0,K,A*3D,1606997591453
NMEA,$GNRMC,121312.00,A,2255.529089,N,12017.683063,E,0.0,,031220,2.8,W,A*1F,1606997591454
NMEA,$GNGGA,121312.00,2255.529089,N,12017.683063,E,1,11,1.2,29.9,M,17.5,M,,*40,1606997591454
Raw,27096543,27103213000000,,,-1291005707653261824,0.0,4380.401223897934,4.6034743769428355,14.77888976607825,4688,2,0.0,207,54792786683154,10,34.5,-103.81644439697266,0.2476000040769577,0,0.0,0.0,,,,,0,,3,,
Raw,27096544,27103213000000,,,-1291005707653261824,0.0,4380.401223897934,4.6034743769428355,14.77888976607825,4688,22,0.0,207,54792796047119,27,24.1,-704.3560180664062,0.8255000114440918,0,0.0,0.0,,,,,0,,3,,
Raw,27096544,27103213000000,,,-1291005707653261824,0.0,4380.401223897934,4.6034743769428355,14.77888976607825,4688,12,0.0,207,54792786368656,17,28.8,-453.875732421875,0.30640000104904175,0,0.0,0.0,,,,,0,,3,,
Raw,27096545,27103213000000,,,-1291005707653261824,0.0,4380.401223897934,4.6034743769428355,14.77888976607825,4688,1,0.0,207,54792789897262,24,25.5,443.85906982421875,1.374000072479248,0,0.0,0.0,,,,,0,,3,,
Raw,27096545,27103213000000,,,-1291005707653261824,0.0,4380.401223897934,4.6034743769428355,14.77888976607825,4688,8,0.0,207,54792787026223,19,27.2,595.7208251953125,0.3742000162601471,0,0.0,0.0,,,,,0,,3,,
Raw,27096546,27103213000000,,,-1291005707653261824,0.0,4380.401223897934,4.6034743769428355,14.77888976607825,4688,1,0.0,15,389610782187632,19,27.6,-637.5820922851562,0.19670000672340393,0,0.0,0.0,,,,,0,,1,,
Raw,27096546,27103213000000,,,-1291005707653261824,0.0,4380.401223897934,4.6034743769428355,14.77888976607825,4688,4,0.0,15,389610794664018,10,34.1,240.22073364257812,0.05959999933838844,0,0.0,0.0,,,,,0,,1,,
Raw,27096547,27103213000000,,,-1291005707653261824,0.0,4380.401223897934,4.6034743769428355,14.77888976607825,4688,7,0.0,15,389610782692131,13,31.2,-618.5835571289062,0.05810000002384186,0,0.0,0.0,,,,,0,,1,,
Raw,27096548,27103213000000,,,-1291005707653261824,0.0,4380.401223897934,4.6034743769428355,14.77888976607825,4688,8,0.0,15,389610798004424,9,35.0,-181.40701293945312,0.061500001698732376,0,0.0,0.0,,,,,0,,1,,
Raw,27096548,27103213000000,,,-1291005707653261824,0.0,4380.401223897934,4.6034743769428355,14.77888976607825,4688,9,0.0,15,389610790535745,14,30.5,-148.21788024902344,0.07850000262260437,0,0.0,0.0,,,,,0,,1,,
Raw,27096549,27103213000000,,,-1291005707653261824,0.0,4380.401223897934,4.6034743769428355,14.77888976607825,4688,21,0.0,15,389610790319882,17,28.9,-581.4334106445312,0.11240000277757645,0,0.0,0.0,,,,,0,,1,,
Fix,gps,22.925485,120.294718,47.358765,0.000000,7.504000,1606997593000
NMEA,$GPGSV,3,1,12,01,02,189,28,04,48,244,34,07,09,317,31,08,64,241,35*7E,1606997592445
NMEA,$GPGSV,3,2,12,09,30,291,31,11,00,000,32,21,22,174,29,27,69,015,22*7C,1606997592446
NMEA,$GPGSV,3,3,12,16,39,029,,18,00,000,,26,21,061,,31,15,125,*75,1606997592447
NMEA,$GLGSV,3,1,09,66,06,310,35,86,37,182,24,76,06,313,29,65,16,250,26*61,1606997592447
NMEA,$GLGSV,3,2,09,72,08,209,27,74,33,068,,73,01,105,,84,21,030,*6E,1606997592448
NMEA,$GLGSV,3,3,09,85,70,092,*5D,1606997592448
NMEA,$GAGSV,1,1,0,*74,1606997592449
NMEA,$PQGSV,1,1,02,194,61,049,23,193,16,167,,0,5*63,1606997592449
NMEA,$PQGSV,1,1,0,*73,1606997592449
NMEA,$GNGSA,A,3,04,07,08,09,21,27,,,,,,,1.5,1.2,0.8,1*3A,1606997592450
NMEA,$GNGSA,A,3,65,66,72,76,86,,,,,,,,1.5,1.2,0.8,2*34,1606997592450
NMEA,$GNVTG,,T,,M,0.0,N,0.0,K,A*3D,1606997592451
NMEA,$GNRMC,121313.00,A,2255.529086,N,12017.683069,E,0.0,,031220,2.8,W,A*1B,1606997592454
NMEA,$GNGGA,121313.00,2255.529086,N,12017.683069,E,1,11,1.2,29.9,M,17.5,M,,*44,1606997592455
Raw,27097544,27104226000000,,,-1291005707652530176,0.0,4281.811416149139,2.7507022782097255,7.2439319300855445,4689,2,0.0,207,54793798951530,11,33.2,-103.88191223144531,0.2702000141143799,0,0.0,0.0,,,,,0,,3,,
Raw,27097544,27104226000000,,,-1291005707652530176,0.0,4281.811416149139,2.7507022782097255,7.2439319300855445,4689,22,0.0,207,54793808317512,27,24.7,-703.9063720703125,0.8134999871253967,0,0.0,0.0,,,,,0,,3,,
Raw,27097545,27104226000000,,,-1291005707652530176,0.0,4281.811416149139,2.7507022782097255,7.2439319300855445,4689,12,0.0,207,54793798638270,14,30.5,-454.2524108886719,0.2904999852180481,0,0.0,0.0,,,,,0,,3,,
Raw,27097546,27104226000000,,,-1291005707652530176,0.0,4281.811416149139,2.7507022782097255,7.2439319300855445,4689,1,0.0,207,54793802163749,19,27.5,443.7882995605469,0.39670002460479736,0,0.0,0.0,,,,,0,,3,,
Raw,27097546,27104226000000,,,-1291005707652530176,0.0,4281.811416149139,2.7507022782097255,7.2439319300855445,4689,8,0.0,207,54793799292348,16,29.1,595.4470825195312,0.3028999865055084,0,0.0,0.0,,,,,0,,3,,
Raw,27097547,27104226000000,,,-1291005707652530176,0.0,4281.811416149139,2.7507022782097255,7.2439319300855445,4689,1,0.0,15,389611794457832,19,27.8,-637.791748046875,0.18470001220703125,0,0.0,0.0,,,,,0,,1,,
Raw,27097547,27104226000000,,,-1291005707652530176,0.0,4281.811416149139,2.7507022782097255,7.2439319300855445,4689,4,0.0,15,389611806931274,10,34.3,240.09999084472656,0.047599997371435165,0,0.0,0.0,,,,,0,,1,,
Raw,27097548,27104226000000,,,-1291005707652530176,0.0,4281.811416149139,2.7507022782097255,7.2439319300855445,4689,7,0.0,15,389611794962226,11,33.7,-618.902587890625,0.0642000064253807,0,0.0,0.0,,,,,0,,1,,
Raw,27097548,27104226000000,,,-1291005707652530176,0.0,4281.811416149139,2.7507022782097255,7.2439319300855445,4689,8,0.0,15,389611810273079,8,36.6,-181.5923614501953,0.045499999076128006,0,0.0,0.0,,,,,0,,1,,
Raw,27097549,27104226000000,,,-1291005707652530176,0.0,4281.811416149139,2.7507022782097255,7.2439319300855445,4689,9,0.0,15,389611802804351,16,29.9,-148.2874298095703,0.07739999890327454,0,0.0,0.0,,,,,0,,1,,
Raw,27097550,27104226000000,,,-1291005707652530176,0.0,4281.811416149139,2.7507022782097255,7.2439319300855445,4689,21,0.0,15,389611802589885,16,29.7,-581.6639404296875,0.07739999890327454,0,0.0,0.0,,,,,0,,1,,
Fix,gps,22.925485,120.294718,47.374817,0.000000,7.504000,1606997594000
NMEA,$GPGSV,3,1,12,01,02,189,28,04,48,244,34,07,09,317,34,08,64,241,37*79,1606997593445
NMEA,$GPGSV,3,2,12,09,30,291,30,11,00,000,32,21,22,174,30,16,39,029,*7D,1606997593445
NMEA,$GPGSV,3,3,12,18,00,000,,26,21,061,,27,69,015,,31,15,125,*7D,1606997593446
NMEA,$GLGSV,3,1,09,66,06,310,33,86,37,182,25,76,06,313,31,65,16,250,28*61,1606997593447
NMEA,$GLGSV,3,2,09,72,08,209,29,74,33,068,,73,01,105,,84,21,030,*60,1606997593447
NMEA,$GLGSV,3,3,09,85,70,092,*5D,1606997593448
NMEA,$GAGSV,1,1,0,*74,1606997593448
NMEA,$PQGSV,1,1,02,195,69,094,25,193,16,167,,0,5*6C,1606997593448
NMEA,$PQGSV,1,1,0,*73,1606997593448
NMEA,$GNGSA,A,3,04,07,08,09,21,27,,,,,,,1.5,1.2,0.8,1*3A,1606997593449
NMEA,$GNGSA,A,3,65,66,72,76,86,,,,,,,,1.5,1.2,0.8,2*34,1606997593450
NMEA,$GNVTG,,T,,M,0.0,N,0.0,K,A*3D,1606997593450
NMEA,$GNRMC,121314.00,A,2255.529082,N,12017.683070,E,0.0,,031220,2.8,W,A*10,1606997593450
NMEA,$GNGGA,121314.00,2255.529082,N,12017.683070,E,1,11,1.2,29.9,M,17.5,M,,*4F,1606997593450
Fix,gps,22.925485,120.294718,47.380066,0.000000,7.504000,1606997595000
NMEA,$GPGSV,3,1,12,01,02,189,28,04,48,244,30,07,09,317,34,08,64,241,36*7C,1606997594444
NMEA,$GPGSV,3,2,12,09,30,291,29,11,00,000,32,21,22,174,35,16,39,029,*70,1606997594444
NMEA,$GPGSV,3,3,12,18,00,000,,26,21,061,,27,69,015,,31,15,125,*7D,1606997594444
Raw,27098651,27105217000000,,,-1291005707651806464,0.0,4336.298443377018,1.716008405235503,8.811607721466578,4690,2,0.0,207,54794789228450,11,33.7,-103.57049560546875,0.2567000091075897,0,0.0,0.0,,,,,0,,3,,
Raw,27098654,27105217000000,,,-1291005707651806464,0.0,4336.298443377018,1.716008405235503,8.811607721466578,4690,22,0.0,207,54794798596366,17,28.6,-703.9868774414062,0.3243999779224396,0,0.0,0.0,,,,,0,,3,,
Raw,27098656,27105217000000,,,-1291005707651806464,0.0,4336.298443377018,1.716008405235503,8.811607721466578,4690,12,0.0,207,54794788916298,19,27.9,-453.97412109375,0.3757000267505646,0,0.0,0.0,,,,,0,,3,,
Raw,27098659,27105217000000,,,-1291005707651806464,0.0,4336.298443377018,1.716008405235503,8.811607721466578,4690,8,0.0,207,54794789566952,16,29.9,595.6643676757812,0.28790000081062317,0,0.0,0.0,,,,,0,,3,,
Raw,27098661,27105217000000,,,-1291005707651806464,0.0,4336.298443377018,1.716008405235503,8.811607721466578,4690,1,0.0,15,389612784736488,17,28.4,-637.5469970703125,0.10339999943971634,0,0.0,0.0,,,,,0,,1,,
Raw,27098663,27105217000000,,,-1291005707651806464,0.0,4336.298443377018,1.716008405235503,8.811607721466578,4690,4,0.0,15,389612797207008,14,30.0,240.39353942871094,0.08900000154972076,0,0.0,0.0,,,,,0,,1,,
Raw,27098666,27105217000000,,,-1291005707651806464,0.0,4336.298443377018,1.716008405235503,8.811607721466578,4690,7,0.0,15,389612785240823,10,34.0,-618.714111328125,0.04609999805688858,0,0.0,0.0,,,,,0,,1,,
Raw,27098670,27105217000000,,,-1291005707651806464,0.0,4336.298443377018,1.716008405235503,8.811607721466578,4690,8,0.0,15,389612800550199,9,35.8,-181.21282958984375,0.06450000405311584,0,0.0,0.0,,,,,0,,1,,
Raw,27098672,27105217000000,,,-1291005707651806464,0.0,4336.298443377018,1.716008405235503,8.811607721466578,4690,9,0.0,15,389612793081428,17,28.8,-148.15249633789062,0.1168999969959259,0,0.0,0.0,,,,,0,,1,,
Raw,27098675,27105217000000,,,-1291005707651806464,0.0,4336.298443377018,1.716008405235503,8.811607721466578,4690,21,0.0,15,389612792868364,10,34.9,-581.4046020507812,0.05660000070929527,0,0.0,0.0,,,,,0,,1,,
NMEA,$GLGSV,2,1,08,66,06,310,34,86,37,182,29,76,06,313,28,72,08,209,30*6E,1606997594444
NMEA,$GLGSV,2,2,08,74,33,068,,73,01,105,,84,21,030,,85,70,092,*6C,1606997594444
NMEA,$GAGSV,1,1,0,*74,1606997594444
NMEA,$PQGSV,1,1,03,195,69,094,25,193,16,167,,194,61,049,,0,5*6B,1606997594445
NMEA,$PQGSV,1,1,0,*73,1606997594445
NMEA,$GNGSA,A,3,04,07,08,09,21,27,,,,,,,1.5,1.2,0.8,1*3A,1606997594446
NMEA,$GNGSA,A,3,66,72,76,86,,,,,,,,,1.5,1.2,0.8,2*37,1606997594446
NMEA,$GNVTG,,T,,M,0.0,N,0.0,K,A*3D,1606997594446
NMEA,$GNRMC,121315.00,A,2255.529078,N,12017.683073,E,0.0,,031220,2.8,W,A*17,1606997594447
NMEA,$GNGGA,121315.00,2255.529078,N,12017.683073,E,1,10,1.2,29.9,M,17.5,M,,*49,1606997594447
Fix,gps,22.925485,120.294718,47.379822,0.000000,7.504000,1606997596000
NMEA,$GPGSA,A,1,,,,,,,,,,,,,1.5,1.2,0.8,1*22,1606997595442
NMEA,$GPVTG,,T,,M,0.0,N,0.0,K,A*23,1606997595443
NMEA,$GPRMC,121316.00,A,2255.529077,N,12017.683074,E,0.0,,031220,2.8,W,A*02,1606997595443
NMEA,$GPGGA,121316.00,2255.529077,N,12017.683074,E,1,00,1.2,29.9,M,17.5,M,,*5D,1606997595444
Raw,27100571,27107123000000,,,-1291005707651106048,0.0,4247.316159307957,6.065360197321536,8.103341191481084,4691,2,0.0,207,54796694528571,11,33.8,-101.05979919433594,0.24000000953674316,0,0.0,0.0,,,,,0,,3,,
Raw,27100571,27107123000000,,,-1291005707651106048,0.0,4247.316159307957,6.065360197321536,8.103341191481084,4691,22,0.0,207,54796703900082,27,24.7,-701.0963745117188,0.8059999942779541,0,0.0,0.0,,,,,0,,3,,
Raw,27100572,27107123000000,,,-1291005707651106048,0.0,4247.316159307957,6.065360197321536,8.103341191481084,4691,12,0.0,207,54796694218738,21,26.0,-451.7958068847656,0.31870001554489136,0,0.0,0.0,,,,,0,,3,,
Raw,27100572,27107123000000,,,-1291005707651106048,0.0,4247.316159307957,6.065360197321536,8.103341191481084,4691,1,0.0,207,54796697735276,40,21.0,446.6312561035156,0.996999979019165,0,0.0,0.0,,,,,0,,3,,
Raw,27100573,27107123000000,,,-1291005707651106048,0.0,4247.316159307957,6.065360197321536,8.103341191481084,4691,8,0.0,207,54796694862599,16,29.1,597.7918701171875,0.2506999969482422,0,0.0,0.0,,,,,0,,3,,
Raw,27100573,27107123000000,,,-1291005707651106048,0.0,4247.316159307957,6.065360197321536,8.103341191481084,4691,4,0.0,15,389614702504919,14,30.2,242.89308166503906,0.02979999966919422,0,0.0,0.0,,,,,0,,1,,
Raw,27100574,27107123000000,,,-1291005707651106048,0.0,4247.316159307957,6.065360197321536,8.103341191481084,4691,7,0.0,15,389614690544234,6,38.6,-616.448974609375,0.026200000196695328,0,0.0,0.0,,,,,0,,1,,
Raw,27100574,27107123000000,,,-1291005707651106048,0.0,4247.316159307957,6.065360197321536,8.103341191481084,4691,8,0.0,15,389614705850803,6,38.4,-178.76771545410156,0.018699999898672104,0,0.0,0.0,,,,,0,,1,,
Raw,27100575,27107123000000,,,-1291005707651106048,0.0,4247.316159307957,6.065360197321536,8.103341191481084,4691,9,0.0,15,389614698381778,21,26.0,-145.46347045898438,0.12469999492168427,0,0.0,0.0,,,,,0,,1,,
Raw,27100575,27107123000000,,,-1291005707651106048,0.0,4247.316159307957,6.065360197321536,8.103341191481084,4691,27,0.0,15,389614706372347,40,21.5,276.2873840332031,0.7804999947547913,0,0.0,0.0,,,,,0,,1,,
Fix,gps,22.925485,120.294718,47.394287,0.000000,7.504000,1606997597000
NMEA,$GPGSV,3,1,10,04,48,244,30,07,09,317,39,08,64,241,38,09,30,291,26*70,1606997596454
NMEA,$GPGSV,3,2,10,11,00,000,32,27,69,015,22,16,39,029,,18,00,000,*79,1606997596454
NMEA,$GPGSV,3,3,10,26,21,061,,31,15,125,*78,1606997596455
NMEA,$GLGSV,3,1,09,66,06,310,34,86,37,182,25,76,06,313,26,65,16,250,21*69,1606997596456
NMEA,$GLGSV,3,2,09,72,08,209,29,74,33,068,,73,01,105,,84,21,030,*60,1606997596456
NMEA,$GLGSV,3,3,09,85,70,092,*5D,1606997596458
NMEA,$GAGSV,1,1,0,*74,1606997596459
NMEA,$PQGSV,1,1,03,195,69,094,24,193,16,167,,194,61,049,,0,5*6A,1606997596460
NMEA,$PQGSV,1,1,0,*73,1606997596461
NMEA,$GNGSA,A,3,04,07,08,09,27,,,,,,,,1.5,1.2,0.8,1*39,1606997596463
NMEA,$GNGSA,A,3,65,66,72,76,86,,,,,,,,1.5,1.2,0.8,2*34,1606997596464
NMEA,$GNVTG,,T,,M,0.0,N,0.0,K,A*3D,1606997596465
NMEA,$GNRMC,121317.00,A,2255.529074,N,12017.683075,E,0.0,,031220,2.8,W,A*1F,1606997596465
NMEA,$GNGGA,121317.00,2255.529074,N,12017.683075,E,1,10,1.2,29.9,M,17.5,M,,*41,1606997596466
Raw,27101571,27108116000000,,,-1291005707650324480,0.0,4263.909999281168,9.756944468790353,10.062402298648568,4692,2,0.0,207,54797686747387,10,34.2,-100.16934967041016,0.22609999775886536,0,0.0,0.0,,,,,0,,3,,
Raw,27101572,27108116000000,,,-1291005707650324480,0.0,4263.909999281168,9.756944468790353,10.062402298648568,4692,22,0.0,207,54797696120781,31,23.1,-699.8599853515625,0.875499963760376,0,0.0,0.0,,,,,0,,3,,
Raw,27101573,27108116000000,,,-1291005707650324480,0.0,4263.909999281168,9.756944468790353,10.062402298648568,4692,12,0.0,207,54797686438800,21,26.3,-451.1080017089844,0.3067000210285187,0,0.0,0.0,,,,,0,,3,,
Raw,27101573,27108116000000,,,-1291005707650324480,0.0,4263.909999281168,9.756944468790353,10.062402298648568,4692,1,0.0,207,54797689952458,21,26.8,447.1661071777344,0.31120002269744873,0,0.0,0.0,,,,,0,,3,,
Raw,27101574,27108116000000,,,-1291005707650324480,0.0,4263.909999281168,9.756944468790353,10.062402298648568,4692,8,0.0,207,54797687079110,11,33.7,598.4956665039062,0.22949999570846558,0,0.0,0.0,,,,,0,,3,,
Raw,27101575,27108116000000,,,-1291005707650324480,0.0,4263.909999281168,9.756944468790353,10.062402298648568,4692,4,0.0,15,389615694722598,14,30.6,243.7275848388672,0.04780000075697899,0,0.0,0.0,,,,,0,,1,,
Raw,27101575,27108116000000,,,-1291005707650324480,0.0,4263.909999281168,9.756944468790353,10.062402298648568,4692,7,0.0,15,389615682764772,7,37.5,-615.7288208007812,0.015599999576807022,0,0.0,0.0,,,,,0,,1,,
Raw,27101576,27108116000000,,,-1291005707650324480,0.0,4263.909999281168,9.756944468790353,10.062402298648568,4692,8,0.0,15,389615698069849,8,36.4,-177.93458557128906,0.04100000113248825,0,0.0,0.0,,,,,0,,1,,
Raw,27101577,27108116000000,,,-1291005707650324480,0.0,4263.909999281168,9.756944468790353,10.062402298648568,4692,9,0.0,15,389615690600687,16,29.6,-144.60084533691406,0.04470000043511391,0,0.0,0.0,,,,,0,,1,,
Raw,27101578,27108116000000,,,-1291005707650324480,0.0,4263.909999281168,9.756944468790353,10.062402298648568,4692,27,0.0,15,389615698589953,35,22.6,276.8772888183594,0.7384999990463257,0,0.0,0.0,,,,,0,,1,,
Fix,gps,22.925485,120.294718,47.395569,0.000000,7.504000,1606997598000
NMEA,$GPGSV,3,1,12,04,48,244,31,07,09,317,38,08,64,241,36,09,30,291,30*7B,1606997597453
NMEA,$GPGSV,3,2,12,11,00,000,32,27,69,015,23,01,02,189,,16,39,029,*70,1606997597454
NMEA,$GPGSV,3,3,12,18,00,000,,21,22,174,,26,21,061,,31,15,125,*72,1606997597460
NMEA,$GLGSV,3,1,09,66,06,310,34,86,37,182,23,76,06,313,26,65,16,250,27*69,1606997597461
NMEA,$GLGSV,3,2,09,72,08,209,34,74,33,068,,73,01,105,,84,21,030,*6C,1606997597462
NMEA,$GLGSV,3,3,09,85,70,092,*5D,1606997597462
NMEA,$GAGSV,1,1,0,*74,1606997597463
NMEA,$PQGSV,1,1,03,194,61,049,21,195,69,094,25,193,16,167,,0,5*68,1606997597466
NMEA,$PQGSV,1,1,0,*73,1606997597467
NMEA,$GNGSA,A,3,04,07,08,09,21,27,,,,,,,1.5,1.2,0.8,1*3A,1606997597468
NMEA,$GNGSA,A,3,65,66,72,76,86,,,,,,,,1.5,1.2,0.8,2*34,1606997597469
NMEA,$GNVTG,,T,,M,0.0,N,0.0,K,A*3D,1606997597469
NMEA,$GNRMC,121318.00,A,2255.529072,N,12017.683075,E,0.0,,031220,2.8,W,A*16,1606997597469
NMEA,$GNGGA,121318.00,2255.529072,N,12017.683075,E,1,11,1.2,29.9,M,17.5,M,,*49,1606997597469
Raw,27102539,27109129000000,,,-1291005707649365248,0.0,4262.072965502739,12.111356947001022,9.990637932445043,4693,2,0.0,207,54798698788545,10,34.5,-102.11190032958984,0.24410000443458557,0,0.0,0.0,,,,,0,,3,,
Raw,27102540,27109129000000,,,-1291005707649365248,0.0,4262.072965502739,12.111356947001022,9.990637932445043,4693,22,0.0,207,54798708164097,46,20.9,-703.147705078125,1.0434999465942383,0,0.0,0.0,,,,,0,,3,,
Raw,27102540,27109129000000,,,-1291005707649365248,0.0,4262.072965502739,12.111356947001022,9.990637932445043,4693,12,0.0,207,54798698481179,27,24.2,-453.1226806640625,0.8285000324249268,0,0.0,0.0,,,,,0,,3,,
Raw,27102541,27109129000000,,,-1291005707649365248,0.0,4262.072965502739,12.111356947001022,9.990637932445043,4693,8,0.0,207,54798699117879,16,29.6,596.4569091796875,0.2582000195980072,0,0.0,0.0,,,,,0,,3,,
Raw,27102541,27109129000000,,,-1291005707649365248,0.0,4262.072965502739,12.111356947001022,9.990637932445043,4693,4,0.0,15,389616706762557,14,30.3,241.72520446777344,0.03579999879002571,0,0.0,0.0,,,,,0,,1,,
Raw,27102542,27109129000000,,,-1291005707649365248,0.0,4262.072965502739,12.111356947001022,9.990637932445043,4693,7,0.0,15,389616694807632,6,38.0,-617.8033447265625,0.03220000118017197,0,0.0,0.0,,,,,0,,1,,
Raw,27102542,27109129000000,,,-1291005707649365248,0.0,4262.072965502739,12.111356947001022,9.990637932445043,4693,8,0.0,15,389616710111274,8,36.6,-179.87176513671875,0.029000001028180122,0,0.0,0.0,,,,,0,,1,,
Raw,27102542,27109129000000,,,-1291005707649365248,0.0,4262.072965502739,12.111356947001022,9.990637932445043,4693,9,0.0,15,389616702641991,12,32.2,-146.57449340820312,0.024399999529123306,0,0.0,0.0,,,,,0,,1,,
Raw,27102543,27109129000000,,,-1291005707649365248,0.0,4262.072965502739,12.111356947001022,9.990637932445043,4693,27,0.0,15,389616710629716,24,25.6,275.0006103515625,0.19439999759197235,0,0.0,0.0,,,,,0,,1,,
Fix,gps,22.925485,120.294718,47.398254,0.000000,6.432000,1606997599000
NMEA,$GPGSV,3,1,12,04,48,244,30,07,09,317,38,08,64,241,37,09,30,291,32*79,1606997598452
NMEA,$GPGSV,3,2,12,11,00,000,32,27,69,015,26,01,02,189,,16,39,029,*75,1606997598453
NMEA,$GPGSV,3,3,12,18,00,000,,21,22,174,,26,21,061,,31,15,125,*72,1606997598456
NMEA,$GLGSV,2,1,08,66,06,310,35,86,37,182,21,76,06,313,24,72,08,209,30*6B,1606997598457
NMEA,$GLGSV,2,2,08,74,33,068,,73,01,105,,84,21,030,,85,70,092,*6C,1606997598458
NMEA,$GAGSV,1,1,0,*74,1606997598459
NMEA,$PQGSV,1,1,02,195,69,094,26,193,16,167,,0,5*6F,1606997598460
NMEA,$PQGSV,1,1,0,*73,1606997598461
NMEA,$GNGSA,A,3,04,07,08,09,21,27,,,,,,,1.5,1.2,0.8,1*3A,1606997598468
NMEA,$GNGSA,A,3,66,72,76,86,,,,,,,,,1.5,1.2,0.8,2*37,1606997598469
NMEA,$GNVTG,,T,,M,0.0,N,0.0,K,A*3D,1606997598469
NMEA,$GNRMC,121319.00,A,2255.529071,N,12017.683075,E,0.0,,031220,2.8,W,A*14,1606997598469
NMEA,$GNGGA,121319.00,2255.529071,N,12017.683075,E,1,10,1.2,29.9,M,17.5,M,,*4A,1606997598469
Raw,27103571,27110122000000,,,-1291005707648745984,0.0,4244.2516423761845,5.00803149745951,8.761607749530343,4694,2,0.0,207,54799691169387,12,32.9,-103.4239273071289,0.2379000037908554,0,0.0,0.0,,,,,0,,3,,
Raw,27103574,27110122000000,,,-1291005707648745984,0.0,4244.2516423761845,5.00803149745951,8.761607749530343,4694,1,0.0,207,54799694370889,27,24.2,443.74102783203125,0.8224999904632568,0,0.0,0.0,,,,,0,,3,,
Raw,27103577,27110122000000,,,-1291005707648745984,0.0,4244.2516423761845,5.00803149745951,8.761607749530343,4694,8,0.0,207,54799691496385,13,31.5,595.0523681640625,0.2403000146150589,0,0.0,0.0,,,,,0,,3,,
Raw,27103579,27110122000000,,,-1291005707648745984,0.0,4244.2516423761845,5.00803149745951,8.761607749530343,4694,1,0.0,15,389617686685960,31,23.6,-637.9024047851562,0.6604999899864197,0,0.0,0.0,,,,,0,,1,,
Raw,27103582,27110122000000,,,-1291005707648745984,0.0,4244.2516423761845,5.00803149745951,8.761607749530343,4694,4,0.0,15,389617699142232,14,30.3,240.4764404296875,0.05530000105500221,0,0.0,0.0,,,,,0,,1,,
Raw,27103584,27110122000000,,,-1291005707648745984,0.0,4244.2516423761845,5.00803149745951,8.761607749530343,4694,7,0.0,15,389617687190171,6,38.2,-619.2576904296875,0.021700000390410423,0,0.0,0.0,,,,,0,,1,,
Raw,27103586,27110122000000,,,-1291005707648745984,0.0,4244.2516423761845,5.00803149745951,8.761607749530343,4694,8,0.0,15,389617702492329,8,36.1,-181.1822967529297,0.017000000923871994,0,0.0,0.0,,,,,0,,1,,
Raw,27103588,27110122000000,,,-1291005707648745984,0.0,4244.2516423761845,5.00803149745951,8.761607749530343,4694,9,0.0,15,389617695023010,19,27.8,-147.84385681152344,0.0861000046133995,0,0.0,0.0,,,,,0,,1,,
Raw,27103591,27110122000000,,,-1291005707648745984,0.0,4244.2516423761845,5.00803149745951,8.761607749530343,4694,27,0.0,15,389617703009289,21,26.3,273.7462158203125,0.1021999940276146,0,0.0,0.0,,,,,0,,1,,
Fix,gps,22.925485,120.294718,47.397522,0.000000,6.432000,1606997600000
NMEA,$GPGSV,3,1,12,01,02,189,24,04,48,244,30,07,09,317,38,08,64,241,36*7C,1606997599451
NMEA,$GPGSV,3,2,12,09,30,291,28,11,00,000,32,27,69,015,26,16,39,029,*7C,1606997599452
NMEA,$GPGSV,3,3,12,18,00,000,,21,22,174,,26,21,061,,31,15,125,*72,1606997599453
NMEA,$GLGSV,2,1,07,66,06,310,33,65,16,250,24,72,08,209,32,74,33,068,*6A,1606997599453
NMEA,$GLGSV,2,2,07,73,01,105,,84,21,030,,85,70,092,*5E,1606997599454
NMEA,$GAGSV,1,1,0,*74,1606997599458
NMEA,$PQGSV,1,1,03,195,69,094,26,193,16,167,,194,61,049,,0,5*68,1606997599460
NMEA,$PQGSV,1,1,0,*73,1606997599461
NMEA,$GNGSA,A,3,04,07,08,09,21,27,,,,,,,1.5,1.2,0.8,1*3A,1606997599463
NMEA,$GNGSA,A,2,65,66,72,,,,,,,,,,1.5,1.2,0.8,2*3A,1606997599464
NMEA,$GNVTG,,T,,M,0.0,N,0.0,K,A*3D,1606997599464
NMEA,$GNRMC,121320.00,A,2255.529070,N,12017.683074,E,0.0,,031220,2.8,W,A*1E,1606997599465
NMEA,$GNGGA,121320.00,2255.529070,N,12017.683074,E,1,09,1.2,29.9,M,17.5,M,,*48,1606997599466
Fix,gps,22.925485,120.294718,47.397339,0.000000,6.432000,1606997601000
NMEA,$GPGSA,A,1,,,,,,,,,,,,,1.5,1.2,0.8,1*22,1606997600442
NMEA,$GPVTG,,T,,M,0.0,N,0.0,K,A*23,1606997600443
NMEA,$GPRMC,121321.00,A,2255.529070,N,12017.683074,E,0.0,,031220,2.8,W,A*01,1606997600443
NMEA,$GPGGA,121321.00,2255.529070,N,12017.683074,E,1,00,1.2,29.9,M,17.5,M,,*5E,1606997600444
Raw,27105579,27111787000000,,,-1291005707647972352,0.0,69.04125621076673,7.51323320566422,13.870632096414361,4695,2,0.0,207,54801355396759,13,31.2,-101.97994995117188,0.24469999969005585,0,0.0,0.0,,,,,0,,3,,
Raw,27105579,27111787000000,,,-1291005707647972352,0.0,69.04125621076673,7.51323320566422,13.870632096414361,4695,22,0.0,207,54801364777582,17,29.0,-698.539306640625,1.2225000858306885,0,0.0,0.0,,,,,0,,3,,
Raw,27105580,27111787000000,,,-1291005707647972352,0.0,69.04125621076673,7.51323320566422,13.870632096414361,4695,12,0.0,207,54801355092186,16,29.9,-453.5415954589844,0.24619999527931213,0,0.0,0.0,,,,,0,,3,,
Raw,27105581,27111787000000,,,-1291005707647972352,0.0,69.04125621076673,7.51323320566422,13.870632096414361,4695,1,0.0,207,54801358594970,37,22.7,444.80731201171875,1.5835000276565552,0,0.0,0.0,,,,,0,,3,,
Raw,27105581,27111787000000,,,-1291005707647972352,0.0,69.04125621076673,7.51323320566422,13.870632096414361,4695,21,0.0,207,54801370001374,748,17.8,-34.30070495605469,1.9214999675750732,0,0.0,0.0,,,,,0,,3,,
Raw,27105582,27111787000000,,,-1291005707647972352,0.0,69.04125621076673,7.51323320566422,13.870632096414361,4695,8,0.0,207,54801355719812,16,29.7,596.1611938476562,0.24619999527931213,0,0.0,0.0,,,,,0,,3,,
Raw,27105582,27111787000000,,,-1291005707647972352,0.0,69.04125621076673,7.51323320566422,13.870632096414361,4695,1,0.0,15,389619350916234,23,26.0,-636.1232299804688,1.1735000610351562,0,0.0,0.0,,,,,0,,1,,
Raw,27105583,27111787000000,,,-1291005707647972352,0.0,69.04125621076673,7.51323320566422,13.870632096414361,4695,4,0.0,15,389619363367640,17,28.2,242.11940002441406,0.07079999893903732,0,0.0,0.0,,,,,0,,1,,
Raw,27105583,27111787000000,,,-1291005707647972352,0.0,69.04125621076673,7.51323320566422,13.870632096414361,4695,7,0.0,15,389619351420351,9,35.2,-617.7551879882812,0.0471000038087368,0,0.0,0.0,,,,,0,,1,,
Raw,27105584,27111787000000,,,-1291005707647972352,0.0,69.04125621076673,7.51323320566422,13.870632096414361,4695,8,0.0,15,389619366720082,8,36.4,-179.48944091796875,0.05420000106096268,0,0.0,0.0,,,,,0,,1,,
Raw,27105584,27111787000000,,,-1291005707647972352,0.0,69.04125621076673,7.51323320566422,13.870632096414361,4695,9,0.0,15,389619359250530,19,27.9,-146.359619140625,0.05480000376701355,0,0.0,0.0,,,,,0,,1,,
Raw,27105585,27111787000000,,,-1291005707647972352,0.0,69.04125621076673,7.51323320566422,13.870632096414361,4695,21,0.0,15,389619359046946,13,32.2,-578.1882934570312,0.9500000476837158,0,0.0,0.0,,,,,0,,1,,
Raw,27105585,27111787000000,,,-1291005707647972352,0.0,69.04125621076673,7.51323320566422,13.870632096414361,4695,27,0.0,15,389619367234425,21,26.8,275.3573303222656,0.14270000159740448,0,0.0,0.0,,,,,0,,1,,
Raw,27105585,27111787000000,,,-1291005707647972352,0.0,69.04125621076673,7.51323320566422,13.870632096414361,4695,3,0.0,783,389605313335812,15,30.2,-6.46212911605835,0.7250000238418579,0,0.0,0.0,,,,,0,,5,,
Raw,27105586,27111787000000,,,-1291005707647972352,0.0,69.04125621076673,7.51323320566422,13.870632096414361,4695,6,0.0,15,389605312447160,36,22.9,243.3524627685547,1.1055001020431519,0,0.0,0.0,,,,,0,,5,,
Raw,27105586,27111787000000,,,-1291005707647972352,0.0,69.04125621076673,7.51323320566422,13.870632096414361,4695,7,0.0,15,389605311793613,18,28.6,22.04613494873047,0.9070000052452087,0,0.0,0.0,,,,,0,,5,,
Raw,27105587,27111787000000,,,-1291005707647972352,0.0,69.04125621076673,7.51323320566422,13.870632096414361,4695,9,0.0,15,389605315071032,25,25.0,144.0296173095703,1.0110000371932983,0,0.0,0.0,,,,,0,,5,,
Raw,27105587,27111787000000,,,-1291005707647972352,0.0,69.04125621076673,7.51323320566422,13.870632096414361,4695,10,0.0,15,389605309424441,13,31.8,32.771541595458984,67.5,0,0.0,0.0,,,,,0,,5,,
Raw,27105588,27111787000000,,,-1291005707647972352,0.0,69.04125621076673,7.51323320566422,13.870632096414361,4695,11,0.0,15,389605349892487,244,34.5,-614.3535766601562,69.02850341796875,0,0.0,0.0,,,,,0,,5,,
Raw,27105588,27111787000000,,,-1291005707647972352,0.0,69.04125621076673,7.51323320566422,13.870632096414361,4695,12,0.0,15,389605362516493,15,30.4,-262.3067321777344,0.8705000281333923,0,0.0,0.0,,,,,0,,5,,
Raw,27105589,27111787000000,,,-1291005707647972352,0.0,69.04125621076673,7.51323320566422,13.870632096414361,4695,16,0.0,15,389605311461158,17,28.1,256.9776611328125,0.5320000052452087,0,0.0,0.0,,,,,0,,5,,
Raw,27105589,27111787000000,,,-1291005707647972352,0.0,69.04125621076673,7.51323320566422,13.870632096414361,4695,24,0.0,15,389605359060024,17,29.1,-259.090087890625,0.8650000095367432,0,0.0,0.0,,,,,0,,5,,
Raw,27105590,27111787000000,,,-1291005707647972352,0.0,69.04125621076673,7.51323320566422,13.870632096414361,4695,25,0.0,15,389605346689366,13,31.3,-457.3132629394531,0.4594999849796295,0,0.0,0.0,,,,,0,,5,,
Fix,gps,22.925484,120.294717,47.181580,0.000000,6.432000,1606997602000
NMEA,$GPGSV,3,1,12,01,02,189,26,04,48,244,28,07,09,317,35,08,64,241,36*7A,1606997601460
NMEA,$GPGSV,3,2,12,09,30,291,28,11,00,000,35,21,22,174,32,27,69,015,27*7C,1606997601461
NMEA,$GPGSV,3,3,12,16,39,029,,18,00,000,,26,21,061,,31,15,125,*75,1606997601462
NMEA,$GLGSV,3,1,09,66,06,310,31,86,37,182,29,76,06,313,30,65,16,250,23*65,1606997601463
NMEA,$GLGSV,3,2,09,85,70,092,18,72,08,209,30,74,33,068,,73,01,105,*6C,1606997601463
NMEA,$GLGSV,3,3,09,84,21,030,*50,1606997601467
NMEA,$GAGSV,2,1,07,02,21,302,,03,33,257,,05,24,198,,08,10,306,*60,1606997601468
NMEA,$GAGSV,2,2,07,24,28,066,,25,48,358,,36,36,170,*50,1606997601468
NMEA,$PQGSV,1,1,03,194,61,049,21,195,69,094,23,193,16,167,,0,5*6E,1606997601469
NMEA,$PQGSV,4,1,16,03,59,202,30,06,49,191,23,07,57,344,29,09,63,243,25,0,4*65,1606997601469
NMEA,$PQGSV,4,2,16,10,46,303,32,11,16,206,35,12,66,182,30,16,52,196,28,0,4*62,1606997601469
NMEA,$PQGSV,4,3,16,24,52,348,29,25,08,309,31,01,52,129,,02,40,239,,0,4*6B,1606997601469
NMEA,$PQGSV,4,4,16,04,37,113,,05,16,255,,08,18,165,,13,06,185,,0,4*64,1606997601469
NMEA,$GNGSA,A,3,04,07,08,09,21,27,,,,,,,1.4,1.2,0.8,1*3B,1606997601470
NMEA,$GNGSA,A,3,65,66,72,76,86,,,,,,,,1.4,1.2,0.8,2*35,1606997601470
NMEA,$GNVTG,,T,,M,0.0,N,0.0,K,A*3D,1606997601471
NMEA,$GNRMC,121322.00,A,2255.529062,N,12017.683046,E,0.0,,031220,2.8,W,A*1E,1606997601471
NMEA,$GNGGA,121322.00,2255.529062,N,12017.683046,E,1,11,1.2,29.7,M,17.5,M,,*4F,1606997601471
Raw,27106978,27112787000000,,,-1291005707647972352,0.0,62.509112467523664,6.222763760896938,14.905660384113961,4695,2,0.0,207,54802355397058,12,32.3,-101.10206604003906,0.5589999556541443,0,0.0,0.0,,,,,0,,3,,
Raw,27106982,27112787000000,,,-1291005707647972352,0.0,62.509112467523664,6.222763760896938,14.905660384113961,4695,22,0.0,207,54802364780054,16,29.7,-701.9019165039062,0.6225000023841858,0,0.0,0.0,,,,,0,,3,,
Raw,27106984,27112787000000,,,-1291005707647972352,0.0,62.509112467523664,6.222763760896938,14.905660384113961,4695,12,0.0,207,54802355093688,14,30.9,-452.92889404296875,0.2483000010251999,0,0.0,0.0,,,,,0,,3,,
Raw,27106987,27112787000000,,,-1291005707647972352,0.0,62.509112467523664,6.222763760896938,14.905660384113961,4695,1,0.0,207,54802358593474,35,22.0,446.8557434082031,1.0584999322891235,0,0.0,0.0,,,,,0,,3,,
Raw,27106989,27112787000000,,,-1291005707647972352,0.0,62.509112467523664,6.222763760896938,14.905660384113961,4695,21,0.0,207,54802370001352,754,17.8,-33.889583587646484,2.6714999675750732,0,0.0,0.0,,,,,0,,3,,
Raw,27106993,27112787000000,,,-1291005707647972352,0.0,62.509112467523664,6.222763760896938,14.905660384113961,4695,8,0.0,207,54802355717910,17,28.6,596.76513671875,0.6789999604225159,0,0.0,0.0,,,,,0,,3,,
Raw,27106995,27112787000000,,,-1291005707647972352,0.0,62.509112467523664,6.222763760896938,14.905660384113961,4695,1,0.0,15,389620350918438,24,25.8,-637.07958984375,0.3968000113964081,0,0.0,0.0,,,,,0,,1,,
Raw,27106997,27112787000000,,,-1291005707647972352,0.0,62.509112467523664,6.222763760896938,14.905660384113961,4695,4,0.0,15,389620363366829,21,26.7,242.57962036132812,0.11569999903440475,0,0.0,0.0,,,,,0,,1,,
Raw,27107000,27112787000000,,,-1291005707647972352,0.0,62.509112467523664,6.222763760896938,14.905660384113961,4695,7,0.0,15,389620351422400,9,35.5,-617.3212280273438,0.038100000470876694,0,0.0,0.0,,,,,0,,1,,
Raw,27107001,27112787000000,,,-1291005707647972352,0.0,62.509112467523664,6.222763760896938,14.905660384113961,4695,8,0.0,15,389620366720687,7,37.5,-178.9207305908203,0.029600001871585846,0,0.0,0.0,,,,,0,,1,,
Raw,27107001,27112787000000,,,-1291005707647972352,0.0,62.509112467523664,6.222763760896938,14.905660384113961,4695,9,0.0,15,389620359250969,35,22.2,-145.12747192382812,0.8299999833106995,0,0.0,0.0,,,,,0,,1,,
Raw,27107002,27112787000000,,,-1291005707647972352,0.0,62.509112467523664,6.222763760896938,14.905660384113961,4695,21,0.0,15,389620359048925,14,30.1,-579.7380981445312,0.06930000334978104,0,0.0,0.0,,,,,0,,1,,
Raw,27107002,27112787000000,,,-1291005707647972352,0.0,62.509112467523664,6.222763760896938,14.905660384113961,4695,27,0.0,15,389620367233553,21,26.8,275.9239196777344,0.12170000374317169,0,0.0,0.0,,,,,0,,1,,
Raw,27107003,27112787000000,,,-1291005707647972352,0.0,62.509112467523664,6.222763760896938,14.905660384113961,4695,3,0.0,783,389606313335809,13,31.0,-2.6117372512817383,0.3799999952316284,0,0.0,0.0,,,,,0,,5,,
Raw,27107004,27112787000000,,,-1291005707647972352,0.0,62.509112467523664,6.222763760896938,14.905660384113961,4695,6,0.0,15,389606312446381,35,22.0,243.06439208984375,0.684499979019165,0,0.0,0.0,,,,,0,,5,,
Raw,27107004,27112787000000,,,-1291005707647972352,0.0,62.509112467523664,6.222763760896938,14.905660384113961,4695,7,0.0,15,389606311793530,21,26.7,21.165325164794922,0.12770000100135803,0,0.0,0.0,,,,,0,,5,,
Raw,27107005,27112787000000,,,-1291005707647972352,0.0,62.509112467523664,6.222763760896938,14.905660384113961,4695,8,0.0,15,389606301587101,62,18.9,-319.82257080078125,1.312999963760376,0,0.0,0.0,,,,,0,,5,,
Raw,27107005,27112787000000,,,-1291005707647972352,0.0,62.509112467523664,6.222763760896938,14.905660384113961,4695,9,0.0,15,389606315070575,27,24.3,142.56051635742188,0.5989999771118164,0,0.0,0.0,,,,,0,,5,,
Raw,27107006,27112787000000,,,-1291005707647972352,0.0,62.509112467523664,6.222763760896938,14.905660384113961,4695,10,0.0,15,389606309424332,243,31.8,32.771541595458984,69.0,0,0.0,0.0,,,,,0,,5,,
Raw,27107007,27112787000000,,,-1291005707647972352,0.0,62.509112467523664,6.222763760896938,14.905660384113961,4695,11,0.0,15,389606349894545,56,33.5,-614.3439331054688,67.80149841308594,0,0.0,0.0,,,,,0,,5,,
Raw,27107007,27112787000000,,,-1291005707647972352,0.0,62.509112467523664,6.222763760896938,14.905660384113961,4695,12,0.0,15,389606362517358,16,29.7,-262.8152770996094,0.02970000170171261,0,0.0,0.0,,,,,0,,5,,
Raw,27107008,27112787000000,,,-1291005707647972352,0.0,62.509112467523664,6.222763760896938,14.905660384113961,4695,16,0.0,15,389606311460295,21,26.8,257.4333801269531,0.12770000100135803,0,0.0,0.0,,,,,0,,5,,
Raw,27107008,27112787000000,,,-1291005707647972352,0.0,62.509112467523664,6.222763760896938,14.905660384113961,4695,24,0.0,15,389606359060877,17,28.1,-260.0257263183594,0.07680000364780426,0,0.0,0.0,,,,,0,,5,,
Raw,27107009,27112787000000,,,-1291005707647972352,0.0,62.509112467523664,6.222763760896938,14.905660384113961,4695,25,0.0,15,389606346690883,12,32.3,-456.7288818359375,0.03290000185370445,0,0.0,0.0,,,,,0,,5,,
Fix,gps,22.925484,120.294717,47.133606,0.000000,6.432000,1606997603000
NMEA,$GPGSV,3,1,12,01,02,189,26,04,48,244,27,07,09,317,36,08,64,241,38*78,1606997602461
NMEA,$GPGSV,3,2,12,09,30,291,22,11,00,000,36,21,22,174,30,27,69,015,27*77,1606997602461
NMEA,$GPGSV,3,3,12,16,39,029,,18,00,000,,26,21,061,,31,15,125,*75,1606997602462
NMEA,$GLGSV,3,1,09,66,06,310,32,86,37,182,30,76,06,313,31,65,16,250,22*6E,1606997602463
NMEA,$GLGSV,3,2,09,85,70,092,18,72,08,209,29,74,33,068,,73,01,105,*64,1606997602463
NMEA,$GLGSV,3,3,09,84,21,030,*50,1606997602464
NMEA,$GAGSV,2,1,07,02,21,302,,03,33,257,,05,24,198,,08,10,306,*60,1606997602464
NMEA,$GAGSV,2,2,07,24,28,066,,25,48,358,,36,36,170,*50,1606997602469
NMEA,$PQGSV,1,1,03,194,61,049,21,193,16,167,,195,69,094,,0,5*6F,1606997602471
NMEA,$PQGSV,4,1,16,03,59,202,31,06,49,191,22,07,57,344,27,08,18,165,19,0,4*6E,1606997602471
NMEA,$PQGSV,4,2,16,09,63,243,24,10,46,303,32,11,16,206,34,12,66,182,30,0,4*68,1606997602472
NMEA,$PQGSV,4,3,16,16,52,196,27,24,52,348,28,25,08,309,32,01,52,129,,0,4*6C,1606997602472
NMEA,$PQGSV,4,4,16,02,40,239,,04,37,113,,05,16,255,,13,06,185,,0,4*69,1606997602473
NMEA,$GNGSA,A,3,04,07,08,09,21,27,,,,,,,1.4,1.2,0.8,1*3B,1606997602475
NMEA,$GNGSA,A,3,65,66,72,76,86,,,,,,,,1.4,1.2,0.8,2*35,1606997602476
NMEA,$PQGSA,A,3,10,11,16,25,,,,,,,,,1.4,1.2,0.8,4*33,1606997602478
NMEA,$GNVTG,,T,,M,0.0,N,0.0,K,A*3D,1606997602479
NMEA,$GNRMC,121323.00,A,2255.529053,N,12017.683025,E,0.0,,031220,2.8,W,A*18,1606997602479
NMEA,$GNGGA,121323.00,2255.529053,N,12017.683025,E,1,12,1.2,29.7,M,17.5,M,,*4A,1606997602480
Raw,27107590,27113787000000,,,-1291005707647972352,0.0,54.679559980286285,7.500224830722499,12.561857720056103,4695,2,0.0,207,54803355397391,11,33.6,-101.25798797607422,0.24540001153945923,0,0.0,0.0,,,,,0,,3,,
Raw,27107591,27113787000000,,,-1291005707647972352,0.0,54.679559980286285,7.500224830722499,12.561857720056103,4695,22,0.0,207,54803364782412,17,28.4,-702.0706176757812,0.23930001258850098,0,0.0,0.0,,,,,0,,3,,
Raw,27107591,27113787000000,,,-1291005707647972352,0.0,54.679559980286285,7.500224830722499,12.561857720056103,4695,12,0.0,207,54803355095180,11,33.1,-453.1426086425781,0.24540001153945923,0,0.0,0.0,,,,,0,,3,,
Raw,27107591,27113787000000,,,-1291005707647972352,0.0,54.679559980286285,7.500224830722499,12.561857720056103,4695,1,0.0,207,54803358592038,40,21.3,445.6304626464844,1.0134999752044678,0,0.0,0.0,,,,,0,,3,,
Raw,27107592,27113787000000,,,-1291005707647972352,0.0,54.679559980286285,7.500224830722499,12.561857720056103,4695,21,0.0,207,54803370001610,762,17.5,-34.10448455810547,3.4215002059936523,0,0.0,0.0,,,,,0,,3,,
Raw,27107592,27113787000000,,,-1291005707647972352,0.0,54.679559980286285,7.500224830722499,12.561857720056103,4695,8,0.0,207,54803355715913,17,28.8,596.6296997070312,0.2558000087738037,0,0.0,0.0,,,,,0,,3,,
Raw,27107593,27113787000000,,,-1291005707647972352,0.0,54.679559980286285,7.500224830722499,12.561857720056103,4695,1,0.0,15,389621350920574,17,28.3,-636.6845703125,0.5115000009536743,0,0.0,0.0,,,,,0,,1,,
Raw,27107593,27113787000000,,,-1291005707647972352,0.0,54.679559980286285,7.500224830722499,12.561857720056103,4695,4,0.0,15,389621363366038,17,28.5,242.5199432373047,0.03779999911785126,0,0.0,0.0,,,,,0,,1,,
Raw,27107594,27113787000000,,,-1291005707647972352,0.0,54.679559980286285,7.500224830722499,12.561857720056103,4695,7,0.0,15,389621351424451,9,35.4,-617.6141357421875,0.038100000470876694,0,0.0,0.0,,,,,0,,1,,
Raw,27107594,27113787000000,,,-1291005707647972352,0.0,54.679559980286285,7.500224830722499,12.561857720056103,4695,8,0.0,15,389621366721274,7,37.5,-179.1040496826172,0.029600001871585846,0,0.0,0.0,,,,,0,,1,,
Raw,27107595,27113787000000,,,-1291005707647972352,0.0,54.679559980286285,7.500224830722499,12.561857720056103,4695,9,0.0,15,389621359251551,27,24.1,-145.9552459716797,0.6949999928474426,0,0.0,0.0,,,,,0,,1,,
Raw,27107595,27113787000000,,,-1291005707647972352,0.0,54.679559980286285,7.500224830722499,12.561857720056103,4695,21,0.0,15,389621359050831,12,32.8,-580.0006103515625,0.052400000393390656,0,0.0,0.0,,,,,0,,1,,
Raw,27107595,27113787000000,,,-1291005707647972352,0.0,54.679559980286285,7.500224830722499,12.561857720056103,4695,27,0.0,15,389621367232636,21,26.2,275.7272644042969,0.12170000374317169,0,0.0,0.0,,,,,0,,1,,
Raw,27107596,27113787000000,,,-1291005707647972352,0.0,54.679559980286285,7.500224830722499,12.561857720056103,4695,3,0.0,783,389607313335813,13,31.1,-5.501931190490723,0.36500000953674316,0,0.0,0.0,,,,,0,,5,,
Raw,27107596,27113787000000,,,-1291005707647972352,0.0,54.679559980286285,7.500224830722499,12.561857720056103,4695,6,0.0,15,389607312445527,24,25.1,242.38687133789062,0.39980000257492065,0,0.0,0.0,,,,,0,,5,,
Raw,27107597,27113787000000,,,-1291005707647972352,0.0,54.679559980286285,7.500224830722499,12.561857720056103,4695,7,0.0,15,389607311793470,19,27.3,20.747343063354492,0.05780000239610672,0,0.0,0.0,,,,,0,,5,,
Raw,27107597,27113787000000,,,-1291005707647972352,0.0,54.679559980286285,7.500224830722499,12.561857720056103,4695,8,0.0,15,389607301588141,70,17.4,-320.2258605957031,1.2080000638961792,0,0.0,0.0,,,,,0,,5,,
Raw,27107597,27113787000000,,,-1291005707647972352,0.0,54.679559980286285,7.500224830722499,12.561857720056103,4695,9,0.0,15,389607315070092,21,26.2,141.97479248046875,0.5189999938011169,0,0.0,0.0,,,,,0,,5,,
Raw,27107598,27113787000000,,,-1291005707647972352,0.0,54.679559980286285,7.500224830722499,12.561857720056103,4695,10,0.0,15,389607309424228,12,32.4,34.327056884765625,0.33500000834465027,0,0.0,0.0,,,,,0,,5,,
Raw,27107598,27113787000000,,,-1291005707647972352,0.0,54.679559980286285,7.500224830722499,12.561857720056103,4695,11,0.0,15,389607349896594,194,33.5,-614.3439331054688,68.69850158691406,0,0.0,0.0,,,,,0,,5,,
Raw,27107599,27113787000000,,,-1291005707647972352,0.0,54.679559980286285,7.500224830722499,12.561857720056103,4695,12,0.0,15,389607362518236,14,30.2,-262.9971923828125,0.028800001367926598,0,0.0,0.0,,,,,0,,5,,
Raw,27107600,27113787000000,,,-1291005707647972352,0.0,54.679559980286285,7.500224830722499,12.561857720056103,4695,13,0.0,15,389607298596826,20,27.0,-236.1893768310547,0.9365000128746033,0,0.0,0.0,,,,,0,,5,,
Raw,27107600,27113787000000,,,-1291005707647972352,0.0,54.679559980286285,7.500224830722499,12.561857720056103,4695,16,0.0,15,389607311459441,19,27.2,257.3867492675781,0.05780000239610672,0,0.0,0.0,,,,,0,,5,,
Raw,27107601,27113787000000,,,-1291005707647972352,0.0,54.679559980286285,7.500224830722499,12.561857720056103,4695,24,0.0,15,389607359061740,16,29.2,-260.3767395019531,0.4150000214576721,0,0.0,0.0,,,,,0,,5,,
Raw,27107601,27113787000000,,,-1291005707647972352,0.0,54.679559980286285,7.500224830722499,12.561857720056103,4695,25,0.0,15,389607346692401,11,33.4,-457.04132080078125,0.03189999982714653,0,0.0,0.0,,,,,0,,5,,
Fix,gps,22.925484,120.294717,47.135742,0.000000,7.504000,1606997604000
NMEA,$GPGSV,3,1,12,01,02,189,28,04,48,244,29,07,09,317,35,08,64,241,38*7B,1606997603462
NMEA,$GPGSV,3,2,12,09,30,291,24,11,00,000,36,21,22,174,33,27,69,015,26*73,1606997603462
NMEA,$GPGSV,3,3,12,16,39,029,,18,00,000,,26,21,061,,31,15,125,*75,1606997603463
NMEA,$GLGSV,3,1,09,66,06,310,34,86,37,182,28,76,06,313,33,65,16,250,21*60,1606997603464
NMEA,$GLGSV,3,2,09,85,70,092,18,72,08,209,29,74,33,068,,73,01,105,*64,1606997603464
NMEA,$GLGSV,3,3,09,84,21,030,*50,1606997603465
NMEA,$GAGSV,2,1,07,02,21,302,,03,33,257,,05,24,198,,08,10,306,*60,1606997603468
NMEA,$GAGSV,2,2,07,24,28,066,,25,48,358,,36,36,170,*50,1606997603473
NMEA,$PQGSV,1,1,03,193,16,167,16,194,61,049,23,195,69,094,21,0,5*69,1606997603474
NMEA,$PQGSV,4,1,16,03,59,202,31,06,49,191,25,07,57,344,27,08,18,165,17,0,4*67,1606997603476
NMEA,$PQGSV,4,2,16,09,63,243,26,10,46,303,32,11,16,206,34,12,66,182,30,0,4*6A,1606997603477
NMEA,$PQGSV,4,3,16,13,06,185,27,16,52,196,27,24,52,348,29,25,08,309,33,0,4*6D,1606997603479
NMEA,$PQGSV,4,4,16,01,52,129,,02,40,239,,04,37,113,,05,16,255,,0,4*6D,1606997603480
NMEA,$GNGSA,A,3,04,07,08,09,21,27,,,,,,,1.4,1.2,0.8,1*3B,1606997603482
NMEA,$GNGSA,A,3,65,66,72,76,86,,,,,,,,1.4,1.2,0.8,2*35,1606997603483
NMEA,$PQGSA,A,3,10,11,16,25,,,,,,,,,1.4,1.2,0.8,4*33,1606997603483
NMEA,$GNVTG,,T,,M,0.0,N,0.0,K,A*3D,1606997603484
NMEA,$GNRMC,121324.00,A,2255.529048,N,12017.683015,E,0.0,,031220,2.8,W,A*16,1606997603485
