# 
# Header Description:
# 
# Version: v2.0.0.1 Platform: 8.0.0 Manufacturer: Sony Model: G8142
# 
# Raw,ElapsedRealtimeMillis,TimeNanos,LeapSecond,TimeUncertaintyNanos,FullBiasNanos,BiasNanos,BiasUncertaintyNanos,DriftNanosPerSecond,DriftUncertaintyNanosPerSecond,HardwareClockDiscontinuityCount,Svid,TimeOffsetNanos,State,ReceivedSvTimeNanos,ReceivedSvTimeUncertaintyNanos,Cn0DbHz,PseudorangeRateMetersPerSecond,PseudorangeRateUncertaintyMetersPerSecond,AccumulatedDeltaRangeState,AccumulatedDeltaRangeMeters,AccumulatedDeltaRangeUncertaintyMeters,CarrierFrequencyHz,CarrierCycles,CarrierPhase,CarrierPhaseUncertainty,MultipathIndicator,SnrInDb,ConstellationType,AgcDb,CarrierFrequencyHz
# 
# Fix,Provider,Latitude,Longitude,Altitude,Speed,Accuracy,(UTC)TimeInMs
# 
# Nav,Svid,Type,Status,MessageId,Sub-messageId,Data(Bytes)
# 
Fix,gps,22.925419,120.294651,46.656128,0.000000,4.288000,1606997984000
NMEA,$GPGSV,3,1,12,01,04,188,17,04,47,239,35,07,12,319,36,08,66,248,27*7A,1606997983447
NMEA,$GPGSV,3,2,12,09,31,288,37,11,00,000,24,21,25,172,19,27,66,016,14*7F,1606997983448
NMEA,$GPGSV,3,3,12,16,38,033,,18,00,000,,26,20,064,,31,13,126,*7E,1606997983448
NMEA,$GLGSV,3,1,09,66,06,307,34,86,40,182,12,76,07,316,26,65,14,247,19*60,1606997983448
NMEA,$GLGSV,3,2,09,85,70,081,15,72,06,208,19,74,33,073,,73,00,000,*68,1606997983449
NMEA,$GLGSV,3,3,09,84,18,029,*52,1606997983449
NMEA,$GAGSV,2,1,07,02,22,305,,03,32,254,,05,22,196,,08,11,305,*6C,1606997983449
NMEA,$GAGSV,2,2,07,24,27,068,,25,49,001,,36,39,168,*59,1606997983449
Raw,27488515,27494924000000,,,-1291005707509171712,0.0,46.02822446031496,4.340556008821655,16.746939113973944,4951,2,0.0,207,55184353697009,11,33.1,-53.424659729003906,0.24240000545978546,0,0.0,0.0,,,,,0,,3,,
Raw,27488516,27494924000000,,,-1291005707509171712,0.0,46.02822446031496,4.340556008821655,16.746939113973944,4951,22,0.0,207,55184363854112,1851,11.9,-664.8941650390625,7.811000347137451,0,0.0,0.0,,,,,0,,3,,
Raw,27488516,27494924000000,,,-1291005707509171712,0.0,46.02822446031496,4.340556008821655,16.746939113973944,4951,12,0.0,207,55184353882255,19,27.1,-468.4915771484375,0.26080000400543213,0,0.0,0.0,,,,,0,,3,,
Raw,27488516,27494924000000,,,-1291005707509171712,0.0,46.02822446031496,4.340556008821655,16.746939113973944,4951,1,0.0,207,55184356215277,53,19.5,463.7108154296875,1.1405000686645508,0,0.0,0.0,,,,,0,,3,,
Raw,27488516,27494924000000,,,-1291005707509171712,0.0,46.02822446031496,4.340556008821655,16.746939113973944,4951,21,0.0,207,55184368204102,1087,15.3,32.53474807739258,7.3485002517700195,0,0.0,0.0,,,,,0,,3,,
Raw,27488516,27494924000000,,,-1291005707509171712,0.0,46.02822446031496,4.340556008821655,16.746939113973944,4951,8,0.0,207,55184353167558,72,17.7,582.245849609375,1.7760000228881836,0,0.0,0.0,,,,,0,,3,,
Raw,27488516,27494924000000,,,-1291005707509171712,0.0,46.02822446031496,4.340556008821655,16.746939113973944,4951,1,0.0,15,390002349942384,951,16.7,-653.9537353515625,7.03000020980835,0,0.0,0.0,,,,,0,,1,,
Raw,27488517,27494924000000,,,-1291005707509171712,0.0,46.02822446031496,4.340556008821655,16.746939113973944,4951,4,0.0,15,390002361235474,11,33.5,279.48956298828125,0.024400001391768456,0,0.0,0.0,,,,,0,,1,,
Raw,27488517,27494924000000,,,-1291005707509171712,0.0,46.02822446031496,4.340556008821655,16.746939113973944,4951,7,0.0,15,390002350415104,9,35.8,-624.143798828125,0.03660000115633011,0,0.0,0.0,,,,,0,,1,,
Raw,27488517,27494924000000,,,-1291005707509171712,0.0,46.02822446031496,4.340556008821655,16.746939113973944,4951,8,0.0,15,390002365124623,21,26.3,-138.85037231445312,0.11870000511407852,0,0.0,0.0,,,,,0,,1,,
Raw,27488517,27494924000000,,,-1291005707509171712,0.0,46.02822446031496,4.340556008821655,16.746939113973944,4951,9,0.0,15,390002357611591,7,37.5,-103.94068908691406,0.04610000178217888,0,0.0,0.0,,,,,0,,1,,
Raw,27488517,27494924000000,,,-1291005707509171712,0.0,46.02822446031496,4.340556008821655,16.746939113973944,4951,21,0.0,15,390002357983214,70,17.2,-570.0532836914062,1.281999945640564,0,0.0,0.0,,,,,0,,1,,
Raw,27488517,27494924000000,,,-1291005707509171712,0.0,46.02822446031496,4.340556008821655,16.746939113973944,4951,27,0.0,15,390002365060917,1412,13.8,311.2157897949219,7.334000110626221,0,0.0,0.0,,,,,0,,1,,
Raw,27488517,27494924000000,,,-1291005707509171712,0.0,46.02822446031496,4.340556008821655,16.746939113973944,4951,3,0.0,783,389988311542279,35,26.0,-0.4704967737197876,2.745000123977661,0,0.0,0.0,,,,,0,,5,,
Raw,27488518,27494924000000,,,-1291005707509171712,0.0,46.02822446031496,4.340556008821655,16.746939113973944,4951,6,0.0,15,389988310333608,27,24.4,249.97781372070312,0.5914999842643738,0,0.0,0.0,,,,,0,,5,,
Raw,27488518,27494924000000,,,-1291005707509171712,0.0,46.02822446031496,4.340556008821655,16.746939113973944,4951,9,0.0,15,389988313083242,35,22.1,153.67959594726562,0.6859999895095825,0,0.0,0.0,,,,,0,,5,,
Raw,27488518,27494924000000,,,-1291005707509171712,0.0,46.02822446031496,4.340556008821655,16.746939113973944,4951,10,0.0,15,389988307584957,40,21.9,28.834732055664062,0.6769999861717224,0,0.0,0.0,,,,,0,,5,,
Raw,27488518,27494924000000,,,-1291005707509171712,0.0,46.02822446031496,4.340556008821655,16.746939113973944,4951,11,0.0,15,389988348869625,27,24.1,-601.822998046875,0.5885000228881836,0,0.0,0.0,,,,,0,,5,,
Raw,27488518,27494924000000,,,-1291005707509171712,0.0,46.02822446031496,4.340556008821655,16.746939113973944,4951,16,0.0,15,389988309328646,16,29.0,265.4480895996094,0.04020000249147415,0,0.0,0.0,,,,,0,,5,,
Raw,27488518,27494924000000,,,-1291005707509171712,0.0,46.02822446031496,4.340556008821655,16.746939113973944,4951,25,0.0,15,389988345480500,4,42.8,-466.1826171875,0.02630000188946724,0,0.0,0.0,,,,,0,,5,,
NMEA,$PQGSV,1,1,03,194,62,050,19,193,16,167,,195,69,092,,0,5*69,1606997983450
NMEA,$PQGSV,4,1,16,02,40,239,23,03,59,202,26,06,48,192,23,09,61,241,20,0,4*67,1606997983450
NMEA,$PQGSV,4,2,16,10,45,305,21,11,18,206,25,16,49,196,26,25,09,310,43,0,4*6E,1606997983450
NMEA,$PQGSV,4,3,16,01,52,129,,04,37,113,,05,16,255,,07,56,345,,0,4*62,1606997983450
NMEA,$PQGSV,4,4,16,08,18,165,,12,69,184,,13,07,185,,14,09,232,,0,4*68,1606997983451
NMEA,$GNGSA,A,3,04,07,08,09,21,,,,,,,,1.8,1.6,0.8,1*36,1606997983451
NMEA,$GNGSA,A,2,65,66,76,,,,,,,,,,1.8,1.6,0.8,2*37,1606997983452
NMEA,$PQGSA,A,3,10,11,16,25,,,,,,,,,1.8,1.6,0.8,4*3B,1606997983452
NMEA,$GNVTG,,T,,M,0.0,N,0.0,K,A*3D,1606997983452
NMEA,$GNRMC,121944.00,A,2255.525124,N,12017.679071,E,0.0,,031220,2.8,W,A*1A,1606997983452
NMEA,$GNGGA,121944.00,2255.525124,N,12017.679071,E,1,12,1.6,29.2,M,17.5,M,,*49,1606997983453
Fix,gps,22.925419,120.294651,46.655212,0.000000,4.288000,1606997985000
NMEA,$GPGSV,3,1,12,01,04,188,17,04,47,239,34,07,12,319,36,08,66,248,26*7A,1606997984446
NMEA,$GPGSV,3,2,12,09,31,288,38,11,00,000,26,21,25,172,17,27,66,016,14*7C,1606997984447
NMEA,$GPGSV,3,3,12,16,38,033,,18,00,000,,26,20,064,,31,13,126,*7E,1606997984447
Raw,27489525,27495924000000,,,-1291005707509171712,0.0,44.124870328232646,3.9252149081001906,14.992506417028668,4951,2,0.0,207,55185353697182,12,32.9,-53.600250244140625,0.24340000748634338,0,0.0,0.0,,,,,0,,3,,
Raw,27489526,27495924000000,,,-1291005707509171712,0.0,44.124870328232646,3.9252149081001906,14.992506417028668,4951,22,0.0,207,55185363856356,1875,11.9,-664.6318969726562,8.56100082397461,0,0.0,0.0,,,,,0,,3,,
Raw,27489526,27495924000000,,,-1291005707509171712,0.0,44.124870328232646,3.9252149081001906,14.992506417028668,4951,12,0.0,207,55185353883838,16,29.5,-468.8135986328125,0.24619999527931213,0,0.0,0.0,,,,,0,,3,,
Raw,27489526,27495924000000,,,-1291005707509171712,0.0,44.124870328232646,3.9252149081001906,14.992506417028668,4951,1,0.0,207,55185356213624,53,19.1,463.85113525390625,1.1405000686645508,0,0.0,0.0,,,,,0,,3,,
Raw,27489526,27495924000000,,,-1291005707509171712,0.0,44.124870328232646,3.9252149081001906,14.992506417028668,4951,21,0.0,207,55185368204044,1263,14.5,32.39459228515625,8.198500633239746,0,0.0,0.0,,,,,0,,3,,
Raw,27489526,27495924000000,,,-1291005707509171712,0.0,44.124870328232646,3.9252149081001906,14.992506417028668,4951,8,0.0,207,55185353165688,46,20.1,582.012451171875,1.065999984741211,0,0.0,0.0,,,,,0,,3,,
Raw,27489526,27495924000000,,,-1291005707509171712,0.0,44.124870328232646,3.9252149081001906,14.992506417028668,4951,1,0.0,15,390003349944576,974,16.6,-653.9251708984375,7.78000020980835,0,0.0,0.0,,,,,0,,1,,
Raw,27489526,27495924000000,,,-1291005707509171712,0.0,44.124870328232646,3.9252149081001906,14.992506417028668,4951,4,0.0,15,390003361234549,11,33.3,279.255859375,0.024400001391768456,0,0.0,0.0,,,,,0,,1,,
Raw,27489527,27495924000000,,,-1291005707509171712,0.0,44.124870328232646,3.9252149081001906,14.992506417028668,4951,7,0.0,15,390003350417190,9,35.8,-624.4892578125,0.03660000115633011,0,0.0,0.0,,,,,0,,1,,
Raw,27489527,27495924000000,,,-1291005707509171712,0.0,44.124870328232646,3.9252149081001906,14.992506417028668,4951,8,0.0,15,390003365125118,21,26.3,-139.076171875,0.11870000511407852,0,0.0,0.0,,,,,0,,1,,
Raw,27489527,27495924000000,,,-1291005707509171712,0.0,44.124870328232646,3.9252149081001906,14.992506417028668,4951,9,0.0,15,390003357611941,6,38.2,-104.16048431396484,0.04560000076889992,0,0.0,0.0,,,,,0,,1,,
Raw,27489527,27495924000000,,,-1291005707509171712,0.0,44.124870328232646,3.9252149081001906,14.992506417028668,4951,21,0.0,15,390003357985001,81,16.1,-569.40625,1.2820000648498535,0,0.0,0.0,,,,,0,,1,,
Raw,27489527,27495924000000,,,-1291005707509171712,0.0,44.124870328232646,3.9252149081001906,14.992506417028668,4951,27,0.0,15,390003365059872,1435,14.0,311.168212890625,8.084000587463379,0,0.0,0.0,,,,,0,,1,,
Raw,27489527,27495924000000,,,-1291005707509171712,0.0,44.124870328232646,3.9252149081001906,14.992506417028668,4951,3,0.0,783,389989311542342,23,26.5,-5.223474502563477,1.2450000047683716,0,0.0,0.0,,,,,0,,5,,
Raw,27489527,27495924000000,,,-1291005707509171712,0.0,44.124870328232646,3.9252149081001906,14.992506417028668,4951,6,0.0,15,389989310332777,27,24.7,249.7473602294922,0.5914999842643738,0,0.0,0.0,,,,,0,,5,,
Raw,27489528,27495924000000,,,-1291005707509171712,0.0,44.124870328232646,3.9252149081001906,14.992506417028668,4951,9,0.0,15,389989313082746,35,22.0,154.32293701171875,0.6859999895095825,0,0.0,0.0,,,,,0,,5,,
Raw,27489528,27495924000000,,,-1291005707509171712,0.0,44.124870328232646,3.9252149081001906,14.992506417028668,4951,10,0.0,15,389989307584871,31,23.1,29.526071548461914,0.6270000338554382,0,0.0,0.0,,,,,0,,5,,
Raw,27489528,27495924000000,,,-1291005707509171712,0.0,44.124870328232646,3.9252149081001906,14.992506417028668,4951,11,0.0,15,389989348871656,27,24.4,-602.0054321289062,0.5885000228881836,0,0.0,0.0,,,,,0,,5,,
Raw,27489528,27495924000000,,,-1291005707509171712,0.0,44.124870328232646,3.9252149081001906,14.992506417028668,4951,16,0.0,15,389989309327763,14,30.0,265.135009765625,0.03930000215768814,0,0.0,0.0,,,,,0,,5,,
Raw,27489528,27495924000000,,,-1291005707509171712,0.0,44.124870328232646,3.9252149081001906,14.992506417028668,4951,25,0.0,15,389989345482055,4,42.3,-466.5254211425781,0.02630000188946724,0,0.0,0.0,,,,,0,,5,,
NMEA,$GLGSV,3,1,09,66,06,307,33,86,40,182,12,76,07,316,27,65,14,247,20*6C,1606997984447
NMEA,$GLGSV,3,2,09,85,70,081,15,72,06,208,18,74,33,073,,73,00,000,*69,1606997984448
NMEA,$GLGSV,3,3,09,84,18,029,*52,1606997984448
NMEA,$GAGSV,2,1,07,02,22,305,,03,32,254,,05,22,196,,08,11,305,*6C,1606997984448
NMEA,$GAGSV,2,2,07,24,27,068,,25,49,001,,36,39,168,*59,1606997984448
NMEA,$PQGSV,1,1,03,194,62,050,18,193,16,167,,195,69,092,,0,5*68,1606997984449
NMEA,$PQGSV,4,1,16,03,59,202,26,06,48,192,24,09,61,241,22,10,45,305,22,0,4*6B,1606997984449
NMEA,$PQGSV,4,2,16,11,18,206,24,16,49,196,29,25,09,310,43,01,52,129,,0,4*69,1606997984449
NMEA,$PQGSV,4,3,16,02,40,239,,04,37,113,,05,16,255,,07,56,345,,0,4*60,1606997984449
NMEA,$PQGSV,4,4,16,08,18,165,,12,69,184,,13,07,185,,14,09,232,,0,4*68,1606997984450
NMEA,$GNGSA,A,3,04,07,08,09,21,,,,,,,,2.4,2.2,0.9,1*3F,1606997984450
NMEA,$GNGSA,A,2,65,66,76,,,,,,,,,,2.4,2.2,0.9,2*3E,1606997984450
NMEA,$PQGSA,A,3,10,11,16,25,,,,,,,,,2.4,2.2,0.9,4*32,1606997984451
NMEA,$GNVTG,,T,,M,0.0,N,0.0,K,A*3D,1606997984451
NMEA,$GNRMC,121945.00,A,2255.525127,N,12017.679066,E,0.0,,031220,2.8,W,A*1E,1606997984452
NMEA,$GNGGA,121945.00,2255.525127,N,12017.679066,E,1,12,2.2,29.2,M,17.5,M,,*4A,1606997984452
Fix,gps,22.925419,120.294651,46.656006,0.000000,4.288000,1606997986000
NMEA,$GPGSV,3,1,12,01,04,188,17,04,47,239,33,07,12,319,36,08,66,248,26*7D,1606997985444
NMEA,$GPGSV,3,2,12,09,31,288,38,11,00,000,27,21,25,172,16,27,66,016,14*7C,1606997985445
NMEA,$GPGSV,3,3,12,16,38,033,,18,00,000,,26,20,064,,31,13,126,*7E,1606997985445
NMEA,$GLGSV,3,1,09,66,06,307,33,86,40,182,12,76,07,316,30,65,14,247,19*60,1606997985445
NMEA,$GLGSV,3,2,09,85,70,081,15,72,06,208,20,74,33,073,,73,00,000,*62,1606997985445
NMEA,$GLGSV,3,3,09,84,18,029,*52,1606997985446
NMEA,$GAGSV,2,1,07,02,22,305,,03,32,254,,05,22,196,,08,11,305,*6C,1606997985447
NMEA,$GAGSV,2,2,07,24,27,068,,25,49,001,,36,39,168,*59,1606997985447
NMEA,$PQGSV,1,1,03,194,62,050,20,193,16,167,,195,69,092,,0,5*63,1606997985448
NMEA,$PQGSV,4,1,16,03,59,202,27,06,48,192,25,09,61,241,22,10,45,305,23,0,4*6A,1606997985448
NMEA,$PQGSV,4,2,16,11,18,206,24,16,49,196,30,25,09,310,42,01,52,129,,0,4*60,1606997985449
NMEA,$PQGSV,4,3,16,02,40,239,,04,37,113,,05,16,255,,07,56,345,,0,4*60,1606997985449
NMEA,$PQGSV,4,4,16,08,18,165,,12,69,184,,13,07,185,,14,09,232,,0,4*68,1606997985449
NMEA,$GNGSA,A,3,04,07,08,09,,,,,,,,,2.3,2.1,0.8,1*39,1606997985450
NMEA,$GNGSA,A,2,65,66,76,,,,,,,,,,2.3,2.1,0.8,2*3B,1606997985450
Raw,27490557,27496924000000,,,-1291005707509171712,0.0,40.472066757502034,2.8803358998396305,13.489900335113408,4951,2,0.0,207,55186353697352,12,32.4,-53.68163299560547,0.24340000748634338,0,0.0,0.0,,,,,0,,3,,
Raw,27490557,27496924000000,,,-1291005707509171712,0.0,40.472066757502034,2.8803358998396305,13.489900335113408,4951,22,0.0,207,55186363858560,1902,11.9,-664.8660888671875,9.31100082397461,0,0.0,0.0,,,,,0,,3,,
Raw,27490558,27496924000000,,,-1291005707509171712,0.0,40.472066757502034,2.8803358998396305,13.489900335113408,4951,12,0.0,207,55186353885368,16,29.5,-467.68328857421875,0.24619999527931213,0,0.0,0.0,,,,,0,,3,,
Raw,27490558,27496924000000,,,-1291005707509171712,0.0,40.472066757502034,2.8803358998396305,13.489900335113408,4951,1,0.0,207,55186356212361,61,18.5,462.915771484375,1.220500111579895,0,0.0,0.0,,,,,0,,3,,
Raw,27490558,27496924000000,,,-1291005707509171712,0.0,40.472066757502034,2.8803358998396305,13.489900335113408,4951,21,0.0,207,55186368203929,1289,14.5,32.34787368774414,8.948500633239746,0,0.0,0.0,,,,,0,,3,,
Raw,27490559,27496924000000,,,-1291005707509171712,0.0,40.472066757502034,2.8803358998396305,13.489900335113408,4951,8,0.0,207,55186353163918,61,18.6,579.9769287109375,1.2160000801086426,0,0.0,0.0,,,,,0,,3,,
Raw,27490559,27496924000000,,,-1291005707509171712,0.0,40.472066757502034,2.8803358998396305,13.489900335113408,4951,1,0.0,15,390004349946774,999,16.7,-654.0203247070312,8.530000686645508,0,0.0,0.0,,,,,0,,1,,
Raw,27490560,27496924000000,,,-1291005707509171712,0.0,40.472066757502034,2.8803358998396305,13.489900335113408,4951,4,0.0,15,390004361233626,11,33.2,279.1276550292969,0.024400001391768456,0,0.0,0.0,,,,,0,,1,,
Raw,27490561,27496924000000,,,-1291005707509171712,0.0,40.472066757502034,2.8803358998396305,13.489900335113408,4951,7,0.0,15,390004350419276,10,34.9,-624.7203979492188,0.03710000216960907,0,0.0,0.0,,,,,0,,1,,
Raw,27490561,27496924000000,,,-1291005707509171712,0.0,40.472066757502034,2.8803358998396305,13.489900335113408,4951,8,0.0,15,390004365125554,21,26.0,-138.21408081054688,0.11870000511407852,0,0.0,0.0,,,,,0,,1,,
Raw,27490562,27496924000000,,,-1291005707509171712,0.0,40.472066757502034,2.8803358998396305,13.489900335113408,4951,9,0.0,15,390004357612295,8,36.9,-104.24481964111328,0.04670000076293945,0,0.0,0.0,,,,,0,,1,,
Raw,27490562,27496924000000,,,-1291005707509171712,0.0,40.472066757502034,2.8803358998396305,13.489900335113408,4951,21,0.0,15,390004357987140,70,17.4,-570.2530517578125,1.1920000314712524,0,0.0,0.0,,,,,0,,1,,
Raw,27490563,27496924000000,,,-1291005707509171712,0.0,40.472066757502034,2.8803358998396305,13.489900335113408,4951,27,0.0,15,390004365058810,1461,13.8,311.3204345703125,8.834000587463379,0,0.0,0.0,,,,,0,,1,,
Raw,27490564,27496924000000,,,-1291005707509171712,0.0,40.472066757502034,2.8803358998396305,13.489900335113408,4951,3,0.0,783,389990311542359,35,26.5,-5.223474502563477,2.745000123977661,0,0.0,0.0,,,,,0,,5,,
Raw,27490564,27496924000000,,,-1291005707509171712,0.0,40.472066757502034,2.8803358998396305,13.489900335113408,4951,6,0.0,15,389990310331947,27,24.5,249.37289428710938,0.5914999842643738,0,0.0,0.0,,,,,0,,5,,
Raw,27490565,27496924000000,,,-1291005707509171712,0.0,40.472066757502034,2.8803358998396305,13.489900335113408,4951,9,0.0,15,389990313082194,31,23.1,153.68919372558594,0.6360000371932983,0,0.0,0.0,,,,,0,,5,,
Raw,27490566,27496924000000,,,-1291005707509171712,0.0,40.472066757502034,2.8803358998396305,13.489900335113408,4951,10,0.0,15,389990307584760,35,22.0,29.372438430786133,0.6769999861717224,0,0.0,0.0,,,,,0,,5,,
Raw,27490566,27496924000000,,,-1291005707509171712,0.0,40.472066757502034,2.8803358998396305,13.489900335113408,4951,11,0.0,15,389990348873686,27,24.2,-602.40869140625,0.5885000228881836,0,0.0,0.0,,,,,0,,5,,
Raw,27490567,27496924000000,,,-1291005707509171712,0.0,40.472066757502034,2.8803358998396305,13.489900335113408,4951,16,0.0,15,389990309326882,16,29.8,264.94097900390625,0.04020000249147415,0,0.0,0.0,,,,,0,,5,,
Raw,27490567,27496924000000,,,-1291005707509171712,0.0,40.472066757502034,2.8803358998396305,13.489900335113408,4951,25,0.0,15,389990345483609,5,41.8,-466.7835388183594,0.026600001379847527,0,0.0,0.0,,,,,0,,5,,
NMEA,$PQGSA,A,3,10,11,16,25,,,,,,,,,2.3,2.1,0.8,4*37,1606997985450
NMEA,$GNVTG,,T,,M,0.0,N,0.0,K,A*3D,1606997985450
NMEA,$GNRMC,121946.00,A,2255.525127,N,12017.679061,E,0.0,,031220,2.8,W,A*1A,1606997985450
NMEA,$GNGGA,121946.00,2255.525127,N,12017.679061,E,1,11,2.1,29.2,M,17.5,M,,*4E,1606997985451
Fix,gps,22.925419,120.294651,46.658203,0.000000,4.288000,1606997987000
NMEA,$GPGSV,3,1,12,01,04,188,17,04,47,239,33,07,12,319,35,08,66,248,26*7E,1606997986445
NMEA,$GPGSV,3,2,12,09,31,288,37,11,00,000,27,21,25,172,17,27,66,016,14*72,1606997986445
NMEA,$GPGSV,3,3,12,16,38,033,,18,00,000,,26,20,064,,31,13,126,*7E,1606997986445
NMEA,$GLGSV,3,1,09,66,06,307,32,86,40,182,12,76,07,316,30,65,14,247,19*61,1606997986446
NMEA,$GLGSV,3,2,09,85,70,081,15,72,06,208,19,74,33,073,,73,00,000,*68,1606997986446
NMEA,$GLGSV,3,3,09,84,18,029,*52,1606997986448
NMEA,$GAGSV,2,1,07,02,22,305,,03,32,254,,05,22,196,,08,11,305,*6C,1606997986448
NMEA,$GAGSV,2,2,07,24,27,068,,25,49,001,,36,39,168,*59,1606997986448
NMEA,$PQGSV,1,1,03,194,62,050,19,193,16,167,,195,69,092,,0,5*69,1606997986448
NMEA,$PQGSV,4,1,16,03,59,202,27,06,48,192,25,09,61,241,23,10,45,305,22,0,4*6A,1606997986448
NMEA,$PQGSV,4,2,16,11,18,206,24,16,49,196,30,25,09,310,42,01,52,129,,0,4*60,1606997986450
NMEA,$PQGSV,4,3,16,02,40,239,,04,37,113,,05,16,255,,07,56,345,,0,4*60,1606997986450
NMEA,$PQGSV,4,4,16,08,18,165,,12,69,184,,13,07,185,,14,09,232,,0,4*68,1606997986451
NMEA,$GNGSA,A,3,04,07,08,09,,,,,,,,,2.3,2.1,0.8,1*39,1606997986452
NMEA,$GNGSA,A,3,65,66,72,76,,,,,,,,,2.3,2.1,0.8,2*3F,1606997986452
NMEA,$PQGSA,A,3,10,11,16,25,,,,,,,,,2.3,2.1,0.8,4*37,1606997986452
NMEA,$GNVTG,,T,,M,0.0,N,0.0,K,A*3D,1606997986453
NMEA,$GNRMC,121947.00,A,2255.525127,N,12017.679057,E,0.0,,031220,2.8,W,A*1E,1606997986453
NMEA,$GNGGA,121947.00,2255.525127,N,12017.679057,E,1,12,2.1,29.2,M,17.5,M,,*49,1606997986453
Raw,27491557,27497924000000,,,-1291005707509171712,0.0,41.79996540187858,1.7985259345912408,14.923678220066742,4951,2,0.0,207,55187353697522,13,31.8,-55.090553283691406,0.24469999969005585,0,0.0,0.0,,,,,0,,3,,
Raw,27491557,27497924000000,,,-1291005707509171712,0.0,41.79996540187858,1.7985259345912408,14.923678220066742,4951,22,0.0,207,55187363860810,1697,12.2,-665.7371215820312,9.931000709533691,0,0.0,0.0,,,,,0,,3,,
Raw,27491558,27497924000000,,,-1291005707509171712,0.0,41.79996540187858,1.7985259345912408,14.923678220066742,4951,12,0.0,207,55187353886945,12,32.7,-470.8226318359375,0.5559999942779541,0,0.0,0.0,,,,,0,,3,,
Raw,27491558,27497924000000,,,-1291005707509171712,0.0,41.79996540187858,1.7985259345912408,14.923678220066742,4951,1,0.0,207,55187356210427,40,21.3,461.2601623535156,1.0104999542236328,0,0.0,0.0,,,,,0,,3,,
Raw,27491558,27497924000000,,,-1291005707509171712,0.0,41.79996540187858,1.7985259345912408,14.923678220066742,4951,21,0.0,207,55187368203832,1494,13.4,32.29180908203125,9.818500518798828,0,0.0,0.0,,,,,0,,3,,
Raw,27491559,27497924000000,,,-1291005707509171712,0.0,41.79996540187858,1.7985259345912408,14.923678220066742,4951,8,0.0,207,55187353161841,53,19.4,579.8181762695312,1.1360000371932983,0,0.0,0.0,,,,,0,,3,,
Raw,27491559,27497924000000,,,-1291005707509171712,0.0,41.79996540187858,1.7985259345912408,14.923678220066742,4951,1,0.0,15,390005349948962,1027,16.6,-654.2200927734375,9.280000686645508,0,0.0,0.0,,,,,0,,1,,
Raw,27491560,27497924000000,,,-1291005707509171712,0.0,41.79996540187858,1.7985259345912408,14.923678220066742,4951,4,0.0,15,390005361232692,9,35.2,277.71533203125,0.023100001737475395,0,0.0,0.0,,,,,0,,1,,
Raw,27491560,27497924000000,,,-1291005707509171712,0.0,41.79996540187858,1.7985259345912408,14.923678220066742,4951,7,0.0,15,390005350421367,9,35.5,-626.2542724609375,0.03660000115633011,0,0.0,0.0,,,,,0,,1,,
Raw,27491561,27497924000000,,,-1291005707509171712,0.0,41.79996540187858,1.7985259345912408,14.923678220066742,4951,8,0.0,15,390005365126042,19,27.9,-140.64605712890625,0.5040000081062317,0,0.0,0.0,,,,,0,,1,,
Raw,27491561,27497924000000,,,-1291005707509171712,0.0,41.79996540187858,1.7985259345912408,14.923678220066742,4951,9,0.0,15,390005357612641,10,34.8,-105.683349609375,0.047600001096725464,0,0.0,0.0,,,,,0,,1,,
Raw,27491561,27497924000000,,,-1291005707509171712,0.0,41.79996540187858,1.7985259345912408,14.923678220066742,4951,21,0.0,15,390005357989112,53,19.3,-572.194091796875,1.0220000743865967,0,0.0,0.0,,,,,0,,1,,
Raw,27491562,27497924000000,,,-1291005707509171712,0.0,41.79996540187858,1.7985259345912408,14.923678220066742,4951,27,0.0,15,390005365057786,1489,13.9,310.92083740234375,9.584000587463379,0,0.0,0.0,,,,,0,,1,,
Raw,27491562,27497924000000,,,-1291005707509171712,0.0,41.79996540187858,1.7985259345912408,14.923678220066742,4951,25,0.0,15,389991345485172,5,41.2,-468.3198547363281,0.026600001379847527,0,0.0,0.0,,,,,0,,5,,
Fix,gps,22.925419,120.294651,46.660339,0.000000,3.216000,1606997988000
NMEA,$GPGSV,3,1,12,01,04,188,17,04,47,239,35,07,12,319,36,08,66,248,28*75,1606997987444
NMEA,$GPGSV,3,2,12,09,31,288,35,11,00,000,27,21,25,172,19,27,66,016,14*7E,1606997987444
NMEA,$GPGSV,3,3,12,16,38,033,,18,00,000,,26,20,064,,31,13,126,*7E,1606997987445
NMEA,$GLGSV,3,1,09,66,06,307,32,86,40,182,12,76,07,316,33,65,14,247,21*69,1606997987446
NMEA,$GLGSV,3,2,09,85,70,081,13,72,06,208,19,74,33,073,,73,00,000,*6E,1606997987446
NMEA,$GLGSV,3,3,09,84,18,029,*52,1606997987446
NMEA,$GAGSV,2,1,07,02,22,305,,03,32,254,,05,22,196,,08,11,305,*6C,1606997987447
NMEA,$GAGSV,2,2,07,24,27,068,,25,49,001,,36,39,168,*59,1606997987447
NMEA,$PQGSV,1,1,03,194,62,050,19,193,16,167,,195,69,092,,0,5*69,1606997987448
NMEA,$PQGSV,4,1,16,03,59,202,27,05,16,255,29,06,48,192,28,09,61,241,24,0,4*6D,1606997987448
NMEA,$PQGSV,4,2,16,10,45,305,21,11,18,206,26,16,49,196,32,25,09,310,41,0,4*6A,1606997987448
NMEA,$PQGSV,4,3,16,01,52,129,,02,40,239,,04,37,113,,07,56,345,,0,4*6C,1606997987448
NMEA,$PQGSV,4,4,16,08,18,165,,12,69,184,,13,07,185,,14,09,232,,0,4*68,1606997987448
NMEA,$GNGSA,A,3,04,07,08,09,,,,,,,,,2.3,2.1,0.8,1*39,1606997987449
NMEA,$GNGSA,A,3,65,66,72,76,,,,,,,,,2.3,2.1,0.8,2*3F,1606997987449
NMEA,$PQGSA,A,3,10,11,16,25,,,,,,,,,2.3,2.1,0.8,4*37,1606997987449
NMEA,$GNVTG,,T,,M,0.0,N,0.0,K,A*3D,1606997987449
NMEA,$GNRMC,121948.00,A,2255.525127,N,12017.679053,E,0.0,,031220,2.8,W,A*15,1606997987450
NMEA,$GNGGA,121948.00,2255.525127,N,12017.679053,E,1,12,2.1,29.2,M,17.5,M,,*42,1606997987450
Raw,27492544,27498924000000,,,-1291005707509171712,0.0,46.08699236996472,-2.6089118263876774,21.479159581432484,4951,2,0.0,207,55188353697724,13,31.1,-54.925113677978516,0.24469999969005585,0,0.0,0.0,,,,,0,,3,,
Raw,27492545,27498924000000,,,-1291005707509171712,0.0,46.08699236996472,-2.6089118263876774,21.479159581432484,4951,22,0.0,207,55188363862991,367,12.2,-665.9900512695312,11.056000709533691,0,0.0,0.0,,,,,0,,3,,
Raw,27492545,27498924000000,,,-1291005707509171712,0.0,46.08699236996472,-2.6089118263876774,21.479159581432484,4951,12,0.0,207,55188353888543,21,26.4,-470.566162109375,0.33070001006126404,0,0.0,0.0,,,,,0,,3,,
Raw,27492546,27498924000000,,,-1291005707509171712,0.0,46.08699236996472,-2.6089118263876774,21.479159581432484,4951,1,0.0,207,55188356209040,24,25.8,461.74560546875,0.6057999730110168,0,0.0,0.0,,,,,0,,3,,
Raw,27492546,27498924000000,,,-1291005707509171712,0.0,46.08699236996472,-2.6089118263876774,21.479159581432484,4951,21,0.0,207,55188368203714,348,13.4,32.24509048461914,10.943500518798828,0,0.0,0.0,,,,,0,,3,,
Raw,27492547,27498924000000,,,-1291005707509171712,0.0,46.08699236996472,-2.6089118263876774,21.479159581432484,4951,8,0.0,207,55188353159729,53,19.7,580.415771484375,1.1360000371932983,0,0.0,0.0,,,,,0,,3,,
Raw,27492547,27498924000000,,,-1291005707509171712,0.0,46.08699236996472,-2.6089118263876774,21.479159581432484,4951,1,0.0,15,390006349951139,296,16.4,-654.3342895507812,10.495000839233398,0,0.0,0.0,,,,,0,,1,,
Raw,27492547,27498924000000,,,-1291005707509171712,0.0,46.08699236996472,-2.6089118263876774,21.479159581432484,4951,4,0.0,15,390006361231770,9,35.4,277.84375,0.023100001737475395,0,0.0,0.0,,,,,0,,1,,
Raw,27492548,27498924000000,,,-1291005707509171712,0.0,46.08699236996472,-2.6089118263876774,21.479159581432484,4951,7,0.0,15,390006350423464,10,34.1,-626.2454223632812,0.03710000216960907,0,0.0,0.0,,,,,0,,1,,
Raw,27492548,27498924000000,,,-1291005707509171712,0.0,46.08699236996472,-2.6089118263876774,21.479159581432484,4951,8,0.0,15,390006365126567,17,28.9,-140.4695587158203,0.040800001472234726,0,0.0,0.0,,,,,0,,1,,
Raw,27492548,27498924000000,,,-1291005707509171712,0.0,46.08699236996472,-2.6089118263876774,21.479159581432484,4951,9,0.0,15,390006357612995,9,35.7,-105.57266235351562,0.0471000038087368,0,0.0,0.0,,,,,0,,1,,
Raw,27492549,27498924000000,,,-1291005707509171712,0.0,46.08699236996472,-2.6089118263876774,21.479159581432484,4951,21,0.0,15,390006357990880,46,20.1,-571.5756225585938,0.9419999718666077,0,0.0,0.0,,,,,0,,1,,
Raw,27492549,27498924000000,,,-1291005707509171712,0.0,46.08699236996472,-2.6089118263876774,21.479159581432484,4951,27,0.0,15,390006365056793,46,20.8,308.9417724609375,1.090999960899353,0,0.0,0.0,,,,,0,,1,,
Raw,27492550,27498924000000,,,-1291005707509171712,0.0,46.08699236996472,-2.6089118263876774,21.479159581432484,4951,3,0.0,783,389992311542394,33,27.0,-4.589743614196777,2.705000162124634,0,0.0,0.0,,,,,0,,5,,
Raw,27492550,27498924000000,,,-1291005707509171712,0.0,46.08699236996472,-2.6089118263876774,21.479159581432484,4951,5,0.0,783,389992299809929,27,28.8,2.9574081897735596,2.320000171661377,0,0.0,0.0,,,,,0,,5,,
Raw,27492550,27498924000000,,,-1291005707509171712,0.0,46.08699236996472,-2.6089118263876774,21.479159581432484,4951,6,0.0,15,389992310330278,27,24.1,248.74876403808594,0.5914999842643738,0,0.0,0.0,,,,,0,,5,,
Raw,27492551,27498924000000,,,-1291005707509171712,0.0,46.08699236996472,-2.6089118263876774,21.479159581432484,4951,9,0.0,15,389992313081186,31,23.6,152.53695678710938,0.6360000371932983,0,0.0,0.0,,,,,0,,5,,
Raw,27492551,27498924000000,,,-1291005707509171712,0.0,46.08699236996472,-2.6089118263876774,21.479159581432484,4951,10,0.0,15,389992307584605,54,20.5,27.096773147583008,2.2970001697540283,0,0.0,0.0,,,,,0,,5,,
Raw,27492552,27498924000000,,,-1291005707509171712,0.0,46.08699236996472,-2.6089118263876774,21.479159581432484,4951,11,0.0,15,389992348877698,24,25.7,-603.5528564453125,0.3937999904155731,0,0.0,0.0,,,,,0,,5,,
Raw,27492552,27498924000000,,,-1291005707509171712,0.0,46.08699236996472,-2.6089118263876774,21.479159581432484,4951,16,0.0,15,389992309325123,17,28.4,263.4787292480469,0.046800002455711365,0,0.0,0.0,,,,,0,,5,,
Raw,27492552,27498924000000,,,-1291005707509171712,0.0,46.08699236996472,-2.6089118263876774,21.479159581432484,4951,25,0.0,15,389992345486732,5,41.4,-468.2922668457031,0.026600001379847527,0,0.0,0.0,,,,,0,,5,,
Fix,gps,22.925419,120.294651,46.662170,0.000000,3.216000,1606997989000
NMEA,$GPGSV,3,1,12,01,04,188,16,04,47,239,35,07,12,319,34,08,66,248,29*77,1606997988445
NMEA,$GPGSV,3,2,12,09,31,288,36,11,00,000,27,21,25,172,20,27,66,016,21*71,1606997988445
NMEA,$GPGSV,3,3,12,16,38,033,,18,00,000,,26,20,064,,31,13,126,*7E,1606997988446
NMEA,$GLGSV,3,1,09,66,06,307,31,86,40,182,12,76,07,316,26,65,14,247,26*69,1606997988446
NMEA,$GLGSV,3,2,09,85,70,081,13,72,06,208,20,74,33,073,,73,00,000,*64,1606997988448
NMEA,$GLGSV,3,3,09,84,18,029,*52,1606997988450
NMEA,$GAGSV,2,1,07,02,22,305,,03,32,254,,05,22,196,,08,11,305,*6C,1606997988450
NMEA,$GAGSV,2,2,07,24,27,068,,25,49,001,,36,39,168,*59,1606997988450
NMEA,$PQGSV,1,1,03,194,62,050,21,193,16,167,,195,69,092,,0,5*62,1606997988451
NMEA,$PQGSV,4,1,16,03,59,202,27,05,16,255,29,06,48,192,24,09,61,241,24,0,4*61,1606997988451
NMEA,$PQGSV,4,2,16,10,45,305,21,11,18,206,26,16,49,196,28,25,09,310,41,0,4*61,1606997988452
NMEA,$PQGSV,4,3,16,01,52,129,,02,40,239,,04,37,113,,07,56,345,,0,4*6C,1606997988453
NMEA,$PQGSV,4,4,16,08,18,165,,12,69,184,,13,07,185,,14,09,232,,0,4*68,1606997988455
NMEA,$GNGSA,A,3,04,07,08,09,,,,,,,,,1.4,1.2,0.8,1*3D,1606997988460
NMEA,$GNGSA,A,3,65,66,72,76,,,,,,,,,1.4,1.2,0.8,2*3B,1606997988460
NMEA,$PQGSA,A,3,10,11,16,25,,,,,,,,,1.4,1.2,0.8,4*33,1606997988460
NMEA,$GNVTG,,T,,M,0.0,N,0.0,K,A*3D,1606997988460
NMEA,$GNRMC,121949.00,A,2255.525127,N,12017.679049,E,0.0,,031220,2.8,W,A*1F,1606997988461
NMEA,$GNGGA,121949.00,2255.525127,N,12017.679049,E,1,12,1.2,29.2,M,17.5,M,,*48,1606997988468
Raw,27493927,27499924000000,,,-1291005707509171712,0.0,41.93872882751748,-2.2616320750682224,16.936476314139657,4951,2,0.0,207,55189353697891,12,32.5,-53.80443572998047,0.24340000748634338,0,0.0,0.0,,,,,0,,3,,
Raw,27493927,27499924000000,,,-1291005707509171712,0.0,41.93872882751748,-2.2616320750682224,16.936476314139657,4951,22,0.0,207,55189363865213,440,12.2,-665.9900512695312,12.556000709533691,0,0.0,0.0,,,,,0,,3,,
Raw,27493928,27499924000000,,,-1291005707509171712,0.0,41.93872882751748,-2.2616320750682224,16.936476314139657,4951,12,0.0,207,55189353890010,16,29.6,-469.7086486816406,0.24619999527931213,0,0.0,0.0,,,,,0,,3,,
Raw,27493928,27499924000000,,,-1291005707509171712,0.0,41.93872882751748,-2.2616320750682224,16.936476314139657,4951,1,0.0,207,55189356207371,46,20.0,463.0467224121094,1.0705000162124634,0,0.0,0.0,,,,,0,,3,,
Raw,27493929,27499924000000,,,-1291005707509171712,0.0,41.93872882751748,-2.2616320750682224,16.936476314139657,4951,21,0.0,207,55189368203607,420,13.4,32.24509048461914,12.443500518798828,0,0.0,0.0,,,,,0,,3,,
Raw,27493929,27499924000000,,,-1291005707509171712,0.0,41.93872882751748,-2.2616320750682224,16.936476314139657,4951,8,0.0,207,55189353157833,81,16.7,581.2094116210938,1.3860000371932983,0,0.0,0.0,,,,,0,,3,,
Raw,27493929,27499924000000,,,-1291005707509171712,0.0,41.93872882751748,-2.2616320750682224,16.936476314139657,4951,1,0.0,15,390007349953316,62,18.2,-654.486572265625,1.5549999475479126,0,0.0,0.0,,,,,0,,1,,
Raw,27493930,27499924000000,,,-1291005707509171712,0.0,41.93872882751748,-2.2616320750682224,16.936476314139657,4951,4,0.0,15,390007361230816,17,28.3,278.40350341796875,0.03480000048875809,0,0.0,0.0,,,,,0,,1,,
Raw,27493930,27499924000000,,,-1291005707509171712,0.0,41.93872882751748,-2.2616320750682224,16.936476314139657,4951,7,0.0,15,390007350425536,11,33.2,-625.3328247070312,0.03790000081062317,0,0.0,0.0,,,,,0,,1,,
Raw,27493931,27499924000000,,,-1291005707509171712,0.0,41.93872882751748,-2.2616320750682224,16.936476314139657,4951,8,0.0,15,390007365126911,53,19.8,-139.40914916992188,0.9239999651908875,0,0.0,0.0,,,,,0,,1,,
Raw,27493931,27499924000000,,,-1291005707509171712,0.0,41.93872882751748,-2.2616320750682224,16.936476314139657,4951,9,0.0,15,390007357613331,5,40.8,-104.47999572753906,0.04490000009536743,0,0.0,0.0,,,,,0,,1,,
Raw,27493932,27499924000000,,,-1291005707509171712,0.0,41.93872882751748,-2.2616320750682224,16.936476314139657,4951,21,0.0,15,390007357992785,53,19.0,-570.9381103515625,1.0220000743865967,0,0.0,0.0,,,,,0,,1,,
Raw,27493932,27499924000000,,,-1291005707509171712,0.0,41.93872882751748,-2.2616320750682224,16.936476314139657,4951,27,0.0,15,390007365055762,52,20.8,308.9417724609375,2.069000005722046,0,0.0,0.0,,,,,0,,1,,
Raw,27493932,27499924000000,,,-1291005707509171712,0.0,41.93872882751748,-2.2616320750682224,16.936476314139657,4951,3,0.0,783,389993311542413,23,26.1,-6.174069881439209,1.2450000047683716,0,0.0,0.0,,,,,0,,5,,
Raw,27493933,27499924000000,,,-1291005707509171712,0.0,41.93872882751748,-2.2616320750682224,16.936476314139657,4951,5,0.0,783,389993299809919,47,28.8,2.9574081897735596,3.820000171661377,0,0.0,0.0,,,,,0,,5,,
Raw,27493933,27499924000000,,,-1291005707509171712,0.0,41.93872882751748,-2.2616320750682224,16.936476314139657,4951,6,0.0,15,389993310329394,35,22.4,248.92160034179688,0.6814999580383301,0,0.0,0.0,,,,,0,,5,,
Raw,27493934,27499924000000,,,-1291005707509171712,0.0,41.93872882751748,-2.2616320750682224,16.936476314139657,4951,9,0.0,15,389993313080683,46,20.4,153.37234497070312,0.8059999942779541,0,0.0,0.0,,,,,0,,5,,
Raw,27493934,27499924000000,,,-1291005707509171712,0.0,41.93872882751748,-2.2616320750682224,16.936476314139657,4951,10,0.0,15,389993307584524,55,19.0,28.68109893798828,1.6069999933242798,0,0.0,0.0,,,,,0,,5,,
Raw,27493935,27499924000000,,,-1291005707509171712,0.0,41.93872882751748,-2.2616320750682224,16.936476314139657,4951,11,0.0,15,389993348879731,27,24.0,-602.6102905273438,0.5885000228881836,0,0.0,0.0,,,,,0,,5,,
Raw,27493935,27499924000000,,,-1291005707509171712,0.0,41.93872882751748,-2.2616320750682224,16.936476314139657,4951,16,0.0,15,389993309324229,17,28.3,264.4449768066406,0.046800002455711365,0,0.0,0.0,,,,,0,,5,,
Raw,27493935,27499924000000,,,-1291005707509171712,0.0,41.93872882751748,-2.2616320750682224,16.936476314139657,4951,25,0.0,15,389993345488287,6,38.9,-467.3985290527344,0.0276000015437603,0,0.0,0.0,,,,,0,,5,,
Fix,gps,22.925419,120.294651,46.664001,0.000000,4.288000,1606997990000
NMEA,$GPGSV,3,1,12,01,04,188,18,04,47,239,28,07,12,319,33,08,66,248,20*7B,1606997989446
NMEA,$GPGSV,3,2,12,09,31,288,41,11,00,000,25,21,25,172,19,27,66,016,21*79,1606997989446
NMEA,$GPGSV,3,3,12,16,38,033,,18,00,000,,26,20,064,,31,13,126,*7E,1606997989446
NMEA,$GLGSV,3,1,09,66,06,307,33,86,40,182,12,76,07,316,30,65,14,247,20*6A,1606997989446
NMEA,$GLGSV,3,2,09,85,70,081,13,72,06,208,17,74,33,073,,73,00,000,*60,1606997989447
NMEA,$GLGSV,3,3,09,84,18,029,*52,1606997989449
NMEA,$GAGSV,2,1,07,02,22,305,,03,32,254,,05,22,196,,08,11,305,*6C,1606997989455
NMEA,$GAGSV,2,2,07,24,27,068,,25,49,001,,36,39,168,*59,1606997989455
NMEA,$PQGSV,1,1,03,194,62,050,21,193,16,167,,195,69,092,,0,5*62,1606997989455
NMEA,$PQGSV,4,1,16,03,59,202,26,05,16,255,29,06,48,192,22,09,61,241,20,0,4*62,1606997989455
NMEA,$PQGSV,4,2,16,10,45,305,19,11,18,206,24,16,49,196,28,25,09,310,39,0,4*67,1606997989455
NMEA,$PQGSV,4,3,16,01,52,129,,02,40,239,,04,37,113,,07,56,345,,0,4*6C,1606997989456
NMEA,$PQGSV,4,4,16,08,18,165,,12,69,184,,13,07,185,,14,09,232,,0,4*68,1606997989456
NMEA,$GNGSA,A,3,04,07,08,09,21,27,,,,,,,1.4,1.2,0.8,1*3B,1606997989457
NMEA,$GNGSA,A,3,65,66,72,76,,,,,,,,,1.4,1.2,0.8,2*3B,1606997989457
NMEA,$PQGSA,A,3,10,11,16,25,,,,,,,,,1.4,1.2,0.8,4*33,1606997989457
NMEA,$GNVTG,,T,,M,0.0,N,0.0,K,A*3D,1606997989458
NMEA,$GNRMC,121950.00,A,2255.525126,N,12017.679047,E,0.0,,031220,2.8,W,A*18,1606997989458
NMEA,$GNGGA,121950.00,2255.525126,N,12017.679047,E,1,12,1.2,29.2,M,17.5,M,,*4F,1606997989459
Raw,27494550,27500924000000,,,-1291005707509171712,0.0,47.45112164528109,-0.48865059417722956,17.178525771895504,4951,2,0.0,207,55190353698083,19,27.7,-51.91905212402344,0.7160000205039978,0,0.0,0.0,,,,,0,,3,,
Raw,27494551,27500924000000,,,-1291005707509171712,0.0,47.45112164528109,-0.48865059417722956,17.178525771895504,4951,22,0.0,207,55190363867434,523,12.2,-665.9900512695312,14.056000709533691,0,0.0,0.0,,,,,0,,3,,
Raw,27494551,27500924000000,,,-1291005707509171712,0.0,47.45112164528109,-0.48865059417722956,17.178525771895504,4951,12,0.0,207,55190353891663,6,38.0,-468.3000793457031,0.23960000276565552,0,0.0,0.0,,,,,0,,3,,
Raw,27494552,27500924000000,,,-1291005707509171712,0.0,47.45112164528109,-0.48865059417722956,17.178525771895504,4951,1,0.0,207,55190356205987,35,22.6,465.0296630859375,0.950499951839447,0,0.0,0.0,,,,,0,,3,,
Raw,27494552,27500924000000,,,-1291005707509171712,0.0,47.45112164528109,-0.48865059417722956,17.178525771895504,4951,21,0.0,207,55190368203499,503,13.4,32.24509048461914,13.943500518798828,0,0.0,0.0,,,,,0,,3,,
Raw,27494553,27500924000000,,,-1291005707509171712,0.0,47.45112164528109,-0.48865059417722956,17.178525771895504,4951,8,0.0,207,55190353155894,90,16.7,581.2094116210938,2.886000156402588,0,0.0,0.0,,,,,0,,3,,
Raw,27494553,27500924000000,,,-1291005707509171712,0.0,47.45112164528109,-0.48865059417722956,17.178525771895504,4951,1,0.0,15,390008349955499,74,18.2,-654.486572265625,3.055000066757202,0,0.0,0.0,,,,,0,,1,,
Raw,27494554,27500924000000,,,-1291005707509171712,0.0,47.45112164528109,-0.48865059417722956,17.178525771895504,4951,4,0.0,15,390008361229861,53,19.8,280.8068542480469,0.9179999828338623,0,0.0,0.0,,,,,0,,1,,
Raw,27494554,27500924000000,,,-1291005707509171712,0.0,47.45112164528109,-0.48865059417722956,17.178525771895504,4951,7,0.0,15,390008350427626,6,39.4,-623.8379516601562,0.03460000082850456,0,0.0,0.0,,,,,0,,1,,
Raw,27494555,27500924000000,,,-1291005707509171712,0.0,47.45112164528109,-0.48865059417722956,17.178525771895504,4951,8,0.0,15,390008365127440,61,18.1,-137.19223022460938,1.0839999914169312,0,0.0,0.0,,,,,0,,1,,
Raw,27494555,27500924000000,,,-1291005707509171712,0.0,47.45112164528109,-0.48865059417722956,17.178525771895504,4951,9,0.0,15,390008357613681,13,31.7,-102.75629425048828,0.050700001418590546,0,0.0,0.0,,,,,0,,1,,
Raw,27494556,27500924000000,,,-1291005707509171712,0.0,47.45112164528109,-0.48865059417722956,17.178525771895504,4951,21,0.0,15,390008357994689,61,19.0,-570.9381103515625,2.5220000743865967,0,0.0,0.0,,,,,0,,1,,
Raw,27494556,27500924000000,,,-1291005707509171712,0.0,47.45112164528109,-0.48865059417722956,17.178525771895504,4951,27,0.0,15,390008365054732,68,20.8,308.9417724609375,3.569000005722046,0,0.0,0.0,,,,,0,,1,,
Raw,27494557,27500924000000,,,-1291005707509171712,0.0,47.45112164528109,-0.48865059417722956,17.178525771895504,4951,3,0.0,783,389994311542434,35,26.1,-6.174069881439209,2.745000123977661,0,0.0,0.0,,,,,0,,5,,
Raw,27494557,27500924000000,,,-1291005707509171712,0.0,47.45112164528109,-0.48865059417722956,17.178525771895504,4951,5,0.0,783,389994299809909,76,28.8,2.9574081897735596,5.320000171661377,0,0.0,0.0,,,,,0,,5,,
Raw,27494558,27500924000000,,,-1291005707509171712,0.0,47.45112164528109,-0.48865059417722956,17.178525771895504,4951,6,0.0,15,389994310328564,42,22.4,248.92160034179688,2.18149995803833,0,0.0,0.0,,,,,0,,5,,
Raw,27494558,27500924000000,,,-1291005707509171712,0.0,47.45112164528109,-0.48865059417722956,17.178525771895504,4951,9,0.0,15,389994313080091,70,17.2,155.407958984375,1.0160000324249268,0,0.0,0.0,,,,,0,,5,,
Raw,27494559,27500924000000,,,-1291005707509171712,0.0,47.45112164528109,-0.48865059417722956,17.178525771895504,4951,10,0.0,15,389994307584406,53,19.5,30.092586517333984,0.8569999933242798,0,0.0,0.0,,,,,0,,5,,
Raw,27494559,27500924000000,,,-1291005707509171712,0.0,47.45112164528109,-0.48865059417722956,17.178525771895504,4951,11,0.0,15,389994348881708,24,25.4,-600.9413452148438,0.3937999904155731,0,0.0,0.0,,,,,0,,5,,
Raw,27494560,27500924000000,,,-1291005707509171712,0.0,47.45112164528109,-0.48865059417722956,17.178525771895504,4951,16,0.0,15,389994309323329,27,24.0,266.8580627441406,0.5900000333786011,0,0.0,0.0,,,,,0,,5,,
Raw,27494561,27500924000000,,,-1291005707509171712,0.0,47.45112164528109,-0.48865059417722956,17.178525771895504,4951,25,0.0,15,389994345489848,8,36.4,-465.9412536621094,0.028700001537799835,0,0.0,0.0,,,,,0,,5,,
Fix,gps,22.925419,120.294651,46.663391,0.000000,3.216000,1606997991000
NMEA,$GPGSV,3,1,12,01,04,188,18,04,47,239,20,07,12,319,39,08,66,248,18*72,1606997990448
NMEA,$GPGSV,3,2,12,09,31,288,32,11,00,000,20,21,25,172,19,27,66,016,21*78,1606997990448
NMEA,$GPGSV,3,3,12,16,38,033,,18,00,000,,26,20,064,,31,13,126,*7E,1606997990448
NMEA,$GLGSV,3,1,09,66,06,307,28,86,40,182,12,76,07,316,38,65,14,247,23*6B,1606997990448
NMEA,$GLGSV,3,2,09,85,70,081,13,72,06,208,17,74,33,073,,73,00,000,*60,1606997990449
NMEA,$GLGSV,3,3,09,84,18,029,*52,1606997990450
NMEA,$GAGSV,2,1,07,02,22,305,,03,32,254,,05,22,196,,08,11,305,*6C,1606997990450
NMEA,$GAGSV,2,2,07,24,27,068,,25,49,001,,36,39,168,*59,1606997990452
NMEA,$PQGSV,1,1,03,194,62,050,17,195,69,092,17,193,16,167,,0,5*61,1606997990452
NMEA,$PQGSV,4,1,16,03,59,202,26,05,16,255,29,06,48,192,22,09,61,241,17,0,4*66,1606997990452
NMEA,$PQGSV,4,2,16,10,45,305,20,11,18,206,25,16,49,196,24,25,09,310,36,0,4*6F,1606997990452
NMEA,$PQGSV,4,3,16,01,52,129,,02,40,239,,04,37,113,,07,56,345,,0,4*6C,1606997990453
NMEA,$PQGSV,4,4,16,08,18,165,,12,69,184,,13,07,185,,14,09,232,,0,4*68,1606997990453
NMEA,$GNGSA,A,3,04,07,08,09,21,27,,,,,,,1.4,1.2,0.8,1*3B,1606997990454
NMEA,$GNGSA,A,3,65,66,72,76,,,,,,,,,1.4,1.2,0.8,2*3B,1606997990455
NMEA,$PQGSA,A,3,10,11,16,25,,,,,,,,,1.4,1.2,0.8,4*33,1606997990455
NMEA,$GNVTG,,T,,M,0.0,N,0.0,K,A*3D,1606997990455
NMEA,$GNRMC,121951.00,A,2255.525126,N,12017.679046,E,0.0,,031220,2.8,W,A*18,1606997990455
NMEA,$GNGGA,121951.00,2255.525126,N,12017.679046,E,1,12,1.2,29.2,M,17.5,M,,*4F,1606997990455
Raw,27495544,27501924000000,,,-1291005707509171712,0.0,47.42846795124933,3.881796265676106,21.111079114902754,4951,2,0.0,207,55191353698156,21,26.3,-52.11872100830078,0.33070001006126404,0,0.0,0.0,,,,,0,,3,,
Raw,27495545,27501924000000,,,-1291005707509171712,0.0,47.42846795124933,3.881796265676106,21.111079114902754,4951,22,0.0,207,55191363869656,616,12.2,-665.9900512695312,15.556000709533691,0,0.0,0.0,,,,,0,,3,,
Raw,27495545,27501924000000,,,-1291005707509171712,0.0,47.42846795124933,3.881796265676106,21.111079114902754,4951,12,0.0,207,55191353893213,11,33.6,-468.295654296875,0.24240000545978546,0,0.0,0.0,,,,,0,,3,,
Raw,27495546,27501924000000,,,-1291005707509171712,0.0,47.42846795124933,3.881796265676106,21.111079114902754,4951,1,0.0,207,55191356204333,70,17.5,464.6087646484375,1.3005000352859497,0,0.0,0.0,,,,,0,,3,,
Raw,27495546,27501924000000,,,-1291005707509171712,0.0,47.42846795124933,3.881796265676106,21.111079114902754,4951,21,0.0,207,55191368203392,595,13.4,32.24509048461914,15.443500518798828,0,0.0,0.0,,,,,0,,3,,
Raw,27495546,27501924000000,,,-1291005707509171712,0.0,47.42846795124933,3.881796265676106,21.111079114902754,4951,8,0.0,207,55191353153956,110,16.7,581.2094116210938,4.386000156402588,0,0.0,0.0,,,,,0,,3,,
Raw,27495547,27501924000000,,,-1291005707509171712,0.0,47.42846795124933,3.881796265676106,21.111079114902754,4951,4,0.0,15,390009361228869,61,18.3,281.2635803222656,1.0779999494552612,0,0.0,0.0,,,,,0,,1,,
Raw,27495547,27501924000000,,,-1291005707509171712,0.0,47.42846795124933,3.881796265676106,21.111079114902754,4951,7,0.0,15,390009350429702,6,38.9,-623.8261108398438,0.035100001841783524,0,0.0,0.0,,,,,0,,1,,
Raw,27495548,27501924000000,,,-1291005707509171712,0.0,47.42846795124933,3.881796265676106,21.111079114902754,4951,8,0.0,15,390009365127905,40,21.2,-137.7631072998047,0.8539999723434448,0,0.0,0.0,,,,,0,,1,,
Raw,27495548,27501924000000,,,-1291005707509171712,0.0,47.42846795124933,3.881796265676106,21.111079114902754,4951,9,0.0,15,390009357614013,14,30.1,-102.74602508544922,0.05130000039935112,0,0.0,0.0,,,,,0,,1,,
Raw,27495549,27501924000000,,,-1291005707509171712,0.0,47.42846795124933,3.881796265676106,21.111079114902754,4951,21,0.0,15,390009357996593,80,19.0,-570.9381103515625,4.022000312805176,0,0.0,0.0,,,,,0,,1,,
Raw,27495549,27501924000000,,,-1291005707509171712,0.0,47.42846795124933,3.881796265676106,21.111079114902754,4951,27,0.0,15,390009365053771,102,15.7,311.7295837402344,2.764000177383423,0,0.0,0.0,,,,,0,,1,,
Raw,27495549,27501924000000,,,-1291005707509171712,0.0,47.42846795124933,3.881796265676106,21.111079114902754,4951,3,0.0,783,389995311542454,57,26.1,-6.174069881439209,4.24500036239624,0,0.0,0.0,,,,,0,,5,,
Raw,27495550,27501924000000,,,-1291005707509171712,0.0,47.42846795124933,3.881796265676106,21.111079114902754,4951,5,0.0,783,389995299809821,60,19.9,7.710385799407959,2.255000114440918,0,0.0,0.0,,,,,0,,5,,
Raw,27495551,27501924000000,,,-1291005707509171712,0.0,47.42846795124933,3.881796265676106,21.111079114902754,4951,6,0.0,15,389995310327722,96,15.1,251.75418090820312,1.93149995803833,0,0.0,0.0,,,,,0,,5,,
Raw,27495551,27501924000000,,,-1291005707509171712,0.0,47.42846795124933,3.881796265676106,21.111079114902754,4951,9,0.0,15,389995313079573,78,17.2,155.407958984375,2.5160000324249268,0,0.0,0.0,,,,,0,,5,,
Raw,27495552,27501924000000,,,-1291005707509171712,0.0,47.42846795124933,3.881796265676106,21.111079114902754,4951,10,0.0,15,389995307584306,61,19.5,30.092586517333984,2.3570001125335693,0,0.0,0.0,,,,,0,,5,,
Raw,27495552,27501924000000,,,-1291005707509171712,0.0,47.42846795124933,3.881796265676106,21.111079114902754,4951,11,0.0,15,389995348883715,31,23.1,-601.0836181640625,0.6285000443458557,0,0.0,0.0,,,,,0,,5,,
Raw,27495553,27501924000000,,,-1291005707509171712,0.0,47.42846795124933,3.881796265676106,21.111079114902754,4951,16,0.0,15,389995309322410,70,17.6,266.3587646484375,1.0099999904632568,0,0.0,0.0,,,,,0,,5,,
Raw,27495553,27501924000000,,,-1291005707509171712,0.0,47.42846795124933,3.881796265676106,21.111079114902754,4951,25,0.0,15,389995345491400,9,35.3,-465.9119873046875,0.029100000858306885,0,0.0,0.0,,,,,0,,5,,
Fix,gps,22.925419,120.294651,46.664795,0.000000,4.288000,1606997992000
NMEA,$GPGSV,3,1,12,04,47,239,18,07,12,319,39,08,66,248,21,09,31,288,30*74,1606997991447
NMEA,$GPGSV,3,2,12,11,00,000,20,21,25,172,19,27,66,016,16,01,04,188,*70,1606997991447
NMEA,$GPGSV,3,3,12,16,38,033,,18,00,000,,26,20,064,,31,13,126,*7E,1606997991447
NMEA,$GLGSV,3,1,09,66,06,307,26,86,40,182,12,76,07,316,34,65,14,247,18*61,1606997991447
NMEA,$GLGSV,3,2,09,85,70,081,13,72,06,208,17,74,33,073,,73,00,000,*60,1606997991448
NMEA,$GLGSV,3,3,09,84,18,029,*52,1606997991448
NMEA,$GAGSV,2,1,07,02,22,305,,03,32,254,,05,22,196,,08,11,305,*6C,1606997991449
NMEA,$GAGSV,2,2,07,24,27,068,,25,49,001,,36,39,168,*59,1606997991449
NMEA,$PQGSV,1,1,03,194,62,050,17,195,69,092,17,193,16,167,,0,5*61,1606997991449
NMEA,$PQGSV,4,1,16,03,59,202,26,05,16,255,20,06,48,192,15,09,61,241,17,0,4*6B,1606997991449
NMEA,$PQGSV,4,2,16,10,45,305,20,11,18,206,23,16,49,196,18,25,09,310,35,0,4*65,1606997991450
NMEA,$PQGSV,4,3,16,01,52,129,,02,40,239,,04,37,113,,07,56,345,,0,4*6C,1606997991450
NMEA,$PQGSV,4,4,16,08,18,165,,12,69,184,,13,07,185,,14,09,232,,0,4*68,1606997991451
NMEA,$GNGSA,A,3,04,07,08,09,21,27,,,,,,,1.4,1.2,0.8,1*3B,1606997991452
NMEA,$GNGSA,A,3,65,66,72,76,,,,,,,,,1.4,1.2,0.8,2*3B,1606997991452
NMEA,$PQGSA,A,3,10,11,16,25,,,,,,,,,1.4,1.2,0.8,4*33,1606997991452
NMEA,$GNVTG,,T,,M,0.0,N,0.0,K,A*3D,1606997991452
NMEA,$GNRMC,121952.00,A,2255.525126,N,12017.679045,E,0.0,,031220,2.8,W,A*18,1606997991452
NMEA,$GNGGA,121952.00,2255.525126,N,12017.679045,E,1,12,1.2,29.2,M,17.5,M,,*4F,1606997991453
NMEA,$GPGSV,3,1,12,04,47,239,21,07,12,319,40,08,66,248,17,09,31,288,26*72,1606997992445
Raw,27496542,27502924000000,,,-1291005707509171712,0.0,49.90010347682983,3.938107172340592,21.879232522569755,4951,2,0.0,207,55192353698542,46,20.1,-50.33552551269531,1.065999984741211,0,0.0,0.0,,,,,0,,3,,
Raw,27496542,27502924000000,,,-1291005707509171712,0.0,49.90010347682983,3.938107172340592,21.879232522569755,4951,22,0.0,207,55192363871877,719,12.2,-665.9900512695312,17.056001663208008,0,0.0,0.0,,,,,0,,3,,
Raw,27496543,27502924000000,,,-1291005707509171712,0.0,49.90010347682983,3.938107172340592,21.879232522569755,4951,12,0.0,207,55192353894799,11,33.9,-467.7587585449219,0.24240000545978546,0,0.0,0.0,,,,,0,,3,,
Raw,27496543,27502924000000,,,-1291005707509171712,0.0,49.90010347682983,3.938107172340592,21.879232522569755,4951,1,0.0,207,55192356202760,61,18.2,464.57135009765625,1.220500111579895,0,0.0,0.0,,,,,0,,3,,
Raw,27496543,27502924000000,,,-1291005707509171712,0.0,49.90010347682983,3.938107172340592,21.879232522569755,4951,21,0.0,207,55192368203520,149,13.2,32.076908111572266,4.4185004234313965,0,0.0,0.0,,,,,0,,3,,
Raw,27496544,27502924000000,,,-1291005707509171712,0.0,49.90010347682983,3.938107172340592,21.879232522569755,4951,8,0.0,207,55192353152017,140,16.7,581.2094116210938,5.886000156402588,0,0.0,0.0,,,,,0,,3,,
Raw,27496544,27502924000000,,,-1291005707509171712,0.0,49.90010347682983,3.938107172340592,21.879232522569755,4951,4,0.0,15,390010361228029,40,21.3,280.9781188964844,0.8479999899864197,0,0.0,0.0,,,,,0,,1,,
Raw,27496545,27502924000000,,,-1291005707509171712,0.0,49.90010347682983,3.938107172340592,21.879232522569755,4951,7,0.0,15,390010350431784,6,39.5,-623.2766723632812,0.03460000082850456,0,0.0,0.0,,,,,0,,1,,
Raw,27496545,27502924000000,,,-1291005707509171712,0.0,49.90010347682983,3.938107172340592,21.879232522569755,4951,8,0.0,15,390010365128174,70,17.2,-135.8506622314453,1.1740000247955322,0,0.0,0.0,,,,,0,,1,,
Raw,27496546,27502924000000,,,-1291005707509171712,0.0,49.90010347682983,3.938107172340592,21.879232522569755,4951,9,0.0,15,390010357614349,24,25.6,-102.0846939086914,0.4072999954223633,0,0.0,0.0,,,,,0,,1,,
Raw,27496546,27502924000000,,,-1291005707509171712,0.0,49.90010347682983,3.938107172340592,21.879232522569755,4951,21,0.0,15,390010357998498,108,19.0,-570.9381103515625,5.522000312805176,0,0.0,0.0,,,,,0,,1,,
Raw,27496546,27502924000000,,,-1291005707509171712,0.0,49.90010347682983,3.938107172340592,21.879232522569755,4951,27,0.0,15,390010365052731,121,15.7,311.7295837402344,4.263999938964844,0,0.0,0.0,,,,,0,,1,,
Raw,27496547,27502924000000,,,-1291005707509171712,0.0,49.90010347682983,3.938107172340592,21.879232522569755,4951,3,0.0,783,389996311542475,89,26.1,-6.174069881439209,5.74500036239624,0,0.0,0.0,,,,,0,,5,,
Raw,27496547,27502924000000,,,-1291005707509171712,0.0,49.90010347682983,3.938107172340592,21.879232522569755,4951,5,0.0,783,389996299809796,78,19.9,7.710385799407959,3.755000114440918,0,0.0,0.0,,,,,0,,5,,
Raw,27496548,27502924000000,,,-1291005707509171712,0.0,49.90010347682983,3.938107172340592,21.879232522569755,4951,6,0.0,15,389996310326883,110,15.1,251.75418090820312,3.431500196456909,0,0.0,0.0,,,,,0,,5,,
Raw,27496548,27502924000000,,,-1291005707509171712,0.0,49.90010347682983,3.938107172340592,21.879232522569755,4951,9,0.0,15,389996313079055,97,17.2,155.407958984375,4.016000270843506,0,0.0,0.0,,,,,0,,5,,
Raw,27496548,27502924000000,,,-1291005707509171712,0.0,49.90010347682983,3.938107172340592,21.879232522569755,4951,10,0.0,15,389996307584205,79,19.5,30.092586517333984,3.8570001125335693,0,0.0,0.0,,,,,0,,5,,
Raw,27496549,27502924000000,,,-1291005707509171712,0.0,49.90010347682983,3.938107172340592,21.879232522569755,4951,11,0.0,15,389996348885724,40,21.8,-600.4691162109375,0.6784999966621399,0,0.0,0.0,,,,,0,,5,,
Raw,27496549,27502924000000,,,-1291005707509171712,0.0,49.90010347682983,3.938107172340592,21.879232522569755,4951,16,0.0,15,389996309321522,78,17.6,266.3587646484375,2.509999990463257,0,0.0,0.0,,,,,0,,5,,
Raw,27496550,27502924000000,,,-1291005707509171712,0.0,49.90010347682983,3.938107172340592,21.879232522569755,4951,25,0.0,15,389996345492947,11,33.2,-465.3350830078125,0.030400000512599945,0,0.0,0.0,,,,,0,,5,,
Fix,gps,22.925419,120.294651,46.664124,0.000000,3.216000,1606997993000
NMEA,$GPGSV,3,2,12,11,00,000,20,21,25,172,19,27,66,016,16,01,04,188,*70,1606997992447
NMEA,$GPGSV,3,3,12,16,38,033,,18,00,000,,26,20,064,,31,13,126,*7E,1606997992448
NMEA,$GLGSV,3,1,09,66,06,307,20,86,40,182,12,76,07,316,34,65,14,247,18*67,1606997992450
NMEA,$GLGSV,3,2,09,85,70,081,13,72,06,208,17,74,33,073,,73,00,000,*60,1606997992450
NMEA,$GLGSV,3,3,09,84,18,029,*52,1606997992451
NMEA,$GAGSV,2,1,07,02,22,305,,03,32,254,,05,22,196,,08,11,305,*6C,1606997992451
NMEA,$GAGSV,2,2,07,24,27,068,,25,49,001,,36,39,168,*59,1606997992451
NMEA,$PQGSV,1,1,03,194,62,050,20,195,69,092,16,193,16,167,,0,5*64,1606997992451
NMEA,$PQGSV,4,1,16,03,59,202,26,05,16,255,20,06,48,192,15,09,61,241,17,0,4*6B,1606997992452
NMEA,$PQGSV,4,2,16,10,45,305,20,11,18,206,22,16,49,196,18,25,09,310,33,0,4*62,1606997992452
NMEA,$PQGSV,4,3,16,01,52,129,,02,40,239,,04,37,113,,07,56,345,,0,4*6C,1606997992452
NMEA,$PQGSV,4,4,16,08,18,165,,12,69,184,,13,07,185,,14,09,232,,0,4*68,1606997992452
NMEA,$GNGSA,A,3,04,07,08,09,21,27,,,,,,,1.4,1.2,0.8,1*3B,1606997992453
NMEA,$GNGSA,A,2,65,66,76,,,,,,,,,,1.4,1.2,0.8,2*3F,1606997992453
NMEA,$PQGSA,A,3,10,11,16,25,,,,,,,,,1.4,1.2,0.8,4*33,1606997992454
NMEA,$GNVTG,,T,,M,0.0,N,0.0,K,A*3D,1606997992454
NMEA,$GNRMC,121953.00,A,2255.525126,N,12017.679046,E,0.0,,031220,2.8,W,A*1A,1606997992454
NMEA,$GNGGA,121953.00,2255.525126,N,12017.679046,E,1,12,1.2,29.2,M,17.5,M,,*4D,1606997992454
Fix,gps,22.925419,120.294651,46.665710,0.000000,3.216000,1606997994000
Raw,27497585,27503924000000,,,-1291005707509171712,0.0,41.61642209510319,6.296127035079942,16.08373864639736,4951,2,0.0,207,55193353698557,13,31.8,-49.89955520629883,0.24469999969005585,0,0.0,0.0,,,,,0,,3,,
Raw,27497587,27503924000000,,,-1291005707509171712,0.0,41.61642209510319,6.296127035079942,16.08373864639736,4951,22,0.0,207,55193363874099,831,12.2,-665.9900512695312,18.556001663208008,0,0.0,0.0,,,,,0,,3,,
Raw,27497589,27503924000000,,,-1291005707509171712,0.0,41.61642209510319,6.296127035079942,16.08373864639736,4951,12,0.0,207,55193353896307,17,28.2,-466.34149169921875,0.25280001759529114,0,0.0,0.0,,,,,0,,3,,
Raw,27497592,27503924000000,,,-1291005707509171712,0.0,41.61642209510319,6.296127035079942,16.08373864639736,4951,1,0.0,207,55193356201210,70,18.2,464.57135009765625,2.7205002307891846,0,0.0,0.0,,,,,0,,3,,
Raw,27497594,27503924000000,,,-1291005707509171712,0.0,41.61642209510319,6.296127035079942,16.08373864639736,4951,21,0.0,207,55193368203413,178,13.2,32.076908111572266,5.9185004234313965,0,0.0,0.0,,,,,0,,3,,
Raw,27497596,27503924000000,,,-1291005707509171712,0.0,41.61642209510319,6.296127035079942,16.08373864639736,4951,8,0.0,207,55193353150129,160,12.0,582.2738647460938,4.065999984741211,0,0.0,0.0,,,,,0,,3,,
Raw,27497598,27503924000000,,,-1291005707509171712,0.0,41.61642209510319,6.296127035079942,16.08373864639736,4951,4,0.0,15,390011361227092,48,21.3,280.9781188964844,2.3480000495910645,0,0.0,0.0,,,,,0,,1,,
Raw,27497599,27503924000000,,,-1291005707509171712,0.0,41.61642209510319,6.296127035079942,16.08373864639736,4951,7,0.0,15,390011350433844,7,37.6,-621.861572265625,0.035600002855062485,0,0.0,0.0,,,,,0,,1,,
Raw,27497602,27503924000000,,,-1291005707509171712,0.0,41.61642209510319,6.296127035079942,16.08373864639736,4951,8,0.0,15,390011365128840,40,21.0,-136.1265869140625,0.8539999723434448,0,0.0,0.0,,,,,0,,1,,
Raw,27497603,27503924000000,,,-1291005707509171712,0.0,41.61642209510319,6.296127035079942,16.08373864639736,4951,9,0.0,15,390011357614723,19,27.4,-100.5257339477539,0.06680000573396683,0,0.0,0.0,,,,,0,,1,,
Raw,27497606,27503924000000,,,-1291005707509171712,0.0,41.61642209510319,6.296127035079942,16.08373864639736,4951,21,0.0,15,390011358000375,160,12.4,-567.008544921875,4.002000331878662,0,0.0,0.0,,,,,0,,1,,
Raw,27497608,27503924000000,,,-1291005707509171712,0.0,41.61642209510319,6.296127035079942,16.08373864639736,4951,27,0.0,15,390011365051691,150,15.7,311.7295837402344,5.764000415802002,0,0.0,0.0,,,,,0,,1,,
Raw,27497610,27503924000000,,,-1291005707509171712,0.0,41.61642209510319,6.296127035079942,16.08373864639736,4951,3,0.0,783,389997311542496,130,26.1,-6.174069881439209,7.24500036239624,0,0.0,0.0,,,,,0,,5,,
Raw,27497612,27503924000000,,,-1291005707509171712,0.0,41.61642209510319,6.296127035079942,16.08373864639736,4951,5,0.0,783,389997299809770,105,19.9,7.710385799407959,5.255000114440918,0,0.0,0.0,,,,,0,,5,,
Raw,27497614,27503924000000,,,-1291005707509171712,0.0,41.61642209510319,6.296127035079942,16.08373864639736,4951,6,0.0,15,389997310326043,134,15.1,251.75418090820312,4.93149995803833,0,0.0,0.0,,,,,0,,5,,
Raw,27497615,27503924000000,,,-1291005707509171712,0.0,41.61642209510319,6.296127035079942,16.08373864639736,4951,9,0.0,15,389997313078536,125,17.2,155.407958984375,5.516000270843506,0,0.0,0.0,,,,,0,,5,,
Raw,27497617,27503924000000,,,-1291005707509171712,0.0,41.61642209510319,6.296127035079942,16.08373864639736,4951,10,0.0,15,389997307584076,102,15.6,30.668704986572266,2.677000045776367,0,0.0,0.0,,,,,0,,5,,
Raw,27497619,27503924000000,,,-1291005707509171712,0.0,41.61642209510319,6.296127035079942,16.08373864639736,4951,11,0.0,15,389997348887703,35,22.7,-599.3648681640625,0.6784999966621399,0,0.0,0.0,,,,,0,,5,,
Raw,27497620,27503924000000,,,-1291005707509171712,0.0,41.61642209510319,6.296127035079942,16.08373864639736,4951,16,0.0,15,389997309320633,97,17.6,266.3587646484375,4.010000228881836,0,0.0,0.0,,,,,0,,5,,
Raw,27497621,27503924000000,,,-1291005707509171712,0.0,41.61642209510319,6.296127035079942,16.08373864639736,4951,25,0.0,15,389997345494504,9,35.1,-463.98919677734375,0.029100000858306885,0,0.0,0.0,,,,,0,,5,,
NMEA,$GPGSV,3,1,12,04,47,239,21,07,12,319,38,08,66,248,21,09,31,288,27*79,1606997993455
NMEA,$GPGSV,3,2,12,11,00,000,15,21,25,172,12,27,66,016,16,01,04,188,*7D,1606997993455
NMEA,$GPGSV,3,3,12,16,38,033,,18,00,000,,26,20,064,,31,13,126,*7E,1606997993464
NMEA,$GLGSV,3,1,09,66,06,307,32,86,40,182,12,76,07,316,28,65,14,247,18*69,1606997993464
NMEA,$GLGSV,3,2,09,85,70,081,13,72,06,208,12,74,33,073,,73,00,000,*65,1606997993467
NMEA,$GLGSV,3,3,09,84,18,029,*52,1606997993468
NMEA,$GAGSV,2,1,07,02,22,305,,03,32,254,,05,22,196,,08,11,305,*6C,1606997993468
NMEA,$GAGSV,2,2,07,24,27,068,,25,49,001,,36,39,168,*59,1606997993468
NMEA,$PQGSV,1,1,03,194,62,050,20,195,69,092,15,193,16,167,,0,5*67,1606997993468
NMEA,$PQGSV,4,1,16,03,59,202,26,05,16,255,20,06,48,192,15,09,61,241,17,0,4*6B,1606997993469
NMEA,$PQGSV,4,2,16,10,45,305,16,11,18,206,23,16,49,196,18,25,09,310,35,0,4*60,1606997993469
NMEA,$PQGSV,4,3,16,01,52,129,,02,40,239,,04,37,113,,07,56,345,,0,4*6C,1606997993469
NMEA,$PQGSV,4,4,16,08,18,165,,12,69,184,,13,07,185,,14,09,232,,0,4*68,1606997993469
NMEA,$GNGSA,A,3,04,07,08,09,21,27,,,,,,,1.4,1.2,0.8,1*3B,1606997993470
NMEA,$GNGSA,A,2,65,66,76,,,,,,,,,,1.4,1.2,0.8,2*3F,1606997993470
NMEA,$PQGSA,A,3,10,11,16,25,,,,,,,,,1.4,1.2,0.8,4*33,1606997993471
NMEA,$GNVTG,,T,,M,0.0,N,0.0,K,A*3D,1606997993471
NMEA,$GNRMC,121954.00,A,2255.525126,N,12017.679045,E,0.0,,031220,2.8,W,A*1E,1606997993471
NMEA,$GNGGA,121954.00,2255.525126,N,12017.679045,E,1,12,1.2,29.2,M,17.5,M,,*49,1606997993472
NMEA,$GPGSV,3,1,12,04,47,239,17,07,12,319,35,08,66,248,20,09,31,288,32*74,1606997994462
Raw,27498585,27504924000000,,,-1291005707509171712,0.0,44.70321800909005,10.236790233407126,18.35444246646529,4951,2,0.0,207,55194353698729,10,34.6,-49.23992919921875,0.24160000681877136,0,0.0,0.0,,,,,0,,3,,
Raw,27498585,27504924000000,,,-1291005707509171712,0.0,44.70321800909005,10.236790233407126,18.35444246646529,4951,22,0.0,207,55194363876320,954,12.2,-665.9900512695312,20.056001663208008,0,0.0,0.0,,,,,0,,3,,
Raw,27498586,27504924000000,,,-1291005707509171712,0.0,44.70321800909005,10.236790233407126,18.35444246646529,4951,12,0.0,207,55194353897924,16,29.4,-465.90118408203125,0.24619999527931213,0,0.0,0.0,,,,,0,,3,,
Raw,27498586,27504924000000,,,-1291005707509171712,0.0,44.70321800909005,10.236790233407126,18.35444246646529,4951,1,0.0,207,55194356199660,89,18.2,464.57135009765625,4.2204999923706055,0,0.0,0.0,,,,,0,,3,,
