# 
# Header Description:
# 
# Version: v2.0.0.1 Platform: 8.0.0 Manufacturer: Sony Model: G8142
# 
# Raw,ElapsedRealtimeMillis,TimeNanos,LeapSecond,TimeUncertaintyNanos,FullBiasNanos,BiasNanos,BiasUncertaintyNanos,DriftNanosPerSecond,DriftUncertaintyNanosPerSecond,HardwareClockDiscontinuityCount,Svid,TimeOffsetNanos,State,ReceivedSvTimeNanos,ReceivedSvTimeUncertaintyNanos,Cn0DbHz,PseudorangeRateMetersPerSecond,PseudorangeRateUncertaintyMetersPerSecond,AccumulatedDeltaRangeState,AccumulatedDeltaRangeMeters,AccumulatedDeltaRangeUncertaintyMeters,CarrierFrequencyHz,CarrierCycles,CarrierPhase,CarrierPhaseUncertainty,MultipathIndicator,SnrInDb,ConstellationType,AgcDb,CarrierFrequencyHz
# 
# Fix,Provider,Latitude,Longitude,Altitude,Speed,Accuracy,(UTC)TimeInMs
# 
# Nav,Svid,Type,Status,MessageId,Sub-messageId,Data(Bytes)
# 
Fix,gps,22.925457,120.294659,50.849609,0.000000,9.648001,1606998451000
NMEA,$GPGSV,3,1,11,01,07,187,20,04,45,234,35,07,15,319,34,08,68,260,27*7F,1606998450446
NMEA,$GPGSV,3,2,11,09,32,282,21,11,00,000,28,16,36,037,13,21,28,170,13*78,1606998450447
NMEA,$GPGSV,3,3,11,27,61,018,19,26,18,068,,31,11,129,*41,1606998450447
NMEA,$GLGSV,2,1,08,66,06,303,29,86,45,184,18,76,09,319,38,65,12,243,30*66,1606998450447
NMEA,$GLGSV,2,2,08,85,69,067,13,72,03,205,22,74,33,078,,84,15,028,*63,1606998450447
NMEA,$GAGSV,2,1,07,02,23,307,37,03,31,251,29,08,11,302,24,05,21,195,*67,1606998450447
NMEA,$GAGSV,2,2,07,24,26,071,,25,49,005,,36,42,168,*58,1606998450448
NMEA,$PQGSV,1,1,03,194,63,052,15,195,70,088,14,193,15,167,,0,5*63,1606998450448
NMEA,$PQGSV,4,1,16,02,40,239,27,03,59,202,29,05,16,255,30,06,46,192,28,0,4*61,1606998450448
NMEA,$PQGSV,4,2,16,09,59,239,28,10,45,306,32,11,22,208,31,13,08,185,19,0,4*6F,1606998450448
NMEA,$PQGSV,4,3,16,14,08,229,34,16,48,198,31,25,11,313,22,26,47,087,14,0,4*6A,1606998450448
NMEA,$PQGSV,4,4,16,01,52,129,,04,37,113,,07,56,347,,08,21,165,,0,4*6E,1606998450451
NMEA,$GNGSA,A,3,01,04,07,08,09,27,,,,,,,1.3,1.1,0.7,1*32,1606998450452
NMEA,$GNGSA,A,3,65,66,76,86,,,,,,,,,1.3,1.1,0.7,2*3B,1606998450452
NMEA,$GNGSA,A,2,02,03,08,,,,,,,,,,1.3,1.1,0.7,3*3E,1606998450452
Raw,27955538,27961990000000,,,-1291005707444370432,0.0,30.50481063837651,2.110209803168353,10.217776708426587,5093,2,0.0,207,55651354934881,12,32.2,3.025937795639038,0.24490001797676086,0,0.0,0.0,,,,,0,,3,,
Raw,27955538,27961990000000,,,-1291005707444370432,0.0,30.50481063837651,2.110209803168353,10.217776708426587,5093,22,0.0,207,55651366055534,31,23.9,-619.6156005859375,0.875499963760376,0,0.0,0.0,,,,,0,,3,,
Raw,27955538,27961990000000,,,-1291005707444370432,0.0,30.50481063837651,2.110209803168353,10.217776708426587,5093,12,0.0,207,55651355825967,6,38.8,-487.7032775878906,0.24260000884532928,0,0.0,0.0,,,,,0,,3,,
Raw,27955538,27961990000000,,,-1291005707444370432,0.0,30.50481063837651,2.110209803168353,10.217776708426587,5093,1,0.0,207,55651356679252,19,27.8,478.6827697753906,0.2653000056743622,0,0.0,0.0,,,,,0,,3,,
Raw,27955538,27961990000000,,,-1291005707444370432,0.0,30.50481063837651,2.110209803168353,10.217776708426587,5093,21,0.0,207,55651369293607,354,12.5,109.69497680664062,10.765000343322754,0,0.0,0.0,,,,,0,,3,,
Raw,27955539,27961990000000,,,-1291005707444370432,0.0,30.50481063837651,2.110209803168353,10.217776708426587,5093,8,0.0,207,55651353476450,27,24.3,560.135498046875,0.8360000252723694,0,0.0,0.0,,,,,0,,3,,
Raw,27955539,27961990000000,,,-1291005707444370432,0.0,30.50481063837651,2.110209803168353,10.217776708426587,5093,1,0.0,15,390469352175415,40,21.4,-672.5264282226562,0.8644999861717224,0,0.0,0.0,,,,,0,,1,,
Raw,27955539,27961990000000,,,-1291005707444370432,0.0,30.50481063837651,2.110209803168353,10.217776708426587,5093,4,0.0,15,390469361966501,10,34.7,320.4931640625,0.023600000888109207,0,0.0,0.0,,,,,0,,1,,
Raw,27955539,27961990000000,,,-1291005707444370432,0.0,30.50481063837651,2.110209803168353,10.217776708426587,5093,7,0.0,15,390469352591760,9,35.1,-630.772216796875,0.03960000351071358,0,0.0,0.0,,,,,0,,1,,
Raw,27955539,27961990000000,,,-1291005707444370432,0.0,30.50481063837651,2.110209803168353,10.217776708426587,5093,8,0.0,15,390469366502652,24,25.3,-91.29984283447266,0.39079999923706055,0,0.0,0.0,,,,,0,,1,,
Raw,27955539,27961990000000,,,-1291005707444370432,0.0,30.50481063837651,2.110209803168353,10.217776708426587,5093,9,0.0,15,390469358933359,17,28.7,-53.94548416137695,0.06030000001192093,0,0.0,0.0,,,,,0,,1,,
Raw,27955539,27961990000000,,,-1291005707444370432,0.0,30.50481063837651,2.110209803168353,10.217776708426587,5093,16,0.0,15,390469360220636,386,12.9,267.457763671875,11.346500396728516,0,0.0,0.0,,,,,0,,1,,
Raw,27955540,27961990000000,,,-1291005707444370432,0.0,30.50481063837651,2.110209803168353,10.217776708426587,5093,21,0.0,15,390469360058827,183,13.0,-553.5547485351562,6.096500396728516,0,0.0,0.0,,,,,0,,1,,
Raw,27955540,27961990000000,,,-1291005707444370432,0.0,30.50481063837651,2.110209803168353,10.217776708426587,5093,27,0.0,15,390469365744850,61,19.1,350.9396057128906,2.504000186920166,0,0.0,0.0,,,,,0,,1,,
Raw,27955540,27961990000000,,,-1291005707444370432,0.0,30.50481063837651,2.110209803168353,10.217776708426587,5093,2,0.0,783,390455309296999,57,26.6,2.3140759468078613,4.275000095367432,0,0.0,0.0,,,,,0,,5,,
Raw,27955540,27961990000000,,,-1291005707444370432,0.0,30.50481063837651,2.110209803168353,10.217776708426587,5093,3,0.0,783,390455312749823,14,30.0,-6.106855869293213,0.3935000002384186,0,0.0,0.0,,,,,0,,5,,
Raw,27955540,27961990000000,,,-1291005707444370432,0.0,30.50481063837651,2.110209803168353,10.217776708426587,5093,5,0.0,783,390455301004582,16,29.3,-0.45129284262657166,0.4150000214576721,0,0.0,0.0,,,,,0,,5,,
Raw,27955540,27961990000000,,,-1291005707444370432,0.0,30.50481063837651,2.110209803168353,10.217776708426587,5093,6,0.0,15,390455311135854,17,28.2,258.5425109863281,0.049800001084804535,0,0.0,0.0,,,,,0,,5,,
Raw,27955540,27961990000000,,,-1291005707444370432,0.0,30.50481063837651,2.110209803168353,10.217776708426587,5093,9,0.0,15,390455314031413,19,27.1,167.55123901367188,0.062300004065036774,0,0.0,0.0,,,,,0,,5,,
Raw,27955541,27961990000000,,,-1291005707444370432,0.0,30.50481063837651,2.110209803168353,10.217776708426587,5093,10,0.0,15,390455308743805,12,32.8,21.870962142944336,0.03590000048279762,0,0.0,0.0,,,,,0,,5,,
Raw,27955541,27961990000000,,,-1291005707444370432,0.0,30.50481063837651,2.110209803168353,10.217776708426587,5093,11,0.0,15,390455350994406,12,32.3,-586.6422729492188,0.03890000283718109,0,0.0,0.0,,,,,0,,5,,
Raw,27955541,27961990000000,,,-1291005707444370432,0.0,30.50481063837651,2.110209803168353,10.217776708426587,5093,13,0.0,15,390455298694008,53,19.3,-256.76641845703125,0.8734999895095825,0,0.0,0.0,,,,,0,,5,,
Raw,27955541,27961990000000,,,-1291005707444370432,0.0,30.50481063837651,2.110209803168353,10.217776708426587,5093,14,0.0,15,390455346422001,13,31.7,328.7593994140625,0.03420000150799751,0,0.0,0.0,,,,,0,,5,,
Raw,27955541,27961990000000,,,-1291005707444370432,0.0,30.50481063837651,2.110209803168353,10.217776708426587,5093,16,0.0,15,390455310107498,12,32.6,273.6620788574219,0.03890000283718109,0,0.0,0.0,,,,,0,,5,,
Raw,27955541,27961990000000,,,-1291005707444370432,0.0,30.50481063837651,2.110209803168353,10.217776708426587,5093,25,0.0,15,390455347414512,31,23.0,-477.11248779296875,0.6270000338554382,0,0.0,0.0,,,,,0,,5,,
Raw,27955542,27961990000000,,,-1291005707444370432,0.0,30.50481063837651,2.110209803168353,10.217776708426587,5093,26,0.0,15,390455359042869,551,14.3,160.2569580078125,14.785000801086426,0,0.0,0.0,,,,,0,,5,,
Raw,27955542,27961990000000,,,-1291005707444370432,0.0,30.50481063837651,2.110209803168353,10.217776708426587,5093,2,0.0,7183,390469346339279,7,37.9,-242.7386016845703,0.22350001335144043,0,0.0,0.0,,,,,0,,6,,
Raw,27955542,27961990000000,,,-1291005707444370432,0.0,30.50481063837651,2.110209803168353,10.217776708426587,5093,3,0.0,7183,390469348064311,17,28.4,265.12664794921875,0.41050001978874207,0,0.0,0.0,,,,,0,,6,,
Raw,27955542,27961990000000,,,-1291005707444370432,0.0,30.50481063837651,2.110209803168353,10.217776708426587,5093,8,0.0,7183,390469348332471,27,24.2,-102.92034149169922,0.5504999756813049,0,0.0,0.0,,,,,0,,6,,
NMEA,$PQGSA,A,3,09,10,11,14,16,25,,,,,,,1.3,1.1,0.7,4*34,1606998450453
NMEA,$GNVTG,,T,,M,0.0,N,0.0,K,A*3D,1606998450453
NMEA,$GNRMC,122731.00,A,2255.527391,N,12017.679538,E,0.0,,031220,2.8,W,A*13,1606998450453
NMEA,$GNGGA,122731.00,2255.527391,N,12017.679538,E,1,12,1.1,33.4,M,17.5,M,,*4A,1606998450453
Fix,gps,22.925456,120.294659,50.895264,0.000000,9.648001,1606998452000
NMEA,$GPGSV,3,1,11,01,07,187,21,04,45,234,35,07,15,319,35,08,68,260,25*7D,1606998451445
NMEA,$GPGSV,3,2,11,09,32,282,29,11,00,000,27,16,36,037,13,21,28,170,13*7F,1606998451446
NMEA,$GPGSV,3,3,11,27,61,018,19,26,18,068,,31,11,129,*41,1606998451446
NMEA,$GLGSV,2,1,08,66,06,303,32,86,45,184,24,76,09,319,39,65,12,243,28*6B,1606998451446
NMEA,$GLGSV,2,2,08,85,69,067,13,72,03,205,24,74,33,078,,84,15,028,*65,1606998451446
NMEA,$GAGSV,2,1,07,02,23,307,38,03,31,251,28,08,11,302,24,05,21,195,*69,1606998451447
NMEA,$GAGSV,2,2,07,24,26,071,,25,49,005,,36,42,168,*58,1606998451447
NMEA,$PQGSV,1,1,03,194,63,052,15,195,70,088,14,193,15,167,,0,5*63,1606998451447
NMEA,$PQGSV,4,1,16,02,40,239,27,03,59,202,30,05,16,255,29,06,46,192,28,0,4*61,1606998451448
NMEA,$PQGSV,4,2,16,09,59,239,27,10,45,306,33,11,22,208,32,13,08,185,19,0,4*62,1606998451448
NMEA,$PQGSV,4,3,16,14,08,229,32,16,48,198,33,25,11,313,23,26,47,087,14,0,4*6F,1606998451449
NMEA,$PQGSV,4,4,16,01,52,129,,04,37,113,,07,56,347,,08,21,165,,0,4*6E,1606998451449
Raw,27956540,27962990000000,,,-1291005707444370432,0.0,28.78653322113678,-2.5982230808163336,10.21827773405557,5093,2,0.0,207,55652354934885,13,31.8,3.0995676517486572,0.24620001018047333,0,0.0,0.0,,,,,0,,3,,
Raw,27956540,27962990000000,,,-1291005707444370432,0.0,28.78653322113678,-2.5982230808163336,10.21827773405557,5093,22,0.0,207,55652366057537,27,24.0,-619.2315673828125,0.8255000114440918,0,0.0,0.0,,,,,0,,3,,
Raw,27956540,27962990000000,,,-1291005707444370432,0.0,28.78653322113678,-2.5982230808163336,10.21827773405557,5093,12,0.0,207,55652355827595,7,37.2,-487.7816467285156,0.24310000240802765,0,0.0,0.0,,,,,0,,3,,
Raw,27956541,27962990000000,,,-1291005707444370432,0.0,28.78653322113678,-2.5982230808163336,10.21827773405557,5093,1,0.0,207,55652356677693,19,27.9,478.68743896484375,0.2653000056743622,0,0.0,0.0,,,,,0,,3,,
Raw,27956541,27962990000000,,,-1291005707444370432,0.0,28.78653322113678,-2.5982230808163336,10.21827773405557,5093,21,0.0,207,55652369293241,425,12.5,109.69497680664062,12.265000343322754,0,0.0,0.0,,,,,0,,3,,
Raw,27956541,27962990000000,,,-1291005707444370432,0.0,28.78653322113678,-2.5982230808163336,10.21827773405557,5093,8,0.0,207,55652353474585,27,24.9,559.0617065429688,0.8360000252723694,0,0.0,0.0,,,,,0,,3,,
Raw,27956541,27962990000000,,,-1291005707444370432,0.0,28.78653322113678,-2.5982230808163336,10.21827773405557,5093,1,0.0,15,390470352177645,53,19.4,-673.944091796875,1.0145000219345093,0,0.0,0.0,,,,,0,,1,,
Raw,27956541,27962990000000,,,-1291005707444370432,0.0,28.78653322113678,-2.5982230808163336,10.21827773405557,5093,4,0.0,15,390470361965438,9,35.3,320.5509948730469,0.023100001737475395,0,0.0,0.0,,,,,0,,1,,
Raw,27956541,27962990000000,,,-1291005707444370432,0.0,28.78653322113678,-2.5982230808163336,10.21827773405557,5093,7,0.0,15,390470352593864,9,35.1,-630.8140869140625,0.03960000351071358,0,0.0,0.0,,,,,0,,1,,
Raw,27956541,27962990000000,,,-1291005707444370432,0.0,28.78653322113678,-2.5982230808163336,10.21827773405557,5093,8,0.0,15,390470366502965,21,26.3,-91.22225189208984,0.12020000070333481,0,0.0,0.0,,,,,0,,1,,
Raw,27956542,27962990000000,,,-1291005707444370432,0.0,28.78653322113678,-2.5982230808163336,10.21827773405557,5093,9,0.0,15,390470358933538,21,26.2,-53.98270034790039,0.13819999992847443,0,0.0,0.0,,,,,0,,1,,
Raw,27956542,27962990000000,,,-1291005707444370432,0.0,28.78653322113678,-2.5982230808163336,10.21827773405557,5093,16,0.0,15,390470360219744,461,12.9,267.457763671875,12.846500396728516,0,0.0,0.0,,,,,0,,1,,
Raw,27956542,27962990000000,,,-1291005707444370432,0.0,28.78653322113678,-2.5982230808163336,10.21827773405557,5093,21,0.0,15,390470360060674,223,13.0,-553.5547485351562,7.596500396728516,0,0.0,0.0,,,,,0,,1,,
Raw,27956542,27962990000000,,,-1291005707444370432,0.0,28.78653322113678,-2.5982230808163336,10.21827773405557,5093,27,0.0,15,390470365743679,80,19.1,350.9396057128906,4.004000186920166,0,0.0,0.0,,,,,0,,1,,
Raw,27956542,27962990000000,,,-1291005707444370432,0.0,28.78653322113678,-2.5982230808163336,10.21827773405557,5093,2,0.0,783,390456309296986,34,24.8,0.6529343128204346,2.055000066757202,0,0.0,0.0,,,,,0,,5,,
Raw,27956542,27962990000000,,,-1291005707444370432,0.0,28.78653322113678,-2.5982230808163336,10.21827773405557,5093,3,0.0,783,390456312749846,16,29.9,-6.126059532165527,0.3935000002384186,0,0.0,0.0,,,,,0,,5,,
Raw,27956542,27962990000000,,,-1291005707444370432,0.0,28.78653322113678,-2.5982230808163336,10.21827773405557,5093,5,0.0,783,390456301004571,16,29.1,2.0932304859161377,0.4150000214576721,0,0.0,0.0,,,,,0,,5,,
Raw,27956543,27962990000000,,,-1291005707444370432,0.0,28.78653322113678,-2.5982230808163336,10.21827773405557,5093,6,0.0,15,390456311135006,17,28.4,258.53973388671875,0.049800001084804535,0,0.0,0.0,,,,,0,,5,,
Raw,27956543,27962990000000,,,-1291005707444370432,0.0,28.78653322113678,-2.5982230808163336,10.21827773405557,5093,9,0.0,15,390456314030871,21,26.9,167.60035705566406,0.13220000267028809,0,0.0,0.0,,,,,0,,5,,
Raw,27956543,27962990000000,,,-1291005707444370432,0.0,28.78653322113678,-2.5982230808163336,10.21827773405557,5093,10,0.0,15,390456308743738,12,32.9,21.83750343322754,0.03590000048279762,0,0.0,0.0,,,,,0,,5,,
Raw,27956543,27962990000000,,,-1291005707444370432,0.0,28.78653322113678,-2.5982230808163336,10.21827773405557,5093,11,0.0,15,390456350996364,12,32.4,-586.63134765625,0.03890000283718109,0,0.0,0.0,,,,,0,,5,,
Raw,27956543,27962990000000,,,-1291005707444370432,0.0,28.78653322113678,-2.5982230808163336,10.21827773405557,5093,13,0.0,15,390456298694845,61,18.0,-256.1038513183594,0.9434999823570251,0,0.0,0.0,,,,,0,,5,,
Raw,27956543,27962990000000,,,-1291005707444370432,0.0,28.78653322113678,-2.5982230808163336,10.21827773405557,5093,14,0.0,15,390456346420908,11,33.4,328.70404052734375,0.03189999982714653,0,0.0,0.0,,,,,0,,5,,
Raw,27956543,27962990000000,,,-1291005707444370432,0.0,28.78653322113678,-2.5982230808163336,10.21827773405557,5093,16,0.0,15,390456310106579,12,32.7,273.6631774902344,0.03890000283718109,0,0.0,0.0,,,,,0,,5,,
Raw,27956544,27962990000000,,,-1291005707444370432,0.0,28.78653322113678,-2.5982230808163336,10.21827773405557,5093,25,0.0,15,390456347416119,35,22.9,-477.1413269042969,0.6270000338554382,0,0.0,0.0,,,,,0,,5,,
Raw,27956544,27962990000000,,,-1291005707444370432,0.0,28.78653322113678,-2.5982230808163336,10.21827773405557,5093,26,0.0,15,390456359042334,651,14.3,160.2569580078125,16.28499984741211,0,0.0,0.0,,,,,0,,5,,
Raw,27956544,27962990000000,,,-1291005707444370432,0.0,28.78653322113678,-2.5982230808163336,10.21827773405557,5093,2,0.0,7183,390470346340082,6,38.7,-242.8394317626953,0.0471000038087368,0,0.0,0.0,,,,,0,,6,,
Raw,27956544,27962990000000,,,-1291005707444370432,0.0,28.78653322113678,-2.5982230808163336,10.21827773405557,5093,3,0.0,7183,390470348063446,17,28.7,265.0414123535156,0.05730000138282776,0,0.0,0.0,,,,,0,,6,,
Raw,27956544,27962990000000,,,-1291005707444370432,0.0,28.78653322113678,-2.5982230808163336,10.21827773405557,5093,8,0.0,7183,390470348332819,31,23.8,-102.32090759277344,0.6004999876022339,0,0.0,0.0,,,,,0,,6,,
NMEA,$GNGSA,A,3,01,04,07,08,09,27,,,,,,,1.3,1.1,0.7,1*32,1606998451450
NMEA,$GNGSA,A,3,65,66,76,86,,,,,,,,,1.3,1.1,0.7,2*3B,1606998451450
NMEA,$GNGSA,A,2,02,03,08,,,,,,,,,,1.3,1.1,0.7,3*3E,1606998451450
NMEA,$PQGSA,A,3,09,10,11,14,16,25,,,,,,,1.3,1.1,0.7,4*34,1606998451450
NMEA,$GNVTG,,T,,M,0.0,N,0.0,K,A*3D,1606998451451
NMEA,$GNRMC,122732.00,A,2255.527384,N,12017.679562,E,0.0,,031220,2.8,W,A*1B,1606998451451
NMEA,$GNGGA,122732.00,2255.527384,N,12017.679562,E,1,12,1.1,33.4,M,17.5,M,,*42,1606998451451
Fix,gps,22.925456,120.294658,50.929871,0.000000,9.648001,1606998453000
NMEA,$GPGSV,3,1,11,01,07,187,19,04,45,234,35,07,15,319,35,08,68,260,26*75,1606998452447
NMEA,$GPGSV,3,2,11,09,32,282,26,11,00,000,25,16,36,037,13,21,28,170,13*72,1606998452447
NMEA,$GPGSV,3,3,11,27,61,018,19,26,18,068,,31,11,129,*41,1606998452447
NMEA,$GLGSV,2,1,08,66,06,303,32,86,45,184,24,76,09,319,37,65,12,243,28*65,1606998452447
NMEA,$GLGSV,2,2,08,85,69,067,13,72,03,205,25,74,33,078,,84,15,028,*64,1606998452448
NMEA,$GAGSV,2,1,07,02,23,307,39,03,31,251,29,08,11,302,24,05,21,195,*69,1606998452448
NMEA,$GAGSV,2,2,07,24,26,071,,25,49,005,,36,42,168,*58,1606998452448
NMEA,$PQGSV,1,1,03,194,63,052,15,195,70,088,14,193,15,167,,0,5*63,1606998452448
NMEA,$PQGSV,4,1,16,02,40,239,25,03,59,202,30,05,16,255,29,06,46,192,28,0,4*63,1606998452448
NMEA,$PQGSV,4,2,16,09,59,239,27,10,45,306,33,11,22,208,32,13,08,185,18,0,4*63,1606998452449
NMEA,$PQGSV,4,3,16,14,08,229,33,16,48,198,33,25,11,313,23,26,47,087,14,0,4*6E,1606998452449
NMEA,$PQGSV,4,4,16,01,52,129,,04,37,113,,07,56,347,,08,21,165,,0,4*6E,1606998452449
NMEA,$GNGSA,A,3,01,04,07,08,09,27,,,,,,,1.3,1.1,0.7,1*32,1606998452450
NMEA,$GNGSA,A,3,65,66,76,86,,,,,,,,,1.3,1.1,0.7,2*3B,1606998452451
NMEA,$GNGSA,A,2,02,03,08,,,,,,,,,,1.3,1.1,0.7,3*3E,1606998452451
NMEA,$PQGSA,A,3,09,10,11,14,16,25,,,,,,,1.3,1.1,0.7,4*34,1606998452451
NMEA,$GNVTG,,T,,M,0.0,N,0.0,K,A*3D,1606998452451
NMEA,$GNRMC,122733.00,A,2255.527367,N,12017.679506,E,0.0,,031220,2.8,W,A*15,1606998452451
Raw,27957543,27963990000000,,,-1291005707444370432,0.0,27.169444365426898,-2.709004817876955,10.212098417964773,5093,2,0.0,207,55653354934849,13,31.3,3.1242973804473877,0.24620001018047333,0,0.0,0.0,,,,,0,,3,,
Raw,27957543,27963990000000,,,-1291005707444370432,0.0,27.169444365426898,-2.709004817876955,10.212098417964773,5093,22,0.0,207,55653366059764,31,23.5,-618.6133422851562,0.875499963760376,0,0.0,0.0,,,,,0,,3,,
Raw,27957543,27963990000000,,,-1291005707444370432,0.0,27.169444365426898,-2.709004817876955,10.212098417964773,5093,12,0.0,207,55653355829216,7,37.3,-487.89892578125,0.24310000240802765,0,0.0,0.0,,,,,0,,3,,
Raw,27957543,27963990000000,,,-1291005707444370432,0.0,27.169444365426898,-2.709004817876955,10.212098417964773,5093,1,0.0,207,55653356676129,21,26.3,478.6231689453125,0.3352000117301941,0,0.0,0.0,,,,,0,,3,,
Raw,27957543,27963990000000,,,-1291005707444370432,0.0,27.169444365426898,-2.709004817876955,10.212098417964773,5093,21,0.0,207,55653369292875,506,12.5,109.69497680664062,13.765000343322754,0,0.0,0.0,,,,,0,,3,,
Raw,27957543,27963990000000,,,-1291005707444370432,0.0,27.169444365426898,-2.709004817876955,10.212098417964773,5093,8,0.0,207,55653353472670,31,23.0,559.7433471679688,0.8859999775886536,0,0.0,0.0,,,,,0,,3,,
Raw,27957543,27963990000000,,,-1291005707444370432,0.0,27.169444365426898,-2.709004817876955,10.212098417964773,5093,1,0.0,15,390471352179898,46,20.1,-672.7737426757812,0.934499979019165,0,0.0,0.0,,,,,0,,1,,
Raw,27957544,27963990000000,,,-1291005707444370432,0.0,27.169444365426898,-2.709004817876955,10.212098417964773,5093,4,0.0,15,390471361964372,9,35.6,320.5462951660156,0.023100001737475395,0,0.0,0.0,,,,,0,,1,,
Raw,27957544,27963990000000,,,-1291005707444370432,0.0,27.169444365426898,-2.709004817876955,10.212098417964773,5093,7,0.0,15,390471352595973,8,36.4,-630.9188232421875,0.03920000046491623,0,0.0,0.0,,,,,0,,1,,
Raw,27957544,27963990000000,,,-1291005707444370432,0.0,27.169444365426898,-2.709004817876955,10.212098417964773,5093,8,0.0,15,390471366503282,21,26.2,-91.20098114013672,0.12020000070333481,0,0.0,0.0,,,,,0,,1,,
Raw,27957544,27963990000000,,,-1291005707444370432,0.0,27.169444365426898,-2.709004817876955,10.212098417964773,5093,9,0.0,15,390471358933660,40,21.4,-53.891170501708984,0.8734999895095825,0,0.0,0.0,,,,,0,,1,,
Raw,27957544,27963990000000,,,-1291005707444370432,0.0,27.169444365426898,-2.709004817876955,10.212098417964773,5093,16,0.0,15,390471360218852,546,12.9,267.457763671875,14.346500396728516,0,0.0,0.0,,,,,0,,1,,
Raw,27957544,27963990000000,,,-1291005707444370432,0.0,27.169444365426898,-2.709004817876955,10.212098417964773,5093,21,0.0,15,390471360062520,274,13.0,-553.5547485351562,9.096500396728516,0,0.0,0.0,,,,,0,,1,,
Raw,27957545,27963990000000,,,-1291005707444370432,0.0,27.169444365426898,-2.709004817876955,10.212098417964773,5093,27,0.0,15,390471365742576,102,15.3,350.03570556640625,2.864000082015991,0,0.0,0.0,,,,,0,,1,,
Raw,27957545,27963990000000,,,-1291005707444370432,0.0,27.169444365426898,-2.709004817876955,10.212098417964773,5093,2,0.0,783,390457309296984,51,24.8,0.6529343128204346,3.555000066757202,0,0.0,0.0,,,,,0,,5,,
Raw,27957545,27963990000000,,,-1291005707444370432,0.0,27.169444365426898,-2.709004817876955,10.212098417964773,5093,3,0.0,783,390457312749873,14,30.9,-3.898401975631714,0.3634999990463257,0,0.0,0.0,,,,,0,,5,,
Raw,27957545,27963990000000,,,-1291005707444370432,0.0,27.169444365426898,-2.709004817876955,10.212098417964773,5093,5,0.0,783,390457301004585,17,28.2,-2.5157175064086914,0.445000022649765,0,0.0,0.0,,,,,0,,5,,
Raw,27957545,27963990000000,,,-1291005707444370432,0.0,27.169444365426898,-2.709004817876955,10.212098417964773,5093,6,0.0,15,390457311134133,17,28.2,258.4632263183594,0.049800001084804535,0,0.0,0.0,,,,,0,,5,,
Raw,27957545,27963990000000,,,-1291005707444370432,0.0,27.169444365426898,-2.709004817876955,10.212098417964773,5093,9,0.0,15,390457314030291,24,25.8,167.51133728027344,0.4027999937534332,0,0.0,0.0,,,,,0,,5,,
Raw,27957545,27963990000000,,,-1291005707444370432,0.0,27.169444365426898,-2.709004817876955,10.212098417964773,5093,10,0.0,15,390457308743650,11,33.0,21.71063995361328,0.03490000218153,0,0.0,0.0,,,,,0,,5,,
Raw,27957546,27963990000000,,,-1291005707444370432,0.0,27.169444365426898,-2.709004817876955,10.212098417964773,5093,11,0.0,15,390457350998319,11,33.6,-586.6658325195312,0.03790000081062317,0,0.0,0.0,,,,,0,,5,,
Raw,27957546,27963990000000,,,-1291005707444370432,0.0,27.169444365426898,-2.709004817876955,10.212098417964773,5093,13,0.0,15,390457298695727,53,19.8,-256.15185546875,0.8134999871253967,0,0.0,0.0,,,,,0,,5,,
Raw,27957546,27963990000000,,,-1291005707444370432,0.0,27.169444365426898,-2.709004817876955,10.212098417964773,5093,14,0.0,15,390457346419804,11,33.2,328.5823059082031,0.03189999982714653,0,0.0,0.0,,,,,0,,5,,
Raw,27957546,27963990000000,,,-1291005707444370432,0.0,27.169444365426898,-2.709004817876955,10.212098417964773,5093,16,0.0,15,390457310105678,12,32.1,273.572021484375,0.03890000283718109,0,0.0,0.0,,,,,0,,5,,
Raw,27957546,27963990000000,,,-1291005707444370432,0.0,27.169444365426898,-2.709004817876955,10.212098417964773,5093,25,0.0,15,390457347417719,21,26.0,-477.66851806640625,0.12170000374317169,0,0.0,0.0,,,,,0,,5,,
Raw,27957546,27963990000000,,,-1291005707444370432,0.0,27.169444365426898,-2.709004817876955,10.212098417964773,5093,26,0.0,15,390457359041670,285,11.4,158.9990997314453,8.375,0,0.0,0.0,,,,,0,,5,,
Raw,27957546,27963990000000,,,-1291005707444370432,0.0,27.169444365426898,-2.709004817876955,10.212098417964773,5093,2,0.0,7183,390471346340894,6,38.8,-242.86929321289062,0.0471000038087368,0,0.0,0.0,,,,,0,,6,,
Raw,27957547,27963990000000,,,-1291005707444370432,0.0,27.169444365426898,-2.709004817876955,10.212098417964773,5093,3,0.0,7183,390471348062566,27,24.9,264.7080078125,0.5504999756813049,0,0.0,0.0,,,,,0,,6,,
Raw,27957547,27963990000000,,,-1291005707444370432,0.0,27.169444365426898,-2.709004817876955,10.212098417964773,5093,8,0.0,7183,390471348333136,31,23.9,-102.06401824951172,0.6004999876022339,0,0.0,0.0,,,,,0,,6,,
NMEA,$GNGGA,122733.00,2255.527367,N,12017.679506,E,1,12,1.1,33.5,M,17.5,M,,*4D,1606998452451
Fix,gps,22.925456,120.294659,51.088745,0.000000,9.648001,1606998454000
NMEA,$GPGSV,3,1,11,01,07,187,20,04,45,234,36,07,15,319,36,08,68,260,26*7F,1606998453445
NMEA,$GPGSV,3,2,11,09,32,282,21,11,00,000,28,16,36,037,13,21,28,170,13*78,1606998453446
NMEA,$GPGSV,3,3,11,27,61,018,15,26,18,068,,31,11,129,*4D,1606998453446
NMEA,$GLGSV,2,1,08,66,06,303,31,86,45,184,24,76,09,319,37,65,12,243,26*68,1606998453446
NMEA,$GLGSV,2,2,08,85,69,067,13,72,03,205,23,74,33,078,,84,15,028,*62,1606998453446
NMEA,$GAGSV,2,1,07,02,23,307,39,03,31,251,25,08,11,302,24,05,21,195,*65,1606998453446
NMEA,$GAGSV,2,2,07,24,26,071,,25,49,005,,36,42,168,*58,1606998453447
NMEA,$PQGSV,1,1,03,194,63,052,15,195,70,088,14,193,15,167,,0,5*63,1606998453447
NMEA,$PQGSV,4,1,16,02,40,239,25,03,59,202,31,05,16,255,28,06,46,192,28,0,4*63,1606998453447
NMEA,$PQGSV,4,2,16,09,59,239,26,10,45,306,33,11,22,208,34,13,08,185,20,0,4*6F,1606998453447
NMEA,$PQGSV,4,3,16,14,08,229,33,16,48,198,32,25,11,313,26,26,47,087,11,0,4*6F,1606998453448
NMEA,$PQGSV,4,4,16,01,52,129,,04,37,113,,07,56,347,,08,21,165,,0,4*6E,1606998453448
NMEA,$GNGSA,A,3,01,04,07,08,09,27,,,,,,,1.3,1.1,0.7,1*32,1606998453449
NMEA,$GNGSA,A,3,65,66,76,86,,,,,,,,,1.3,1.1,0.7,2*3B,1606998453449
NMEA,$GNGSA,A,2,02,03,08,,,,,,,,,,1.3,1.1,0.7,3*3E,1606998453449
Raw,27958570,27964990000000,,,-1291005707444370432,0.0,28.00486072374042,-3.073549474967858,12.168495341232106,5093,2,0.0,207,55654354934851,13,31.8,0.37020906805992126,0.24620001018047333,0,0.0,0.0,,,,,0,,3,,
Raw,27958570,27964990000000,,,-1291005707444370432,0.0,28.00486072374042,-3.073549474967858,12.168495341232106,5093,22,0.0,207,55654366061621,35,22.4,-621.5732421875,0.9354999661445618,0,0.0,0.0,,,,,0,,3,,
Raw,27958571,27964990000000,,,-1291005707444370432,0.0,28.00486072374042,-3.073549474967858,12.168495341232106,5093,12,0.0,207,55654355830852,8,36.9,-490.84765625,0.24370001256465912,0,0.0,0.0,,,,,0,,3,,
Raw,27958571,27964990000000,,,-1291005707444370432,0.0,28.00486072374042,-3.073549474967858,12.168495341232106,5093,1,0.0,207,55654356674463,24,25.1,476.3185729980469,0.6057999730110168,0,0.0,0.0,,,,,0,,3,,
Raw,27958572,27964990000000,,,-1291005707444370432,0.0,28.00486072374042,-3.073549474967858,12.168495341232106,5093,21,0.0,207,55654369292509,597,12.5,109.69497680664062,15.265000343322754,0,0.0,0.0,,,,,0,,3,,
Raw,27958572,27964990000000,,,-1291005707444370432,0.0,28.00486072374042,-3.073549474967858,12.168495341232106,5093,8,0.0,207,55654353470736,46,20.7,556.5126953125,1.065999984741211,0,0.0,0.0,,,,,0,,3,,
Raw,27958573,27964990000000,,,-1291005707444370432,0.0,28.00486072374042,-3.073549474967858,12.168495341232106,5093,1,0.0,15,390472352182131,46,20.7,-677.0839233398438,0.8644999861717224,0,0.0,0.0,,,,,0,,1,,
Raw,27958573,27964990000000,,,-1291005707444370432,0.0,28.00486072374042,-3.073549474967858,12.168495341232106,5093,4,0.0,15,390472361963325,11,33.2,317.7314453125,0.024400001391768456,0,0.0,0.0,,,,,0,,1,,
Raw,27958574,27964990000000,,,-1291005707444370432,0.0,28.00486072374042,-3.073549474967858,12.168495341232106,5093,7,0.0,15,390472352598092,10,34.4,-633.8367309570312,0.04010000079870224,0,0.0,0.0,,,,,0,,1,,
Raw,27958575,27964990000000,,,-1291005707444370432,0.0,28.00486072374042,-3.073549474967858,12.168495341232106,5093,8,0.0,15,390472366503602,24,25.8,-93.16080474853516,0.39079999923706055,0,0.0,0.0,,,,,0,,1,,
Raw,27958576,27964990000000,,,-1291005707444370432,0.0,28.00486072374042,-3.073549474967858,12.168495341232106,5093,9,0.0,15,390472358933912,14,30.9,-56.24129867553711,0.41350001096725464,0,0.0,0.0,,,,,0,,1,,
Raw,27958576,27964990000000,,,-1291005707444370432,0.0,28.00486072374042,-3.073549474967858,12.168495341232106,5093,16,0.0,15,390472360217959,642,12.9,267.457763671875,15.846500396728516,0,0.0,0.0,,,,,0,,1,,
Raw,27958577,27964990000000,,,-1291005707444370432,0.0,28.00486072374042,-3.073549474967858,12.168495341232106,5093,21,0.0,15,390472360064367,334,13.0,-553.5547485351562,10.596500396728516,0,0.0,0.0,,,,,0,,1,,
Raw,27958577,27964990000000,,,-1291005707444370432,0.0,28.00486072374042,-3.073549474967858,12.168495341232106,5093,27,0.0,15,390472365741408,122,15.3,350.03570556640625,4.36400032043457,0,0.0,0.0,,,,,0,,1,,
Raw,27958578,27964990000000,,,-1291005707444370432,0.0,28.00486072374042,-3.073549474967858,12.168495341232106,5093,2,0.0,783,390458309296982,78,24.8,0.6529343128204346,5.055000305175781,0,0.0,0.0,,,,,0,,5,,
Raw,27958578,27964990000000,,,-1291005707444370432,0.0,28.00486072374042,-3.073549474967858,12.168495341232106,5093,3,0.0,783,390458312749897,16,29.8,-8.69938850402832,0.3935000002384186,0,0.0,0.0,,,,,0,,5,,
Raw,27958579,27964990000000,,,-1291005707444370432,0.0,28.00486072374042,-3.073549474967858,12.168495341232106,5093,5,0.0,783,390458301004594,19,27.7,1.7955693006515503,0.48500001430511475,0,0.0,0.0,,,,,0,,5,,
Raw,27958579,27964990000000,,,-1291005707444370432,0.0,28.00486072374042,-3.073549474967858,12.168495341232106,5093,6,0.0,15,390458311133272,17,28.3,255.60455322265625,0.43299999833106995,0,0.0,0.0,,,,,0,,5,,
Raw,27958579,27964990000000,,,-1291005707444370432,0.0,28.00486072374042,-3.073549474967858,12.168495341232106,5093,9,0.0,15,390458314029743,19,27.9,164.6354522705078,0.4375,0,0.0,0.0,,,,,0,,5,,
Raw,27958580,27964990000000,,,-1291005707444370432,0.0,28.00486072374042,-3.073549474967858,12.168495341232106,5093,10,0.0,15,390458308743589,12,32.1,18.822147369384766,0.03590000048279762,0,0.0,0.0,,,,,0,,5,,
Raw,27958581,27964990000000,,,-1291005707444370432,0.0,28.00486072374042,-3.073549474967858,12.168495341232106,5093,11,0.0,15,390458351000281,12,32.2,-589.525390625,0.040400002151727676,0,0.0,0.0,,,,,0,,5,,
Raw,27958581,27964990000000,,,-1291005707444370432,0.0,28.00486072374042,-3.073549474967858,12.168495341232106,5093,13,0.0,15,390458298696662,70,17.3,-259.1764831542969,1.0234999656677246,0,0.0,0.0,,,,,0,,5,,
Raw,27958582,27964990000000,,,-1291005707444370432,0.0,28.00486072374042,-3.073549474967858,12.168495341232106,5093,14,0.0,15,390458346418717,12,32.0,325.6744689941406,0.03290000185370445,0,0.0,0.0,,,,,0,,5,,
Raw,27958582,27964990000000,,,-1291005707444370432,0.0,28.00486072374042,-3.073549474967858,12.168495341232106,5093,16,0.0,15,390458310104769,13,31.2,270.72711181640625,0.04020000249147415,0,0.0,0.0,,,,,0,,5,,
Raw,27958583,27964990000000,,,-1291005707444370432,0.0,28.00486072374042,-3.073549474967858,12.168495341232106,5093,25,0.0,15,390458347419306,19,27.2,-480.3771667480469,0.46700000762939453,0,0.0,0.0,,,,,0,,5,,
Raw,27958583,27964990000000,,,-1291005707444370432,0.0,28.00486072374042,-3.073549474967858,12.168495341232106,5093,26,0.0,15,390458359041139,341,11.4,158.9990997314453,9.875,0,0.0,0.0,,,,,0,,5,,
Raw,27958584,27964990000000,,,-1291005707444370432,0.0,28.00486072374042,-3.073549474967858,12.168495341232106,5093,2,0.0,7183,390472346341711,7,37.4,-246.00213623046875,0.22350001335144043,0,0.0,0.0,,,,,0,,6,,
Raw,27958584,27964990000000,,,-1291005707444370432,0.0,28.00486072374042,-3.073549474967858,12.168495341232106,5093,3,0.0,7183,390472348061691,19,27.6,262.5196533203125,0.44050002098083496,0,0.0,0.0,,,,,0,,6,,
Raw,27958585,27964990000000,,,-1291005707444370432,0.0,28.00486072374042,-3.073549474967858,12.168495341232106,5093,8,0.0,7183,390472348333513,31,23.7,-106.23143768310547,0.6004999876022339,0,0.0,0.0,,,,,0,,6,,
NMEA,$PQGSA,A,3,09,10,11,14,16,25,,,,,,,1.3,1.1,0.7,4*34,1606998453449
NMEA,$GNVTG,,T,,M,0.0,N,0.0,K,A*3D,1606998453450
NMEA,$GNRMC,122734.00,A,2255.527334,N,12017.679551,E,0.0,,031220,2.8,W,A*16,1606998453450
NMEA,$GNGGA,122734.00,2255.527334,N,12017.679551,E,1,12,1.1,33.6,M,17.5,M,,*4D,1606998453450
Fix,gps,22.925455,120.294658,51.551025,0.000000,9.648001,1606998455000
NMEA,$GPGSV,3,1,11,01,07,187,21,04,45,234,33,07,15,319,34,08,68,260,26*79,1606998454446
NMEA,$GPGSV,3,2,11,09,32,282,31,11,00,000,28,16,36,037,13,21,28,170,13*79,1606998454446
NMEA,$GPGSV,3,3,11,27,61,018,15,26,18,068,,31,11,129,*4D,1606998454446
NMEA,$GLGSV,2,1,08,66,06,303,32,86,45,184,22,76,09,319,37,65,12,243,25*6E,1606998454446
NMEA,$GLGSV,2,2,08,85,69,067,13,72,03,205,21,74,33,078,,84,15,028,*60,1606998454448
NMEA,$GAGSV,2,1,07,02,23,307,37,03,31,251,28,08,11,302,24,05,21,195,*66,1606998454448
NMEA,$GAGSV,2,2,07,24,26,071,,25,49,005,,36,42,168,*58,1606998454449
NMEA,$PQGSV,1,1,03,194,63,052,15,195,70,088,14,193,15,167,,0,5*63,1606998454449
NMEA,$PQGSV,4,1,16,02,40,239,25,03,59,202,30,05,16,255,28,06,46,192,28,0,4*62,1606998454449
NMEA,$PQGSV,4,2,16,09,59,239,28,10,45,306,32,11,22,208,32,13,08,185,17,0,4*62,1606998454449
NMEA,$PQGSV,4,3,16,14,08,229,32,16,48,198,31,25,11,313,27,26,47,087,11,0,4*6C,1606998454450
NMEA,$PQGSV,4,4,16,01,52,129,,04,37,113,,07,56,347,,08,21,165,,0,4*6E,1606998454450
Raw,27959556,27965990000000,,,-1291005707444370432,0.0,28.731476049870253,-12.62540049427164,13.146472715365999,5093,2,0.0,207,55655354934830,12,32.3,0.7680850625038147,0.24490001797676086,0,0.0,0.0,,,,,0,,3,,
Raw,27959557,27965990000000,,,-1291005707444370432,0.0,28.731476049870253,-12.62540049427164,13.146472715365999,5093,22,0.0,207,55655366063827,53,19.1,-620.9269409179688,1.1255000829696655,0,0.0,0.0,,,,,0,,3,,
Raw,27959557,27965990000000,,,-1291005707444370432,0.0,28.731476049870253,-12.62540049427164,13.146472715365999,5093,12,0.0,207,55655355832478,7,37.8,-490.5753479003906,0.24310000240802765,0,0.0,0.0,,,,,0,,3,,
Raw,27959557,27965990000000,,,-1291005707444370432,0.0,28.731476049870253,-12.62540049427164,13.146472715365999,5093,1,0.0,207,55655356672839,16,29.6,476.08831787109375,0.2506999969482422,0,0.0,0.0,,,,,0,,3,,
Raw,27959557,27965990000000,,,-1291005707444370432,0.0,28.731476049870253,-12.62540049427164,13.146472715365999,5093,21,0.0,207,55655369292143,698,12.5,109.69497680664062,16.76500129699707,0,0.0,0.0,,,,,0,,3,,
Raw,27959557,27965990000000,,,-1291005707444370432,0.0,28.731476049870253,-12.62540049427164,13.146472715365999,5093,8,0.0,207,55655353468963,53,19.7,557.1008911132812,1.1360000371932983,0,0.0,0.0,,,,,0,,3,,
Raw,27959558,27965990000000,,,-1291005707444370432,0.0,28.731476049870253,-12.62540049427164,13.146472715365999,5093,1,0.0,15,390473352184395,35,22.0,-676.0658569335938,0.8044999837875366,0,0.0,0.0,,,,,0,,1,,
Raw,27959558,27965990000000,,,-1291005707444370432,0.0,28.731476049870253,-12.62540049427164,13.146472715365999,5093,4,0.0,15,390473361962234,10,34.6,318.12115478515625,0.023600000888109207,0,0.0,0.0,,,,,0,,1,,
Raw,27959558,27965990000000,,,-1291005707444370432,0.0,28.731476049870253,-12.62540049427164,13.146472715365999,5093,7,0.0,15,390473352600214,9,35.7,-633.5545654296875,0.03960000351071358,0,0.0,0.0,,,,,0,,1,,
Raw,27959558,27965990000000,,,-1291005707444370432,0.0,28.731476049870253,-12.62540049427164,13.146472715365999,5093,8,0.0,15,390473366503861,21,26.9,-93.61642456054688,0.12020000070333481,0,0.0,0.0,,,,,0,,1,,
Raw,27959558,27965990000000,,,-1291005707444370432,0.0,28.731476049870253,-12.62540049427164,13.146472715365999,5093,9,0.0,15,390473358934049,16,29.4,-56.232852935791016,0.053700003772974014,0,0.0,0.0,,,,,0,,1,,
Raw,27959558,27965990000000,,,-1291005707444370432,0.0,28.731476049870253,-12.62540049427164,13.146472715365999,5093,16,0.0,15,390473360217067,747,12.9,267.457763671875,17.346500396728516,0,0.0,0.0,,,,,0,,1,,
Raw,27959558,27965990000000,,,-1291005707444370432,0.0,28.731476049870253,-12.62540049427164,13.146472715365999,5093,21,0.0,15,390473360066213,405,13.0,-553.5547485351562,12.096500396728516,0,0.0,0.0,,,,,0,,1,,
Raw,27959559,27965990000000,,,-1291005707444370432,0.0,28.731476049870253,-12.62540049427164,13.146472715365999,5093,27,0.0,15,390473365740238,96,15.8,345.5162353515625,2.0139999389648438,0,0.0,0.0,,,,,0,,1,,
Raw,27959559,27965990000000,,,-1291005707444370432,0.0,28.731476049870253,-12.62540049427164,13.146472715365999,5093,2,0.0,783,390459309297019,38,23.7,0.3744770288467407,2.1449999809265137,0,0.0,0.0,,,,,0,,5,,
Raw,27959559,27965990000000,,,-1291005707444370432,0.0,28.731476049870253,-12.62540049427164,13.146472715365999,5093,3,0.0,783,390459312749915,14,30.9,-10.571773529052734,0.3634999990463257,0,0.0,0.0,,,,,0,,5,,
Raw,27959559,27965990000000,,,-1291005707444370432,0.0,28.731476049870253,-12.62540049427164,13.146472715365999,5093,5,0.0,783,390459301004588,26,27.7,1.7955693006515503,1.9850000143051147,0,0.0,0.0,,,,,0,,5,,
Raw,27959559,27965990000000,,,-1291005707444370432,0.0,28.731476049870253,-12.62540049427164,13.146472715365999,5093,6,0.0,15,390459311132425,16,29.4,255.87545776367188,0.04320000112056732,0,0.0,0.0,,,,,0,,5,,
Raw,27959559,27965990000000,,,-1291005707444370432,0.0,28.731476049870253,-12.62540049427164,13.146472715365999,5093,9,0.0,15,390459314029202,17,28.4,164.9724578857422,0.05430000275373459,0,0.0,0.0,,,,,0,,5,,
Raw,27959559,27965990000000,,,-1291005707444370432,0.0,28.731476049870253,-12.62540049427164,13.146472715365999,5093,10,0.0,15,390459308743523,11,33.1,19.085124969482422,0.03490000218153,0,0.0,0.0,,,,,0,,5,,
Raw,27959560,27965990000000,,,-1291005707444370432,0.0,28.731476049870253,-12.62540049427164,13.146472715365999,5093,11,0.0,15,390459351002251,12,32.2,-589.2330322265625,0.040400002151727676,0,0.0,0.0,,,,,0,,5,,
Raw,27959560,27965990000000,,,-1291005707444370432,0.0,28.731476049870253,-12.62540049427164,13.146472715365999,5093,13,0.0,15,390459298697431,61,18.2,-259.3781433105469,0.9434999823570251,0,0.0,0.0,,,,,0,,5,,
Raw,27959560,27965990000000,,,-1291005707444370432,0.0,28.731476049870253,-12.62540049427164,13.146472715365999,5093,14,0.0,15,390459346417633,14,30.0,325.9532775878906,0.03480000048875809,0,0.0,0.0,,,,,0,,5,,
Raw,27959560,27965990000000,,,-1291005707444370432,0.0,28.731476049870253,-12.62540049427164,13.146472715365999,5093,16,0.0,15,390459310103872,12,32.2,271.00604248046875,0.03890000283718109,0,0.0,0.0,,,,,0,,5,,
Raw,27959560,27965990000000,,,-1291005707444370432,0.0,28.731476049870253,-12.62540049427164,13.146472715365999,5093,25,0.0,15,390459347420927,13,31.9,-480.3709716796875,0.0357000008225441,0,0.0,0.0,,,,,0,,5,,
Raw,27959561,27965990000000,,,-1291005707444370432,0.0,28.731476049870253,-12.62540049427164,13.146472715365999,5093,26,0.0,15,390459359040609,407,11.4,158.9990997314453,11.375000953674316,0,0.0,0.0,,,,,0,,5,,
Raw,27959561,27965990000000,,,-1291005707444370432,0.0,28.731476049870253,-12.62540049427164,13.146472715365999,5093,2,0.0,7183,390473346342528,9,35.9,-245.6405792236328,0.25349998474121094,0,0.0,0.0,,,,,0,,6,,
Raw,27959561,27965990000000,,,-1291005707444370432,0.0,28.731476049870253,-12.62540049427164,13.146472715365999,5093,3,0.0,7183,390473348060831,19,27.1,262.1200256347656,0.44050002098083496,0,0.0,0.0,,,,,0,,6,,
Raw,27959561,27965990000000,,,-1291005707444370432,0.0,28.731476049870253,-12.62540049427164,13.146472715365999,5093,8,0.0,7183,390473348333917,31,23.2,-104.3760757446289,0.6004999876022339,0,0.0,0.0,,,,,0,,6,,
NMEA,$GNGSA,A,3,01,04,07,08,09,27,,,,,,,1.5,1.3,0.7,1*36,1606998454451
NMEA,$GNGSA,A,3,65,66,76,86,,,,,,,,,1.5,1.3,0.7,2*3F,1606998454451
NMEA,$GNGSA,A,2,02,03,08,,,,,,,,,,1.5,1.3,0.7,3*3A,1606998454451
NMEA,$PQGSA,A,3,09,10,11,14,16,25,,,,,,,1.5,1.3,0.7,4*30,1606998454451
NMEA,$GNVTG,,T,,M,0.0,N,0.0,K,A*3D,1606998454452
NMEA,$GNRMC,122735.00,A,2255.527304,N,12017.679454,E,0.0,,031220,2.8,W,A*10,1606998454452
NMEA,$GNGGA,122735.00,2255.527304,N,12017.679454,E,1,12,1.3,34.1,M,17.5,M,,*49,1606998454452
Fix,gps,22.925454,120.294659,51.519775,0.000000,9.648001,1606998456000
Raw,27960576,27966990000000,,,-1291005707444370432,0.0,26.936704671243206,-11.99773149185653,12.14471650582479,5093,2,0.0,207,55656354934828,10,34.3,0.015910755842924118,0.24310001730918884,0,0.0,0.0,,,,,0,,3,,
Raw,27960576,27966990000000,,,-1291005707444370432,0.0,26.936704671243206,-11.99773149185653,12.14471650582479,5093,22,0.0,207,55656366065996,53,19.9,-621.4889526367188,1.1255000829696655,0,0.0,0.0,,,,,0,,3,,
Raw,27960577,27966990000000,,,-1291005707444370432,0.0,26.936704671243206,-11.99773149185653,12.14471650582479,5093,12,0.0,207,55656355834141,5,40.4,-491.4992980957031,0.2419000118970871,0,0.0,0.0,,,,,0,,3,,
Raw,27960577,27966990000000,,,-1291005707444370432,0.0,26.936704671243206,-11.99773149185653,12.14471650582479,5093,1,0.0,207,55656356671228,16,29.4,475.2437438964844,0.2506999969482422,0,0.0,0.0,,,,,0,,3,,
Raw,27960578,27966990000000,,,-1291005707444370432,0.0,26.936704671243206,-11.99773149185653,12.14471650582479,5093,21,0.0,207,55656369291777,809,12.5,109.69497680664062,18.26500129699707,0,0.0,0.0,,,,,0,,3,,
Raw,27960578,27966990000000,,,-1291005707444370432,0.0,26.936704671243206,-11.99773149185653,12.14471650582479,5093,8,0.0,207,55656353467186,40,21.5,555.2894897460938,1.0059999227523804,0,0.0,0.0,,,,,0,,3,,
Raw,27960578,27966990000000,,,-1291005707444370432,0.0,26.936704671243206,-11.99773149185653,12.14471650582479,5093,1,0.0,15,390474352186636,40,21.4,-676.7318725585938,0.8644999861717224,0,0.0,0.0,,,,,0,,1,,
Raw,27960579,27966990000000,,,-1291005707444370432,0.0,26.936704671243206,-11.99773149185653,12.14471650582479,5093,4,0.0,15,390474361961193,9,35.2,317.3406066894531,0.023100001737475395,0,0.0,0.0,,,,,0,,1,,
Raw,27960579,27966990000000,,,-1291005707444370432,0.0,26.936704671243206,-11.99773149185653,12.14471650582479,5093,7,0.0,15,390474352602331,7,37.8,-634.41455078125,0.038600001484155655,0,0.0,0.0,,,,,0,,1,,
Raw,27960580,27966990000000,,,-1291005707444370432,0.0,26.936704671243206,-11.99773149185653,12.14471650582479,5093,8,0.0,15,390474366504222,24,25.0,-94.35555267333984,0.39079999923706055,0,0.0,0.0,,,,,0,,1,,
Raw,27960580,27966990000000,,,-1291005707444370432,0.0,26.936704671243206,-11.99773149185653,12.14471650582479,5093,9,0.0,15,390474358934257,17,28.5,-57.00749969482422,0.07530000060796738,0,0.0,0.0,,,,,0,,1,,
Raw,27960580,27966990000000,,,-1291005707444370432,0.0,26.936704671243206,-11.99773149185653,12.14471650582479,5093,16,0.0,15,390474360216175,863,12.9,267.457763671875,18.846500396728516,0,0.0,0.0,,,,,0,,1,,
Raw,27960580,27966990000000,,,-1291005707444370432,0.0,26.936704671243206,-11.99773149185653,12.14471650582479,5093,21,0.0,15,390474360068060,485,13.0,-553.5547485351562,13.596500396728516,0,0.0,0.0,,,,,0,,1,,
Raw,27960581,27966990000000,,,-1291005707444370432,0.0,26.936704671243206,-11.99773149185653,12.14471650582479,5093,27,0.0,15,390474365739085,110,15.8,345.5162353515625,3.514000177383423,0,0.0,0.0,,,,,0,,1,,
Raw,27960581,27966990000000,,,-1291005707444370432,0.0,26.936704671243206,-11.99773149185653,12.14471650582479,5093,2,0.0,783,390460309297018,55,23.7,0.3744770288467407,3.6450002193450928,0,0.0,0.0,,,,,0,,5,,
Raw,27960581,27966990000000,,,-1291005707444370432,0.0,26.936704671243206,-11.99773149185653,12.14471650582479,5093,3,0.0,783,390460312749964,16,29.8,-10.158889770507812,0.40849998593330383,0,0.0,0.0,,,,,0,,5,,
Raw,27960581,27966990000000,,,-1291005707444370432,0.0,26.936704671243206,-11.99773149185653,12.14471650582479,5093,5,0.0,783,390460301004582,43,27.7,1.7955693006515503,3.4850001335144043,0,0.0,0.0,,,,,0,,5,,
Raw,27960581,27966990000000,,,-1291005707444370432,0.0,26.936704671243206,-11.99773149185653,12.14471650582479,5093,6,0.0,15,390460311131585,14,30.3,255.05899047851562,0.04230000078678131,0,0.0,0.0,,,,,0,,5,,
Raw,27960581,27966990000000,,,-1291005707444370432,0.0,26.936704671243206,-11.99773149185653,12.14471650582479,5093,9,0.0,15,390460314028653,19,27.7,164.1425018310547,0.062300004065036774,0,0.0,0.0,,,,,0,,5,,
Raw,27960581,27966990000000,,,-1291005707444370432,0.0,26.936704671243206,-11.99773149185653,12.14471650582479,5093,10,0.0,15,390460308743472,9,35.1,18.202228546142578,0.03360000252723694,0,0.0,0.0,,,,,0,,5,,
Raw,27960582,27966990000000,,,-1291005707444370432,0.0,26.936704671243206,-11.99773149185653,12.14471650582479,5093,11,0.0,15,390460351004224,13,31.2,-590.045166015625,0.04170000180602074,0,0.0,0.0,,,,,0,,5,,
Raw,27960582,27966990000000,,,-1291005707444370432,0.0,26.936704671243206,-11.99773149185653,12.14471650582479,5093,13,0.0,15,390460298698296,69,18.2,-259.3781433105469,2.44350004196167,0,0.0,0.0,,,,,0,,5,,
Raw,27960582,27966990000000,,,-1291005707444370432,0.0,26.936704671243206,-11.99773149185653,12.14471650582479,5093,14,0.0,15,390460346416548,14,30.9,325.0435485839844,0.03480000048875809,0,0.0,0.0,,,,,0,,5,,
Raw,27960582,27966990000000,,,-1291005707444370432,0.0,26.936704671243206,-11.99773149185653,12.14471650582479,5093,16,0.0,15,390460310102963,12,32.5,270.1693115234375,0.03890000283718109,0,0.0,0.0,,,,,0,,5,,
Raw,27960582,27966990000000,,,-1291005707444370432,0.0,26.936704671243206,-11.99773149185653,12.14471650582479,5093,25,0.0,15,390460347422543,11,33.6,-481.2457580566406,0.033400002866983414,0,0.0,0.0,,,,,0,,5,,
Raw,27960582,27966990000000,,,-1291005707444370432,0.0,26.936704671243206,-11.99773149185653,12.14471650582479,5093,26,0.0,15,390460359040079,482,11.4,158.9990997314453,12.875000953674316,0,0.0,0.0,,,,,0,,5,,
Raw,27960582,27966990000000,,,-1291005707444370432,0.0,26.936704671243206,-11.99773149185653,12.14471650582479,5093,2,0.0,7183,390474346343353,10,34.6,-246.5444793701172,0.273499995470047,0,0.0,0.0,,,,,0,,6,,
Raw,27960583,27966990000000,,,-1291005707444370432,0.0,26.936704671243206,-11.99773149185653,12.14471650582479,5093,3,0.0,7183,390474348059949,19,27.7,262.94140625,0.06530000269412994,0,0.0,0.0,,,,,0,,6,,
Raw,27960583,27966990000000,,,-1291005707444370432,0.0,26.936704671243206,-11.99773149185653,12.14471650582479,5093,8,0.0,7183,390474348334253,21,26.4,-105.888916015625,0.4805000126361847,0,0.0,0.0,,,,,0,,6,,
Fix,gps,22.925454,120.294662,51.536377,0.000000,9.648001,1606998457000
NMEA,$GPGSV,3,1,11,01,07,187,22,04,45,234,35,07,15,319,36,08,68,260,27*7F,1606998455444
NMEA,$GPGSV,3,2,11,09,32,282,29,11,00,000,30,16,36,037,13,21,28,170,13*79,1606998455444
NMEA,$GPGSV,3,3,11,27,61,018,16,26,18,068,,31,11,129,*4E,1606998455444
NMEA,$GLGSV,2,1,08,66,06,303,32,86,45,184,19,76,09,319,38,65,12,243,30*6D,1606998455446
NMEA,$GLGSV,2,2,08,85,69,067,13,72,03,205,20,74,33,078,,84,15,028,*61,1606998455447
NMEA,$GAGSV,2,1,07,02,23,307,36,03,31,251,27,08,11,302,23,05,21,195,*6F,1606998455447
NMEA,$GAGSV,2,2,07,24,26,071,,25,49,005,,36,42,168,*58,1606998455447
NMEA,$PQGSV,1,1,03,194,63,052,15,195,70,088,14,193,15,167,,0,5*63,1606998455448
NMEA,$PQGSV,4,1,16,02,40,239,24,03,59,202,31,05,16,255,28,06,46,192,29,0,4*63,1606998455448
NMEA,$PQGSV,4,2,16,09,59,239,28,10,45,306,33,11,22,208,32,13,08,185,18,0,4*6C,1606998455448
NMEA,$PQGSV,4,3,16,14,08,229,30,16,48,198,32,25,11,313,32,26,47,087,11,0,4*69,1606998455448
NMEA,$PQGSV,4,4,16,01,52,129,,04,37,113,,07,56,347,,08,21,165,,0,4*6E,1606998455448
NMEA,$GNGSA,A,3,01,04,07,08,09,,,,,,,,1.5,1.3,0.7,1*33,1606998455449
NMEA,$GNGSA,A,3,65,66,76,86,,,,,,,,,1.5,1.3,0.7,2*3F,1606998455449
NMEA,$GNGSA,A,2,02,03,08,,,,,,,,,,1.5,1.3,0.7,3*3A,1606998455450
Raw,27961565,27967990000000,,,-1291005707444370432,0.0,28.659698728006333,-14.760844890647078,14.097480595642605,5093,2,0.0,207,55657354934793,12,32.6,0.26024726033210754,0.24490001797676086,0,0.0,0.0,,,,,0,,3,,
Raw,27961566,27967990000000,,,-1291005707444370432,0.0,28.659698728006333,-14.760844890647078,14.097480595642605,5093,22,0.0,207,55657366067853,27,24.1,-622.4818115234375,0.8255000114440918,0,0.0,0.0,,,,,0,,3,,
Raw,27961566,27967990000000,,,-1291005707444370432,0.0,28.659698728006333,-14.760844890647078,14.097480595642605,5093,12,0.0,207,55657355835775,5,41.5,-491.38458251953125,0.24160000681877136,0,0.0,0.0,,,,,0,,3,,
Raw,27961567,27967990000000,,,-1291005707444370432,0.0,28.659698728006333,-14.760844890647078,14.097480595642605,5093,1,0.0,207,55657356669695,17,28.4,475.39385986328125,0.2573000192642212,0,0.0,0.0,,,,,0,,3,,
Raw,27961567,27967990000000,,,-1291005707444370432,0.0,28.659698728006333,-14.760844890647078,14.097480595642605,5093,21,0.0,207,55657369291411,930,12.5,109.69497680664062,19.76500129699707,0,0.0,0.0,,,,,0,,3,,
Raw,27961567,27967990000000,,,-1291005707444370432,0.0,28.659698728006333,-14.760844890647078,14.097480595642605,5093,8,0.0,207,55657353465333,49,21.5,555.2894897460938,2.50600004196167,0,0.0,0.0,,,,,0,,3,,
Raw,27961568,27967990000000,,,-1291005707444370432,0.0,28.659698728006333,-14.760844890647078,14.097480595642605,5093,1,0.0,15,390475352188856,61,18.3,-676.5130615234375,1.094499945640564,0,0.0,0.0,,,,,0,,1,,
Raw,27961568,27967990000000,,,-1291005707444370432,0.0,28.659698728006333,-14.760844890647078,14.097480595642605,5093,4,0.0,15,390475361960117,9,35.6,317.5631408691406,0.023100001737475395,0,0.0,0.0,,,,,0,,1,,
Raw,27961569,27967990000000,,,-1291005707444370432,0.0,28.659698728006333,-14.760844890647078,14.097480595642605,5093,7,0.0,15,390475352604456,7,37.0,-634.2845458984375,0.038600001484155655,0,0.0,0.0,,,,,0,,1,,
Raw,27961569,27967990000000,,,-1291005707444370432,0.0,28.659698728006333,-14.760844890647078,14.097480595642605,5093,8,0.0,15,390475366504581,31,23.7,-93.88138580322266,0.6754999756813049,0,0.0,0.0,,,,,0,,1,,
Raw,27961570,27967990000000,,,-1291005707444370432,0.0,28.659698728006333,-14.760844890647078,14.097480595642605,5093,9,0.0,15,390475358934447,31,23.8,-56.745574951171875,0.6934999823570251,0,0.0,0.0,,,,,0,,1,,
Raw,27961570,27967990000000,,,-1291005707444370432,0.0,28.659698728006333,-14.760844890647078,14.097480595642605,5093,16,0.0,15,390475360215283,988,12.9,267.457763671875,20.346500396728516,0,0.0,0.0,,,,,0,,1,,
Raw,27961570,27967990000000,,,-1291005707444370432,0.0,28.659698728006333,-14.760844890647078,14.097480595642605,5093,21,0.0,15,390475360069906,575,13.0,-553.5547485351562,15.096500396728516,0,0.0,0.0,,,,,0,,1,,
Raw,27961571,27967990000000,,,-1291005707444370432,0.0,28.659698728006333,-14.760844890647078,14.097480595642605,5093,27,0.0,15,390475365737933,135,15.8,345.5162353515625,5.014000415802002,0,0.0,0.0,,,,,0,,1,,
Raw,27961572,27967990000000,,,-1291005707444370432,0.0,28.659698728006333,-14.760844890647078,14.097480595642605,5093,2,0.0,783,390461309297051,26,25.7,2.1796483993530273,1.3200000524520874,0,0.0,0.0,,,,,0,,5,,
Raw,27961572,27967990000000,,,-1291005707444370432,0.0,28.659698728006333,-14.760844890647078,14.097480595642605,5093,3,0.0,783,390461312750000,16,29.5,-8.046455383300781,0.41350001096725464,0,0.0,0.0,,,,,0,,5,,
Raw,27961572,27967990000000,,,-1291005707444370432,0.0,28.659698728006333,-14.760844890647078,14.097480595642605,5093,5,0.0,783,390461301004574,42,22.9,-0.30726319551467896,2.1449999809265137,0,0.0,0.0,,,,,0,,5,,
Raw,27961573,27967990000000,,,-1291005707444370432,0.0,28.659698728006333,-14.760844890647078,14.097480595642605,5093,6,0.0,15,390461311130736,17,28.5,255.20948791503906,0.049800001084804535,0,0.0,0.0,,,,,0,,5,,
Raw,27961573,27967990000000,,,-1291005707444370432,0.0,28.659698728006333,-14.760844890647078,14.097480595642605,5093,9,0.0,15,390461314028081,19,27.8,164.30575561523438,0.062300004065036774,0,0.0,0.0,,,,,0,,5,,
Raw,27961573,27967990000000,,,-1291005707444370432,0.0,28.659698728006333,-14.760844890647078,14.097480595642605,5093,10,0.0,15,390461308743406,9,35.4,18.336328506469727,0.03360000252723694,0,0.0,0.0,,,,,0,,5,,
Raw,27961574,27967990000000,,,-1291005707444370432,0.0,28.659698728006333,-14.760844890647078,14.097480595642605,5093,11,0.0,15,390461351006199,14,30.2,-589.8618774414062,0.04230000078678131,0,0.0,0.0,,,,,0,,5,,
Raw,27961574,27967990000000,,,-1291005707444370432,0.0,28.659698728006333,-14.760844890647078,14.097480595642605,5093,13,0.0,15,390461298699161,87,18.2,-259.3781433105469,3.94350004196167,0,0.0,0.0,,,,,0,,5,,
Raw,27961575,27967990000000,,,-1291005707444370432,0.0,28.659698728006333,-14.760844890647078,14.097480595642605,5093,14,0.0,15,390461346415475,13,31.3,325.1649169921875,0.03420000150799751,0,0.0,0.0,,,,,0,,5,,
Raw,27961575,27967990000000,,,-1291005707444370432,0.0,28.659698728006333,-14.760844890647078,14.097480595642605,5093,16,0.0,15,390461310102062,13,31.6,270.324462890625,0.04020000249147415,0,0.0,0.0,,,,,0,,5,,
Raw,27961575,27967990000000,,,-1291005707444370432,0.0,28.659698728006333,-14.760844890647078,14.097480595642605,5093,25,0.0,15,390461347424154,13,31.4,-481.1076965332031,0.0357000008225441,0,0.0,0.0,,,,,0,,5,,
Raw,27961576,27967990000000,,,-1291005707444370432,0.0,28.659698728006333,-14.760844890647078,14.097480595642605,5093,26,0.0,15,390461359039548,124,14.6,155.68641662597656,3.5350000858306885,0,0.0,0.0,,,,,0,,5,,
Raw,27961576,27967990000000,,,-1291005707444370432,0.0,28.659698728006333,-14.760844890647078,14.097480595642605,5093,2,0.0,7183,390475346344170,11,33.9,-246.56228637695312,0.04990000277757645,0,0.0,0.0,,,,,0,,6,,
Raw,27961577,27967990000000,,,-1291005707444370432,0.0,28.659698728006333,-14.760844890647078,14.097480595642605,5093,3,0.0,7183,390475348059070,24,25.6,261.80535888671875,0.4058000147342682,0,0.0,0.0,,,,,0,,6,,
Raw,27961577,27967990000000,,,-1291005707444370432,0.0,28.659698728006333,-14.760844890647078,14.097480595642605,5093,5,0.0,7183,390475344902521,562,17.8,458.46502685546875,1.3305000066757202,0,0.0,0.0,,,,,0,,6,,
Raw,27961577,27967990000000,,,-1291005707444370432,0.0,28.659698728006333,-14.760844890647078,14.097480595642605,5093,8,0.0,7183,390475348334623,19,27.9,-104.6109390258789,0.06530000269412994,0,0.0,0.0,,,,,0,,6,,
NMEA,$PQGSA,A,3,09,10,11,14,16,25,,,,,,,1.5,1.3,0.7,4*30,1606998455450
NMEA,$GNVTG,,T,,M,0.0,N,0.0,K,A*3D,1606998455450
NMEA,$GNRMC,122736.00,A,2255.527269,N,12017.679560,E,0.0,,031220,2.8,W,A*1F,1606998455450
NMEA,$GNGGA,122736.00,2255.527269,N,12017.679560,E,1,12,1.3,34.1,M,17.5,M,,*46,1606998455450
NMEA,$GPGSV,3,1,11,01,07,187,21,04,45,234,35,07,15,319,38,08,68,260,25*70,1606998456446
NMEA,$GPGSV,3,2,11,09,32,282,29,11,00,000,30,16,36,037,13,21,28,170,13*79,1606998456446
NMEA,$GPGSV,3,3,11,27,61,018,16,26,18,068,,31,11,129,*4E,1606998456446
NMEA,$GLGSV,2,1,08,66,06,303,34,86,45,184,20,76,09,319,40,65,12,243,29*66,1606998456447
NMEA,$GLGSV,2,2,08,85,69,067,13,72,03,205,22,74,33,078,,84,15,028,*63,1606998456447
NMEA,$GAGSV,2,1,07,02,23,307,35,03,31,251,28,08,11,302,26,05,21,195,*66,1606998456447
NMEA,$GAGSV,2,2,07,24,26,071,,25,49,005,,36,42,168,*58,1606998456447
NMEA,$PQGSV,1,1,03,194,63,052,15,195,70,088,14,193,15,167,,0,5*63,1606998456458
NMEA,$PQGSV,4,1,16,02,40,239,24,03,59,202,30,05,16,255,28,06,46,192,30,0,4*6A,1606998456458
NMEA,$PQGSV,4,2,16,09,59,239,28,10,45,306,35,11,22,208,31,13,08,185,18,0,4*69,1606998456458
NMEA,$PQGSV,4,3,16,14,08,229,31,16,48,198,33,25,11,313,34,26,47,087,11,0,4*6F,1606998456459
NMEA,$PQGSV,4,4,16,01,52,129,,04,37,113,,07,56,347,,08,21,165,,0,4*6E,1606998456459
NMEA,$GNGSA,A,3,01,04,07,08,09,,,,,,,,1.5,1.3,0.7,1*33,1606998456459
NMEA,$GNGSA,A,3,65,66,76,86,,,,,,,,,1.5,1.3,0.7,2*3F,1606998456460
NMEA,$GNGSA,A,2,02,03,08,,,,,,,,,,1.5,1.3,0.7,3*3A,1606998456460
NMEA,$PQGSA,A,3,09,10,11,14,16,25,,,,,,,1.5,1.3,0.7,4*30,1606998456460
NMEA,$GNVTG,,T,,M,0.0,N,0.0,K,A*3D,1606998456460
NMEA,$GNRMC,122737.00,A,2255.527261,N,12017.679709,E,0.0,,031220,2.8,W,A*1B,1606998456460
NMEA,$GNGGA,122737.00,2255.527261,N,12017.679709,E,1,12,1.3,34.1,M,17.5,M,,*42,1606998456460
Fix,gps,22.925454,120.294665,51.146545,0.000000,9.648001,1606998458000
Raw,27962594,27968990000000,,,-1291005707444370432,0.0,29.650957003468648,-13.916484689532897,13.105450645533887,5093,2,0.0,207,55658354934801,12,32.2,1.7393826246261597,0.24490001797676086,0,0.0,0.0,,,,,0,,3,,
Raw,27962595,27968990000000,,,-1291005707444370432,0.0,29.650957003468648,-13.916484689532897,13.105450645533887,5093,22,0.0,207,55658366069971,31,23.2,-619.8778686523438,0.875499963760376,0,0.0,0.0,,,,,0,,3,,
Raw,27962595,27968990000000,,,-1291005707444370432,0.0,29.650957003468648,-13.916484689532897,13.105450645533887,5093,12,0.0,207,55658355837424,5,41.6,-490.0911560058594,0.24160000681877136,0,0.0,0.0,,,,,0,,3,,
Raw,27962595,27968990000000,,,-1291005707444370432,0.0,29.650957003468648,-13.916484689532897,13.105450645533887,5093,1,0.0,207,55658356668063,17,28.2,476.78570556640625,0.2573000192642212,0,0.0,0.0,,,,,0,,3,,
Raw,27962596,27968990000000,,,-1291005707444370432,0.0,29.650957003468648,-13.916484689532897,13.105450645533887,5093,21,0.0,207,55658369291045,1061,12.5,109.69497680664062,21.26500129699707,0,0.0,0.0,,,,,0,,3,,
Raw,27962596,27968990000000,,,-1291005707444370432,0.0,29.650957003468648,-13.916484689532897,13.105450645533887,5093,8,0.0,207,55658353463511,64,18.4,556.8301391601562,1.9660000801086426,0,0.0,0.0,,,,,0,,3,,
Raw,27962597,27968990000000,,,-1291005707444370432,0.0,29.650957003468648,-13.916484689532897,13.105450645533887,5093,1,0.0,15,390476352191085,61,18.5,-676.0372924804688,1.0145000219345093,0,0.0,0.0,,,,,0,,1,,
Raw,27962597,27968990000000,,,-1291005707444370432,0.0,29.650957003468648,-13.916484689532897,13.105450645533887,5093,4,0.0,15,390476361959056,11,33.6,318.978515625,0.024400001391768456,0,0.0,0.0,,,,,0,,1,,
Raw,27962597,27968990000000,,,-1291005707444370432,0.0,29.650957003468648,-13.916484689532897,13.105450645533887,5093,7,0.0,15,390476352606571,7,37.4,-632.9605712890625,0.038600001484155655,0,0.0,0.0,,,,,0,,1,,
Raw,27962598,27968990000000,,,-1291005707444370432,0.0,29.650957003468648,-13.916484689532897,13.105450645533887,5093,8,0.0,15,390476366504855,27,24.6,-92.4256362915039,0.6255000233650208,0,0.0,0.0,,,,,0,,1,,
Raw,27962598,27968990000000,,,-1291005707444370432,0.0,29.650957003468648,-13.916484689532897,13.105450645533887,5093,9,0.0,15,390476358934681,17,28.9,-55.28574752807617,0.06030000001192093,0,0.0,0.0,,,,,0,,1,,
Raw,27962599,27968990000000,,,-1291005707444370432,0.0,29.650957003468648,-13.916484689532897,13.105450645533887,5093,16,0.0,15,390476360214391,1124,12.9,267.457763671875,21.846500396728516,0,0.0,0.0,,,,,0,,1,,
Raw,27962599,27968990000000,,,-1291005707444370432,0.0,29.650957003468648,-13.916484689532897,13.105450645533887,5093,21,0.0,15,390476360071752,676,13.0,-553.5547485351562,16.596500396728516,0,0.0,0.0,,,,,0,,1,,
Raw,27962600,27968990000000,,,-1291005707444370432,0.0,29.650957003468648,-13.916484689532897,13.105450645533887,5093,27,0.0,15,390476365736771,102,15.4,346.8102111816406,2.864000082015991,0,0.0,0.0,,,,,0,,1,,
Raw,27962600,27968990000000,,,-1291005707444370432,0.0,29.650957003468648,-13.916484689532897,13.105450645533887,5093,2,0.0,783,390462309297044,38,25.7,2.1796483993530273,2.820000171661377,0,0.0,0.0,,,,,0,,5,,
Raw,27962600,27968990000000,,,-1291005707444370432,0.0,29.650957003468648,-13.916484689532897,13.105450645533887,5093,3,0.0,783,390462312750030,14,30.9,-12.050477981567383,0.3634999990463257,0,0.0,0.0,,,,,0,,5,,
Raw,27962600,27968990000000,,,-1291005707444370432,0.0,29.650957003468648,-13.916484689532897,13.105450645533887,5093,5,0.0,783,390462301004575,60,22.9,-0.30726319551467896,3.6450002193450928,0,0.0,0.0,,,,,0,,5,,
Raw,27962601,27968990000000,,,-1291005707444370432,0.0,29.650957003468648,-13.916484689532897,13.105450645533887,5093,6,0.0,15,390462311129868,17,28.3,256.5722961425781,0.049800001084804535,0,0.0,0.0,,,,,0,,5,,
Raw,27962601,27968990000000,,,-1291005707444370432,0.0,29.650957003468648,-13.916484689532897,13.105450645533887,5093,9,0.0,15,390462314027545,16,29.3,165.67027282714844,0.047700002789497375,0,0.0,0.0,,,,,0,,5,,
Raw,27962601,27968990000000,,,-1291005707444370432,0.0,29.650957003468648,-13.916484689532897,13.105450645533887,5093,10,0.0,15,390462308743348,9,35.2,19.666536331176758,0.03360000252723694,0,0.0,0.0,,,,,0,,5,,
Raw,27962601,27968990000000,,,-1291005707444370432,0.0,29.650957003468648,-13.916484689532897,13.105450645533887,5093,11,0.0,15,390462351008160,16,29.1,-588.4822998046875,0.04320000112056732,0,0.0,0.0,,,,,0,,5,,
Raw,27962601,27968990000000,,,-1291005707444370432,0.0,29.650957003468648,-13.916484689532897,13.105450645533887,5093,13,0.0,15,390462298700149,116,14.3,-259.76220703125,2.7985000610351562,0,0.0,0.0,,,,,0,,5,,
Raw,27962601,27968990000000,,,-1291005707444370432,0.0,29.650957003468648,-13.916484689532897,13.105450645533887,5093,14,0.0,15,390462346414369,13,31.9,326.5044860839844,0.03420000150799751,0,0.0,0.0,,,,,0,,5,,
Raw,27962601,27968990000000,,,-1291005707444370432,0.0,29.650957003468648,-13.916484689532897,13.105450645533887,5093,16,0.0,15,390462310101154,12,32.7,271.6899719238281,0.03890000283718109,0,0.0,0.0,,,,,0,,5,,
Raw,27962602,27968990000000,,,-1291005707444370432,0.0,29.650957003468648,-13.916484689532897,13.105450645533887,5093,25,0.0,15,390462347425750,12,32.9,-479.7861022949219,0.03440000116825104,0,0.0,0.0,,,,,0,,5,,
