# 
# Header Description:
# 
# Version: v2.0.0.1 Platform: 8.0.0 Manufacturer: Sony Model: G8142
# 
# Raw,ElapsedRealtimeMillis,TimeNanos,LeapSecond,TimeUncertaintyNanos,FullBiasNanos,BiasNanos,BiasUncertaintyNanos,DriftNanosPerSecond,DriftUncertaintyNanosPerSecond,HardwareClockDiscontinuityCount,Svid,TimeOffsetNanos,State,ReceivedSvTimeNanos,ReceivedSvTimeUncertaintyNanos,Cn0DbHz,PseudorangeRateMetersPerSecond,PseudorangeRateUncertaintyMetersPerSecond,AccumulatedDeltaRangeState,AccumulatedDeltaRangeMeters,AccumulatedDeltaRangeUncertaintyMeters,CarrierFrequencyHz,CarrierCycles,CarrierPhase,CarrierPhaseUncertainty,MultipathIndicator,SnrInDb,ConstellationType,AgcDb,CarrierFrequencyHz
# 
# Fix,Provider,Latitude,Longitude,Altitude,Speed,Accuracy,(UTC)TimeInMs
# 
# Nav,Svid,Type,Status,MessageId,Sub-messageId,Data(Bytes)
# 
NMEA,$GPGSV,3,1,11,04,42,230,30,07,17,320,33,08,70,270,26,09,32,279,32*70,1606998902440
Raw,28406615,28413448000000,,,-1291005707319083776,0.0,4325.370769947767,2.7859343209119736,9.62077524617793,5382,2,0.0,207,56102687601098,21,26.0,57.84318542480469,0.30820000171661377,0,0.0,0.0,,,,,0,,3,,
Raw,28406615,28413448000000,,,-1291005707319083776,0.0,4325.370769947767,2.7859343209119736,9.62077524617793,5382,12,0.0,207,56102689284274,21,26.9,-503.2043151855469,0.31120002269744873,0,0.0,0.0,,,,,0,,3,,
Raw,28406615,28413448000000,,,-1291005707319083776,0.0,4325.370769947767,2.7859343209119736,9.62077524617793,5382,1,0.0,207,56102688662174,13,31.4,489.4541931152344,0.23580001294612885,0,0.0,0.0,,,,,0,,3,,
Raw,28406616,28413448000000,,,-1291005707319083776,0.0,4325.370769947767,2.7859343209119736,9.62077524617793,5382,4,0.0,15,390920694167258,16,29.7,358.625732421875,0.050700001418590546,0,0.0,0.0,,,,,0,,1,,
Raw,28406616,28413448000000,,,-1291005707319083776,0.0,4325.370769947767,2.7859343209119736,9.62077524617793,5382,7,0.0,15,390920686255264,11,33.0,-632.1875610351562,0.02800000086426735,0,0.0,0.0,,,,,0,,1,,
Raw,28406616,28413448000000,,,-1291005707319083776,0.0,4325.370769947767,2.7859343209119736,9.62077524617793,5382,8,0.0,15,390920699316956,21,26.3,-44.19685745239258,0.12620000541210175,0,0.0,0.0,,,,,0,,1,,
Raw,28406616,28413448000000,,,-1291005707319083776,0.0,4325.370769947767,2.7859343209119736,9.62077524617793,5382,9,0.0,15,390920691689367,13,31.6,-4.175918102264404,0.040300000458955765,0,0.0,0.0,,,,,0,,1,,
Raw,28406616,28413448000000,,,-1291005707319083776,0.0,4325.370769947767,2.7859343209119736,9.62077524617793,5382,21,0.0,15,390920693590624,31,23.0,-533.3836059570312,0.7310000061988831,0,0.0,0.0,,,,,0,,1,,
Fix,gps,22.925465,120.294750,52.159058,0.000000,8.576000,1606998903000
NMEA,$GPGSV,3,2,11,11,00,000,33,21,31,168,23,01,10,185,,16,35,040,*7E,1606998902441
NMEA,$GPGSV,3,3,11,26,17,071,,27,59,018,,31,08,130,*45,1606998902441
NMEA,$GLGSV,2,1,08,66,06,299,26,76,11,322,27,65,10,240,31,74,31,082,*64,1606998902442
NMEA,$GLGSV,2,2,08,86,50,184,,84,11,026,,85,67,054,,72,01,202,*6A,1606998902442
NMEA,$GAGSV,1,1,0,*74,1606998902444
NMEA,$PQGSV,1,1,03,193,14,165,,194,63,053,,195,71,084,,0,5*6D,1606998902445
NMEA,$PQGSV,1,1,0,*73,1606998902445
NMEA,$GNGSA,A,3,04,07,08,09,21,,,,,,,,1.8,1.5,0.9,1*34,1606998902447
NMEA,$GNGSA,A,2,65,66,76,,,,,,,,,,1.8,1.5,0.9,2*35,1606998902447
NMEA,$GNVTG,,T,,M,0.0,N,0.0,K,A*3D,1606998902447
NMEA,$GNRMC,123503.00,A,2255.527905,N,12017.685027,E,0.0,,031220,2.8,W,A*1E,1606998902447
NMEA,$GNGGA,123503.00,2255.527905,N,12017.685027,E,1,08,1.5,34.7,M,17.5,M,,*4C,1606998902448
Raw,28407548,28414460000000,,,-1291005707318532352,0.0,4329.678136855364,-1.9744072040717409,9.383740816384572,5383,2,0.0,207,56103699049457,27,24.2,55.45153045654297,0.8300000429153442,0,0.0,0.0,,,,,0,,3,,
Raw,28407548,28414460000000,,,-1291005707318532352,0.0,4329.678136855364,-1.9744072040717409,9.383740816384572,5383,12,0.0,207,56103700734647,19,27.8,-505.4681091308594,0.29360002279281616,0,0.0,0.0,,,,,0,,3,,
Raw,28407548,28414460000000,,,-1291005707318532352,0.0,4329.678136855364,-1.9744072040717409,9.383740816384572,5383,1,0.0,207,56103700109115,11,33.2,487.4183654785156,0.24899999797344208,0,0.0,0.0,,,,,0,,3,,
Raw,28407549,28414460000000,,,-1291005707318532352,0.0,4329.678136855364,-1.9744072040717409,9.383740816384572,5383,4,0.0,15,390921705614595,12,32.9,356.8711242675781,0.02889999933540821,0,0.0,0.0,,,,,0,,1,,
Raw,28407549,28414460000000,,,-1291005707318532352,0.0,4329.678136855364,-1.9744072040717409,9.383740816384572,5383,7,0.0,15,390921697705942,21,26.2,-635.524169921875,0.12319999933242798,0,0.0,0.0,,,,,0,,1,,
Raw,28407549,28414460000000,,,-1291005707318532352,0.0,4329.678136855364,-1.9744072040717409,9.383740816384572,5383,8,0.0,15,390921710765670,12,32.0,-46.04918670654297,0.036400001496076584,0,0.0,0.0,,,,,0,,1,,
Raw,28407549,28414460000000,,,-1291005707318532352,0.0,4329.678136855364,-1.9744072040717409,9.383740816384572,5383,9,0.0,15,390921703137959,8,36.8,-5.616757869720459,0.01850000023841858,0,0.0,0.0,,,,,0,,1,,
Raw,28407549,28414460000000,,,-1291005707318532352,0.0,4329.678136855364,-1.9744072040717409,9.383740816384572,5383,21,0.0,15,390921705040891,46,20.4,-534.7156982421875,0.9089999794960022,0,0.0,0.0,,,,,0,,1,,
Fix,gps,22.925465,120.294750,52.159912,0.000000,8.576000,1606998904000
NMEA,$GPGSV,3,1,11,04,42,230,33,07,17,320,26,08,70,270,32,09,32,279,37*77,1606998903441
NMEA,$GPGSV,3,2,11,11,00,000,33,21,31,168,20,01,10,185,,16,35,040,*7D,1606998903443
NMEA,$GPGSV,3,3,11,26,17,071,,27,59,018,,31,08,130,*45,1606998903443
NMEA,$GLGSV,2,1,08,66,06,299,24,76,11,322,28,65,10,240,33,74,31,082,*6B,1606998903445
NMEA,$GLGSV,2,2,08,86,50,184,,84,11,026,,85,67,054,,72,01,202,*6A,1606998903445
NMEA,$GAGSV,1,1,0,*74,1606998903446
NMEA,$PQGSV,1,1,03,193,14,165,,194,63,053,,195,71,084,,0,5*6D,1606998903446
NMEA,$PQGSV,1,1,0,*73,1606998903447
NMEA,$GNGSA,A,3,04,07,08,09,21,,,,,,,,1.8,1.5,0.9,1*34,1606998903448
NMEA,$GNGSA,A,2,65,66,76,,,,,,,,,,1.8,1.5,0.9,2*35,1606998903448
NMEA,$GNVTG,,T,,M,0.0,N,0.0,K,A*3D,1606998903448
NMEA,$GNRMC,123504.00,A,2255.527904,N,12017.685022,E,0.0,,031220,2.8,W,A*1D,1606998903448
NMEA,$GNGGA,123504.00,2255.527904,N,12017.685022,E,1,08,1.5,34.7,M,17.5,M,,*4F,1606998903448
Raw,28408507,28415456000000,,,-1291005707318428416,0.0,4330.005496740341,-8.326926661890726,13.026264737791195,5384,2,0.0,207,56104694945210,31,23.2,54.58012390136719,0.872499942779541,0,0.0,0.0,,,,,0,,3,,
Raw,28408507,28415456000000,,,-1291005707318428416,0.0,4330.005496740341,-8.326926661890726,13.026264737791195,5384,12,0.0,207,56104696632141,19,27.0,-506.8712158203125,0.28760001063346863,0,0.0,0.0,,,,,0,,3,,
Raw,28408508,28415456000000,,,-1291005707318428416,0.0,4330.005496740341,-8.326926661890726,13.026264737791195,5384,1,0.0,207,56104696003313,12,32.7,485.90777587890625,0.24539999663829803,0,0.0,0.0,,,,,0,,3,,
Raw,28408508,28415456000000,,,-1291005707318428416,0.0,4330.005496740341,-8.326926661890726,13.026264737791195,5384,1,0.0,15,390922693259751,40,21.9,-689.7289428710938,0.7910000085830688,0,0.0,0.0,,,,,0,,1,,
Raw,28408508,28415456000000,,,-1291005707318428416,0.0,4330.005496740341,-8.326926661890726,13.026264737791195,5384,4,0.0,15,390922701509277,12,32.2,355.2153015136719,0.05290000140666962,0,0.0,0.0,,,,,0,,1,,
Raw,28408508,28415456000000,,,-1291005707318428416,0.0,4330.005496740341,-8.326926661890726,13.026264737791195,5384,7,0.0,15,390922693603925,19,27.7,-635.7888793945312,0.08309999853372574,0,0.0,0.0,,,,,0,,1,,
Raw,28408508,28415456000000,,,-1291005707318428416,0.0,4330.005496740341,-8.326926661890726,13.026264737791195,5384,8,0.0,15,390922706661657,13,31.0,-47.567527770996094,0.03280000016093254,0,0.0,0.0,,,,,0,,1,,
Raw,28408508,28415456000000,,,-1291005707318428416,0.0,4330.005496740341,-8.326926661890726,13.026264737791195,5384,9,0.0,15,390922699033846,8,36.2,-7.51891565322876,0.042500000447034836,0,0.0,0.0,,,,,0,,1,,
Fix,gps,22.925465,120.294750,52.164612,0.000000,7.504000,1606998905000
NMEA,$GPGSV,3,1,10,01,10,185,22,04,42,230,32,07,17,320,28,08,70,270,31*76,1606998904449
NMEA,$GPGSV,3,2,10,09,32,279,36,11,00,000,33,16,35,040,,26,17,071,*79,1606998904450
NMEA,$GPGSV,3,3,10,27,59,018,,31,08,130,*70,1606998904451
NMEA,$GLGSV,2,1,08,66,06,299,23,76,11,322,27,65,10,240,33,74,31,082,*63,1606998904452
NMEA,$GLGSV,2,2,08,86,50,184,,84,11,026,,85,67,054,,72,01,202,*6A,1606998904452
NMEA,$GAGSV,1,1,0,*74,1606998904453
NMEA,$PQGSV,1,1,03,193,14,165,,194,63,053,,195,71,084,,0,5*6D,1606998904455
NMEA,$PQGSV,1,1,0,*73,1606998904456
NMEA,$GNGSA,A,3,04,07,08,09,,,,,,,,,1.7,1.5,0.8,1*39,1606998904458
NMEA,$GNGSA,A,2,65,66,76,,,,,,,,,,1.7,1.5,0.8,2*3B,1606998904460
NMEA,$GNVTG,,T,,M,0.0,N,0.0,K,A*3D,1606998904461
NMEA,$GNRMC,123505.00,A,2255.527904,N,12017.685019,E,0.0,,031220,2.8,W,A*14,1606998904462
NMEA,$GNGGA,123505.00,2255.527904,N,12017.685019,E,1,07,1.5,34.7,M,17.5,M,,*49,1606998904463
Raw,28409548,28416465000000,,,-1291005707317483520,0.0,4313.667304813862,-14.220010787243808,9.773759843233574,5385,2,0.0,207,56105703000075,27,24.7,54.08351516723633,0.8059999942779541,0,0.0,0.0,,,,,0,,3,,
Raw,28409549,28416465000000,,,-1291005707317483520,0.0,4313.667304813862,-14.220010787243808,9.773759843233574,5385,12,0.0,207,56105704689043,17,28.6,-506.9494323730469,0.2468000054359436,0,0.0,0.0,,,,,0,,3,,
Raw,28409549,28416465000000,,,-1291005707317483520,0.0,4313.667304813862,-14.220010787243808,9.773759843233574,5385,1,0.0,207,56105704056873,11,33.7,485.7790832519531,0.22500000894069672,0,0.0,0.0,,,,,0,,3,,
Raw,28409550,28416465000000,,,-1291005707317483520,0.0,4313.667304813862,-14.220010787243808,9.773759843233574,5385,4,0.0,15,390923709563266,11,33.0,355.216064453125,0.0325000025331974,0,0.0,0.0,,,,,0,,1,,
Raw,28409551,28416465000000,,,-1291005707317483520,0.0,4313.667304813862,-14.220010787243808,9.773759843233574,5385,7,0.0,15,390923701661251,21,26.5,-635.849853515625,0.12919999659061432,0,0.0,0.0,,,,,0,,1,,
Raw,28409551,28416465000000,,,-1291005707317483520,0.0,4313.667304813862,-14.220010787243808,9.773759843233574,5385,8,0.0,15,390923714716994,13,31.1,-47.57039260864258,0.04480000212788582,0,0.0,0.0,,,,,0,,1,,
Raw,28409552,28416465000000,,,-1291005707317483520,0.0,4313.667304813862,-14.220010787243808,9.773759843233574,5385,9,0.0,15,390923707089045,8,36.8,-7.552533149719238,0.024500001221895218,0,0.0,0.0,,,,,0,,1,,
Raw,28409553,28416465000000,,,-1291005707317483520,0.0,4313.667304813862,-14.220010787243808,9.773759843233574,5385,21,0.0,15,390923708995642,46,20.5,-536.7518920898438,0.8434999585151672,0,0.0,0.0,,,,,0,,1,,
Fix,gps,22.925465,120.294750,52.168823,0.000000,7.504000,1606998906000
NMEA,$GPGSV,3,1,10,04,42,230,33,07,17,320,27,08,70,270,31,09,32,279,37*74,1606998905440
NMEA,$GPGSV,3,2,10,11,00,000,33,21,31,168,21,16,35,040,,26,17,071,*75,1606998905440
NMEA,$GPGSV,3,3,10,27,59,018,,31,08,130,*70,1606998905440
NMEA,$GLGSV,2,1,08,66,06,299,25,76,11,322,29,65,10,240,34,74,31,082,*6C,1606998905441
NMEA,$GLGSV,2,2,08,86,50,184,,84,11,026,,85,67,054,,72,01,202,*6A,1606998905441
NMEA,$GAGSV,1,1,0,*74,1606998905441
NMEA,$PQGSV,1,1,03,193,14,165,,194,63,053,,195,71,084,,0,5*6D,1606998905441
NMEA,$PQGSV,1,1,0,*73,1606998905441
NMEA,$GNGSA,A,3,04,07,08,09,21,,,,,,,,1.7,1.5,0.8,1*3A,1606998905442
NMEA,$GNGSA,A,2,65,66,76,,,,,,,,,,1.7,1.5,0.8,2*3B,1606998905442
NMEA,$GNVTG,,T,,M,0.0,N,0.0,K,A*3D,1606998905442
NMEA,$GNRMC,123506.00,A,2255.527902,N,12017.685015,E,0.0,,031220,2.8,W,A*1D,1606998905443
NMEA,$GNGGA,123506.00,2255.527902,N,12017.685015,E,1,08,1.5,34.7,M,17.5,M,,*4F,1606998905443
Raw,28410548,28417457000000,,,-1291005707317377536,0.0,4306.8234808743,-13.772905059284174,10.66041694605806,5386,2,0.0,207,56106694893920,16,29.1,56.12544250488281,0.2506999969482422,0,0.0,0.0,,,,,0,,3,,
Raw,28410549,28417457000000,,,-1291005707317377536,0.0,4306.8234808743,-13.772905059284174,10.66041694605806,5386,22,0.0,207,56106706961384,21,26.2,-566.6847534179688,0.3067000210285187,0,0.0,0.0,,,,,0,,3,,
Raw,28410549,28417457000000,,,-1291005707317377536,0.0,4306.8234808743,-13.772905059284174,10.66041694605806,5386,12,0.0,207,56106696584781,16,29.8,-505.3543395996094,0.25370001792907715,0,0.0,0.0,,,,,0,,3,,
Raw,28410550,28417457000000,,,-1291005707317377536,0.0,4306.8234808743,-13.772905059284174,10.66041694605806,5386,1,0.0,207,56106695949144,12,32.9,487.5321350097656,0.24390000104904175,0,0.0,0.0,,,,,0,,3,,
Raw,28410551,28417457000000,,,-1291005707317377536,0.0,4306.8234808743,-13.772905059284174,10.66041694605806,5386,1,0.0,15,390924693213566,35,22.5,-688.5015258789062,0.7310000061988831,0,0.0,0.0,,,,,0,,1,,
Raw,28410551,28417457000000,,,-1291005707317377536,0.0,4306.8234808743,-13.772905059284174,10.66041694605806,5386,4,0.0,15,390924701456002,9,35.1,356.9124755859375,0.04650000110268593,0,0.0,0.0,,,,,0,,1,,
Raw,28410552,28417457000000,,,-1291005707317377536,0.0,4306.8234808743,-13.772905059284174,10.66041694605806,5386,7,0.0,15,390924693557256,10,34.1,-634.1314086914062,0.03660000115633011,0,0.0,0.0,,,,,0,,1,,
Raw,28410553,28417457000000,,,-1291005707317377536,0.0,4306.8234808743,-13.772905059284174,10.66041694605806,5386,8,0.0,15,390924706611073,10,34.0,-45.99740982055664,0.026100000366568565,0,0.0,0.0,,,,,0,,1,,
Raw,28410553,28417457000000,,,-1291005707317377536,0.0,4306.8234808743,-13.772905059284174,10.66041694605806,5386,9,0.0,15,390924698982995,10,34.4,-5.773054599761963,0.04410000145435333,0,0.0,0.0,,,,,0,,1,,
Raw,28410554,28417457000000,,,-1291005707317377536,0.0,4306.8234808743,-13.772905059284174,10.66041694605806,5386,21,0.0,15,390924700891300,24,25.8,-534.5464477539062,0.2093999981880188,0,0.0,0.0,,,,,0,,1,,
Fix,gps,22.925465,120.294750,52.173218,0.000000,7.504000,1606998907000
NMEA,$GPGSV,3,1,11,01,10,185,23,04,42,230,35,07,17,320,34,08,70,270,34*79,1606998906440
NMEA,$GPGSV,3,2,11,09,32,279,34,11,00,000,33,21,31,168,26,16,35,040,*74,1606998906440
NMEA,$GPGSV,3,3,11,26,17,071,,27,59,018,,31,08,130,*45,1606998906442
NMEA,$GLGSV,2,1,08,66,06,299,29,86,50,184,26,76,11,322,30,65,10,240,33*66,1606998906443
NMEA,$GLGSV,2,2,08,74,31,082,,84,11,026,,85,67,054,,72,01,202,*67,1606998906443
NMEA,$GAGSV,1,1,0,*74,1606998906444
NMEA,$PQGSV,1,1,03,193,14,165,,194,63,053,,195,71,084,,0,5*6D,1606998906444
NMEA,$PQGSV,1,1,0,*73,1606998906444
NMEA,$GNGSA,A,3,01,04,07,08,09,21,,,,,,,1.6,1.4,0.8,1*3B,1606998906445
NMEA,$GNGSA,A,2,65,66,76,,,,,,,,,,1.6,1.4,0.8,2*3B,1606998906445
NMEA,$GNVTG,,T,,M,0.0,N,0.0,K,A*3D,1606998906446
NMEA,$GNRMC,123507.00,A,2255.527902,N,12017.685012,E,0.0,,031220,2.8,W,A*1B,1606998906446
NMEA,$GNGGA,123507.00,2255.527902,N,12017.685012,E,1,09,1.4,34.7,M,17.5,M,,*49,1606998906446
Raw,28411519,28418448000000,,,-1291005707317214464,0.0,4293.410107493401,-8.205168685981176,12.364562575428906,5387,2,0.0,207,56107685731046,17,28.7,55.109466552734375,0.2483000010251999,0,0.0,0.0,,,,,0,,3,,
Raw,28411520,28418448000000,,,-1291005707317214464,0.0,4293.410107493401,-8.205168685981176,12.364562575428906,5387,22,0.0,207,56107697800532,21,26.0,-567.8514404296875,0.3232000172138214,0,0.0,0.0,,,,,0,,3,,
Raw,28411520,28418448000000,,,-1291005707317214464,0.0,4293.410107493401,-8.205168685981176,12.364562575428906,5387,12,0.0,207,56107687423610,24,25.5,-506.470458984375,0.38989999890327454,0,0.0,0.0,,,,,0,,3,,
Raw,28411521,28418448000000,,,-1291005707317214464,0.0,4293.410107493401,-8.205168685981176,12.364562575428906,5387,1,0.0,207,56107686784812,9,35.2,486.2269287109375,0.2240000069141388,0,0.0,0.0,,,,,0,,3,,
Raw,28411521,28418448000000,,,-1291005707317214464,0.0,4293.410107493401,-8.205168685981176,12.364562575428906,5387,1,0.0,15,390925684053043,24,25.2,-688.8810424804688,0.18540000915527344,0,0.0,0.0,,,,,0,,1,,
Raw,28411522,28418448000000,,,-1291005707317214464,0.0,4293.410107493401,-8.205168685981176,12.364562575428906,5387,4,0.0,15,390925692292052,9,35.7,355.75103759765625,0.032999999821186066,0,0.0,0.0,,,,,0,,1,,
Raw,28411522,28418448000000,,,-1291005707317214464,0.0,4293.410107493401,-8.205168685981176,12.364562575428906,5387,7,0.0,15,390925684396601,8,36.3,-635.4246826171875,0.020000001415610313,0,0.0,0.0,,,,,0,,1,,
Raw,28411523,28418448000000,,,-1291005707317214464,0.0,4293.410107493401,-8.205168685981176,12.364562575428906,5387,8,0.0,15,390925697448479,8,36.1,-47.0273551940918,0.039500001817941666,0,0.0,0.0,,,,,0,,1,,
Raw,28411523,28418448000000,,,-1291005707317214464,0.0,4293.410107493401,-8.205168685981176,12.364562575428906,5387,9,0.0,15,390925689820246,10,34.9,-6.953896999359131,0.03060000017285347,0,0.0,0.0,,,,,0,,1,,
Raw,28411524,28418448000000,,,-1291005707317214464,0.0,4293.410107493401,-8.205168685981176,12.364562575428906,5387,21,0.0,15,390925691730294,21,26.0,-536.01708984375,0.11419999599456787,0,0.0,0.0,,,,,0,,1,,
Fix,gps,22.925465,120.294750,52.172729,0.000000,7.504000,1606998908000
NMEA,$GPGSV,3,1,11,01,10,185,25,04,42,230,36,07,17,320,36,08,70,270,36*7C,1606998907440
NMEA,$GPGSV,3,2,11,09,32,279,35,11,00,000,33,21,31,168,26,16,35,040,*75,1606998907441
NMEA,$GPGSV,3,3,11,26,17,071,,27,59,018,,31,08,130,*45,1606998907441
NMEA,$GLGSV,2,1,08,66,06,299,29,86,50,184,26,76,11,322,26,65,10,240,35*67,1606998907442
NMEA,$GLGSV,2,2,08,74,31,082,,84,11,026,,85,67,054,,72,01,202,*67,1606998907443
NMEA,$GAGSV,1,1,0,*74,1606998907443
NMEA,$PQGSV,1,1,03,193,14,165,,194,63,053,,195,71,084,,0,5*6D,1606998907443
NMEA,$PQGSV,1,1,0,*73,1606998907444
NMEA,$GNGSA,A,3,01,04,07,08,09,21,,,,,,,1.6,1.4,0.8,1*3B,1606998907445
NMEA,$GNGSA,A,3,65,66,76,86,,,,,,,,,1.6,1.4,0.8,2*34,1606998907446
NMEA,$GNVTG,,T,,M,0.0,N,0.0,K,A*3D,1606998907446
NMEA,$GNRMC,123508.00,A,2255.527902,N,12017.685011,E,0.0,,031220,2.8,W,A*17,1606998907446
NMEA,$GNGGA,123508.00,2255.527902,N,12017.685011,E,1,10,1.4,34.7,M,17.5,M,,*4D,1606998907446
Raw,28412549,28419462000000,,,-1291005707316343296,0.0,4274.184349924326,-12.327368977625248,15.844504475509131,5388,2,0.0,207,56108698859751,17,28.2,53.962650299072266,0.2678000032901764,0,0.0,0.0,,,,,0,,3,,
Raw,28412550,28419462000000,,,-1291005707316343296,0.0,4274.184349924326,-12.327368977625248,15.844504475509131,5388,22,0.0,207,56108710931181,27,24.6,-567.799072265625,0.8165000081062317,0,0.0,0.0,,,,,0,,3,,
Raw,28412551,28419462000000,,,-1291005707316343296,0.0,4274.184349924326,-12.327368977625248,15.844504475509131,5388,12,0.0,207,56108700554207,13,31.5,-508.06512451171875,0.25380000472068787,0,0.0,0.0,,,,,0,,3,,
Raw,28412551,28419462000000,,,-1291005707316343296,0.0,4274.184349924326,-12.327368977625248,15.844504475509131,5388,1,0.0,207,56108699912071,11,33.4,485.4117431640625,0.2475000023841858,0,0.0,0.0,,,,,0,,3,,
Raw,28412552,28419462000000,,,-1291005707316343296,0.0,4274.184349924326,-12.327368977625248,15.844504475509131,5388,1,0.0,15,390926697184227,31,23.2,-688.8821411132812,0.7369999885559082,0,0.0,0.0,,,,,0,,1,,
Raw,28412553,28419462000000,,,-1291005707316343296,0.0,4274.184349924326,-12.327368977625248,15.844504475509131,5388,4,0.0,15,390926705419739,9,35.3,355.0958251953125,0.02250000089406967,0,0.0,0.0,,,,,0,,1,,
Raw,28412553,28419462000000,,,-1291005707316343296,0.0,4274.184349924326,-12.327368977625248,15.844504475509131,5388,7,0.0,15,390926697527676,11,33.0,-636.3076782226562,0.04450000077486038,0,0.0,0.0,,,,,0,,1,,
Raw,28412554,28419462000000,,,-1291005707316343296,0.0,4274.184349924326,-12.327368977625248,15.844504475509131,5388,8,0.0,15,390926710577528,9,35.4,-47.70094299316406,0.030000001192092896,0,0.0,0.0,,,,,0,,1,,
Raw,28412554,28419462000000,,,-1291005707316343296,0.0,4274.184349924326,-12.327368977625248,15.844504475509131,5388,9,0.0,15,390926702949119,13,31.3,-7.795528411865234,0.026799999177455902,0,0.0,0.0,,,,,0,,1,,
Raw,28412555,28419462000000,,,-1291005707316343296,0.0,4274.184349924326,-12.327368977625248,15.844504475509131,5388,21,0.0,15,390926704861075,27,24.7,-536.8184204101562,0.6075000166893005,0,0.0,0.0,,,,,0,,1,,
Raw,28412556,28419462000000,,,-1291005707316343296,0.0,4274.184349924326,-12.327368977625248,15.844504475509131,5388,27,0.0,15,390926709155828,35,22.1,382.242919921875,0.7849999666213989,0,0.0,0.0,,,,,0,,1,,
Fix,gps,22.925465,120.294750,52.165833,0.000000,7.504000,1606998909000
NMEA,$GPGSV,3,1,11,01,10,185,23,04,42,230,35,07,17,320,33,08,70,270,35*7F,1606998908441
NMEA,$GPGSV,3,2,11,09,32,279,31,11,00,000,33,21,31,168,25,27,59,018,22*77,1606998908442
NMEA,$GPGSV,3,3,11,16,35,040,,26,17,071,,31,08,130,*40,1606998908443
NMEA,$GLGSV,2,1,08,66,06,299,28,86,50,184,25,76,11,322,32,65,10,240,33*66,1606998908444
NMEA,$GLGSV,2,2,08,74,31,082,,84,11,026,,85,67,054,,72,01,202,*67,1606998908444
NMEA,$GAGSV,1,1,0,*74,1606998908444
NMEA,$PQGSV,1,1,03,193,14,165,,194,63,053,,195,71,084,,0,5*6D,1606998908444
NMEA,$PQGSV,1,1,0,*73,1606998908445
NMEA,$GNGSA,A,3,01,04,07,08,09,21,,,,,,,1.4,1.1,0.8,1*3C,1606998908446
NMEA,$GNGSA,A,3,65,66,76,86,,,,,,,,,1.4,1.1,0.8,2*33,1606998908446
NMEA,$GNVTG,,T,,M,0.0,N,0.0,K,A*3D,1606998908446
NMEA,$GNRMC,123509.00,A,2255.527902,N,12017.685011,E,0.0,,031220,2.8,W,A*16,1606998908446
NMEA,$GNGGA,123509.00,2255.527902,N,12017.685011,E,1,10,1.1,34.7,M,17.5,M,,*49,1606998908447
Raw,28413551,28420454000000,,,-1291005707316184576,0.0,4276.66213363409,-14.6383671874451,14.984890827468117,5389,2,0.0,207,56109690700518,14,30.2,57.2181510925293,0.241799995303154,0,0.0,0.0,,,,,0,,3,,
Raw,28413552,28420454000000,,,-1291005707316184576,0.0,4276.66213363409,-14.6383671874451,14.984890827468117,5389,22,0.0,207,56109702774238,19,27.0,-565.76513671875,0.26660001277923584,0,0.0,0.0,,,,,0,,3,,
Raw,28413552,28420454000000,,,-1291005707316184576,0.0,4276.66213363409,-14.6383671874451,14.984890827468117,5389,12,0.0,207,56109692396917,14,30.8,-504.9624328613281,0.24480000138282776,0,0.0,0.0,,,,,0,,3,,
Raw,28413553,28420454000000,,,-1291005707316184576,0.0,4276.66213363409,-14.6383671874451,14.984890827468117,5389,1,0.0,207,56109691751432,10,34.0,488.0189514160156,0.23360000550746918,0,0.0,0.0,,,,,0,,3,,
Raw,28413554,28420454000000,,,-1291005707316184576,0.0,4276.66213363409,-14.6383671874451,14.984890827468117,5389,1,0.0,15,390927689027566,17,28.7,-687.1824340820312,0.05429999902844429,0,0.0,0.0,,,,,0,,1,,
Raw,28413554,28420454000000,,,-1291005707316184576,0.0,4276.66213363409,-14.6383671874451,14.984890827468117,5389,4,0.0,15,390927697259552,9,35.1,357.59442138671875,0.04050000011920929,0,0.0,0.0,,,,,0,,1,,
Raw,28413555,28420454000000,,,-1291005707316184576,0.0,4276.66213363409,-14.6383671874451,14.984890827468117,5389,7,0.0,15,390927689370742,12,32.7,-633.6810913085938,0.03490000218153,0,0.0,0.0,,,,,0,,1,,
Raw,28413556,28420454000000,,,-1291005707316184576,0.0,4276.66213363409,-14.6383671874451,14.984890827468117,5389,8,0.0,15,390927702418684,10,34.3,-45.14965057373047,0.05010000243782997,0,0.0,0.0,,,,,0,,1,,
Raw,28413556,28420454000000,,,-1291005707316184576,0.0,4276.66213363409,-14.6383671874451,14.984890827468117,5389,9,0.0,15,390927694790182,13,31.6,-4.991585731506348,0.04480000212788582,0,0.0,0.0,,,,,0,,1,,
Raw,28413557,28420454000000,,,-1291005707316184576,0.0,4276.66213363409,-14.6383671874451,14.984890827468117,5389,21,0.0,15,390927696703856,31,23.6,-534.1543579101562,0.6754999756813049,0,0.0,0.0,,,,,0,,1,,
Fix,gps,22.925465,120.294750,52.173340,0.000000,6.432000,1606998910000
NMEA,$GPGSV,3,1,10,01,10,185,29,04,42,230,35,07,17,320,33,08,70,270,34*75,1606998909443
NMEA,$GPGSV,3,2,10,09,32,279,32,11,00,000,33,21,31,168,24,16,35,040,*71,1606998909443
NMEA,$GPGSV,3,3,10,26,17,071,,31,08,130,*74,1606998909443
NMEA,$GLGSV,2,1,08,66,06,299,30,86,50,184,27,76,11,322,31,65,10,240,34*69,1606998909443
NMEA,$GLGSV,2,2,08,74,31,082,,84,11,026,,85,67,054,,72,01,202,*67,1606998909443
NMEA,$GAGSV,1,1,0,*74,1606998909444
NMEA,$PQGSV,1,1,03,193,14,165,,194,63,053,,195,71,084,,0,5*6D,1606998909444
NMEA,$PQGSV,1,1,0,*73,1606998909445
NMEA,$GNGSA,A,3,01,04,07,08,09,21,,,,,,,1.4,1.1,0.8,1*3C,1606998909446
NMEA,$GNGSA,A,3,65,66,76,86,,,,,,,,,1.4,1.1,0.8,2*33,1606998909447
NMEA,$GNVTG,,T,,M,0.0,N,0.0,K,A*3D,1606998909447
NMEA,$GNRMC,123510.00,A,2255.527903,N,12017.685013,E,0.0,,031220,2.8,W,A*1D,1606998909448
NMEA,$GNGGA,123510.00,2255.527903,N,12017.685013,E,1,10,1.1,34.7,M,17.5,M,,*42,1606998909448
Raw,28414522,28421467000000,,,-1291005707315326976,0.0,4254.993982613087,-6.500103316705696,8.333903642594015,5390,2,0.0,207,56110702842736,21,26.1,56.852813720703125,0.30070000886917114,0,0.0,0.0,,,,,0,,3,,
Raw,28414522,28421467000000,,,-1291005707315326976,0.0,4254.993982613087,-6.500103316705696,8.333903642594015,5390,22,0.0,207,56110714918419,24,25.4,-566.1414794921875,0.4004000127315521,0,0.0,0.0,,,,,0,,3,,
Raw,28414523,28421467000000,,,-1291005707315326976,0.0,4254.993982613087,-6.500103316705696,8.333903642594015,5390,12,0.0,207,56110704540985,16,29.3,-504.6895446777344,0.23570001125335693,0,0.0,0.0,,,,,0,,3,,
Raw,28414524,28421467000000,,,-1291005707315326976,0.0,4254.993982613087,-6.500103316705696,8.333903642594015,5390,1,0.0,207,56110703892221,10,34.5,487.78118896484375,0.2215999960899353,0,0.0,0.0,,,,,0,,3,,
Raw,28414524,28421467000000,,,-1291005707315326976,0.0,4254.993982613087,-6.500103316705696,8.333903642594015,5390,1,0.0,15,390928701172318,19,27.9,-688.1538696289062,0.09510000050067902,0,0.0,0.0,,,,,0,,1,,
Raw,28414525,28421467000000,,,-1291005707315326976,0.0,4254.993982613087,-6.500103316705696,8.333903642594015,5390,4,0.0,15,390928709400783,10,34.5,357.3774719238281,0.03060000017285347,0,0.0,0.0,,,,,0,,1,,
Raw,28414525,28421467000000,,,-1291005707315326976,0.0,4254.993982613087,-6.500103316705696,8.333903642594015,5390,7,0.0,15,390928701515326,13,31.3,-634.0693969726562,0.05530000105500221,0,0.0,0.0,,,,,0,,1,,
Raw,28414526,28421467000000,,,-1291005707315326976,0.0,4254.993982613087,-6.500103316705696,8.333903642594015,5390,8,0.0,15,390928714561242,8,36.2,-45.311763763427734,0.03500000014901161,0,0.0,0.0,,,,,0,,1,,
Raw,28414526,28421467000000,,,-1291005707315326976,0.0,4254.993982613087,-6.500103316705696,8.333903642594015,5390,9,0.0,15,390928706932642,10,34.1,-5.088374137878418,0.026100000366568565,0,0.0,0.0,,,,,0,,1,,
Raw,28414527,28421467000000,,,-1291005707315326976,0.0,4254.993982613087,-6.500103316705696,8.333903642594015,5390,21,0.0,15,390928708847955,27,24.9,-534.525390625,0.6134999990463257,0,0.0,0.0,,,,,0,,1,,
Fix,gps,22.925465,120.294750,52.170593,0.000000,6.432000,1606998911000
NMEA,$GPGSV,3,1,11,01,10,185,28,04,42,230,35,07,17,320,31,08,70,270,36*75,1606998910441
NMEA,$GPGSV,3,2,11,09,32,279,34,11,00,000,33,21,31,168,25,16,35,040,*77,1606998910441
NMEA,$GPGSV,3,3,11,26,17,071,,27,59,018,,31,08,130,*45,1606998910442
NMEA,$GLGSV,2,1,08,66,06,299,26,86,50,184,25,76,11,322,29,65,10,240,35*64,1606998910443
NMEA,$GLGSV,2,2,08,74,31,082,,84,11,026,,85,67,054,,72,01,202,*67,1606998910443
NMEA,$GAGSV,1,1,0,*74,1606998910443
NMEA,$PQGSV,1,1,03,193,14,165,,194,63,053,,195,71,084,,0,5*6D,1606998910444
NMEA,$PQGSV,1,1,0,*73,1606998910444
NMEA,$GNGSA,A,3,01,04,07,08,09,21,27,,,,,,1.4,1.1,0.8,1*39,1606998910446
NMEA,$GNGSA,A,3,65,66,76,86,,,,,,,,,1.4,1.1,0.8,2*33,1606998910446
NMEA,$GNVTG,,T,,M,0.0,N,0.0,K,A*3D,1606998910446
NMEA,$GNRMC,123511.00,A,2255.527903,N,12017.685011,E,0.0,,031220,2.8,W,A*1E,1606998910446
NMEA,$GNGGA,123511.00,2255.527903,N,12017.685011,E,1,11,1.1,34.7,M,17.5,M,,*40,1606998910447
Raw,28415581,28422457000000,,,-1291005707315263488,0.0,4242.492839694023,-9.049521729586372,11.334448315287226,5391,2,0.0,207,56111692778984,27,24.3,57.4286003112793,0.8195000290870667,0,0.0,0.0,,,,,0,,3,,
Raw,28415582,28422457000000,,,-1291005707315263488,0.0,4242.492839694023,-9.049521729586372,11.334448315287226,5391,22,0.0,207,56111704856984,31,23.0,-565.9913330078125,0.8574999570846558,0,0.0,0.0,,,,,0,,3,,
Raw,28415583,28422457000000,,,-1291005707315263488,0.0,4242.492839694023,-9.049521729586372,11.334448315287226,5391,12,0.0,207,56111694479135,13,31.4,-505.6520080566406,0.24480001628398895,0,0.0,0.0,,,,,0,,3,,
Raw,28415583,28422457000000,,,-1291005707315263488,0.0,4242.492839694023,-9.049521729586372,11.334448315287226,5391,1,0.0,207,56111693827020,9,35.5,487.4857482910156,0.2345000058412552,0,0.0,0.0,,,,,0,,3,,
Raw,28415584,28422457000000,,,-1291005707315263488,0.0,4242.492839694023,-9.049521729586372,11.334448315287226,5391,1,0.0,15,390929691110947,21,26.3,-687.9049072265625,0.11419999599456787,0,0.0,0.0,,,,,0,,1,,
Raw,28415584,28422457000000,,,-1291005707315263488,0.0,4242.492839694023,-9.049521729586372,11.334448315287226,5391,4,0.0,15,390929699336052,9,35.0,357.200439453125,0.04350000247359276,0,0.0,0.0,,,,,0,,1,,
Raw,28415585,28422457000000,,,-1291005707315263488,0.0,4242.492839694023,-9.049521729586372,11.334448315287226,5391,7,0.0,15,390929691453811,11,33.3,-634.3059692382812,0.03550000116229057,0,0.0,0.0,,,,,0,,1,,
Raw,28415586,28422457000000,,,-1291005707315263488,0.0,4242.492839694023,-9.049521729586372,11.334448315287226,5391,8,0.0,15,390929704497819,7,37.6,-45.37345886230469,0.01860000006854534,0,0.0,0.0,,,,,0,,1,,
Raw,28415586,28422457000000,,,-1291005707315263488,0.0,4242.492839694023,-9.049521729586372,11.334448315287226,5391,9,0.0,15,390929696869044,10,34.4,-5.329240322113037,0.041099999099969864,0,0.0,0.0,,,,,0,,1,,
Raw,28415587,28422457000000,,,-1291005707315263488,0.0,4242.492839694023,-9.049521729586372,11.334448315287226,5391,21,0.0,15,390929698786232,21,26.9,-534.43896484375,0.12469999492168427,0,0.0,0.0,,,,,0,,1,,
Fix,gps,22.925465,120.294750,52.171936,0.000000,5.360000,1606998912000
NMEA,$GPGSV,3,1,11,01,10,185,26,04,42,230,35,07,17,320,33,08,70,270,38*77,1606998911452
NMEA,$GPGSV,3,2,11,09,32,279,34,11,00,000,33,21,31,168,27,16,35,040,*75,1606998911454
NMEA,$GPGSV,3,3,11,26,17,071,,27,59,018,,31,08,130,*45,1606998911454
NMEA,$GLGSV,2,1,08,66,06,299,24,86,50,184,23,76,11,322,31,65,10,240,36*6A,1606998911454
NMEA,$GLGSV,2,2,08,74,31,082,,84,11,026,,85,67,054,,72,01,202,*67,1606998911454
NMEA,$GAGSV,1,1,0,*74,1606998911454
NMEA,$PQGSV,1,1,03,193,14,165,,194,63,053,,195,71,084,,0,5*6D,1606998911455
NMEA,$PQGSV,1,1,0,*73,1606998911455
NMEA,$GNGSA,A,3,01,04,07,08,09,21,27,,,,,,1.4,1.1,0.8,1*39,1606998911456
NMEA,$GNGSA,A,3,65,66,76,86,,,,,,,,,1.4,1.1,0.8,2*33,1606998911456
NMEA,$GNVTG,,T,,M,0.0,N,0.0,K,A*3D,1606998911456
NMEA,$GNRMC,123512.00,A,2255.527903,N,12017.685011,E,0.0,,031220,2.8,W,A*1D,1606998911456
NMEA,$GNGGA,123512.00,2255.527903,N,12017.685011,E,1,11,1.1,34.7,M,17.5,M,,*43,1606998911457
Raw,28417061,28423452000000,,,-1291005707314896640,0.0,4228.311125189066,-9.195674086675988,8.369239469176552,5392,2,0.0,207,56112687411914,35,22.8,60.13652038574219,0.921999990940094,0,0.0,0.0,,,,,0,,3,,
Raw,28417062,28423452000000,,,-1291005707314896640,0.0,4228.311125189066,-9.195674086675988,8.369239469176552,5392,22,0.0,207,56112699491797,27,24.8,-563.5185546875,0.8300000429153442,0,0.0,0.0,,,,,0,,3,,
Raw,28417062,28423452000000,,,-1291005707314896640,0.0,4228.311125189066,-9.195674086675988,8.369239469176552,5392,12,0.0,207,56112689113922,12,32.0,-502.9876403808594,0.23489999771118164,0,0.0,0.0,,,,,0,,3,,
Raw,28417063,28423452000000,,,-1291005707314896640,0.0,4228.311125189066,-9.195674086675988,8.369239469176552,5392,1,0.0,207,56112688458491,9,35.2,490.1752014160156,0.22700001299381256,0,0.0,0.0,,,,,0,,3,,
Raw,28417063,28423452000000,,,-1291005707314896640,0.0,4228.311125189066,-9.195674086675988,8.369239469176552,5392,1,0.0,15,390930685746357,19,27.8,-685.1490478515625,0.07110000401735306,0,0.0,0.0,,,,,0,,1,,
Raw,28417063,28423452000000,,,-1291005707314896640,0.0,4228.311125189066,-9.195674086675988,8.369239469176552,5392,4,0.0,15,390930693967915,9,35.6,359.92742919921875,0.03450000286102295,0,0.0,0.0,,,,,0,,1,,
Raw,28417064,28423452000000,,,-1291005707314896640,0.0,4228.311125189066,-9.195674086675988,8.369239469176552,5392,7,0.0,15,390930686089009,11,33.6,-631.6148681640625,0.02800000086426735,0,0.0,0.0,,,,,0,,1,,
Raw,28417064,28423452000000,,,-1291005707314896640,0.0,4228.311125189066,-9.195674086675988,8.369239469176552,5392,8,0.0,15,390930699131070,7,37.4,-42.7447509765625,0.04110000282526016,0,0.0,0.0,,,,,0,,1,,
Raw,28417065,28423452000000,,,-1291005707314896640,0.0,4228.311125189066,-9.195674086675988,8.369239469176552,5392,9,0.0,15,390930691502166,11,33.9,-2.5621330738067627,0.03550000116229057,0,0.0,0.0,,,,,0,,1,,
Raw,28417065,28423452000000,,,-1291005707314896640,0.0,4228.311125189066,-9.195674086675988,8.369239469176552,5392,21,0.0,15,390930693421095,21,26.6,-531.9895629882812,0.11719999462366104,0,0.0,0.0,,,,,0,,1,,
Fix,gps,22.925465,120.294750,52.172913,0.000000,5.360000,1606998913000
NMEA,$GPGSV,3,1,11,01,10,185,28,04,42,230,36,07,17,320,34,08,70,270,37*72,1606998912448
NMEA,$GPGSV,3,2,11,09,32,279,34,11,00,000,33,21,31,168,27,16,35,040,*75,1606998912449
NMEA,$GPGSV,3,3,11,26,17,071,,27,59,018,,31,08,130,*45,1606998912450
NMEA,$GLGSV,2,1,08,66,06,299,23,86,50,184,25,76,11,322,32,65,10,240,35*6B,1606998912452
NMEA,$GLGSV,2,2,08,74,31,082,,84,11,026,,85,67,054,,72,01,202,*67,1606998912453
NMEA,$GAGSV,1,1,0,*74,1606998912454
NMEA,$PQGSV,1,1,03,193,14,165,,194,63,053,,195,71,084,,0,5*6D,1606998912455
NMEA,$PQGSV,1,1,0,*73,1606998912455
NMEA,$GNGSA,A,3,01,04,07,08,09,21,27,,,,,,1.4,1.1,0.8,1*39,1606998912458
NMEA,$GNGSA,A,3,65,66,76,86,,,,,,,,,1.4,1.1,0.8,2*33,1606998912459
NMEA,$GNVTG,,T,,M,0.0,N,0.0,K,A*3D,1606998912460
NMEA,$GNRMC,123513.00,A,2255.527904,N,12017.685013,E,0.0,,031220,2.8,W,A*19,1606998912461
NMEA,$GNGGA,123513.00,2255.527904,N,12017.685013,E,1,11,1.1,34.7,M,17.5,M,,*47,1606998912462
Raw,28417536,28424463000000,,,-1291005707314674432,0.0,4209.579899907112,0.13242411816692598,8.334483400821838,5393,22,0.0,207,56113710271799,31,23.3,-562.8441162109375,0.8664999604225159,0,0.0,0.0,,,,,0,,3,,
Raw,28417537,28424463000000,,,-1291005707314674432,0.0,4209.579899907112,0.13242411816692598,8.334483400821838,5393,12,0.0,207,56113699893664,12,32.9,-502.7635803222656,0.2498999983072281,0,0.0,0.0,,,,,0,,3,,
Raw,28417537,28424463000000,,,-1291005707314674432,0.0,4209.579899907112,0.13242411816692598,8.334483400821838,5393,1,0.0,207,56113699234919,10,34.7,490.3963317871094,0.24560000002384186,0,0.0,0.0,,,,,0,,3,,
Raw,28417538,28424463000000,,,-1291005707314674432,0.0,4209.579899907112,0.13242411816692598,8.334483400821838,5393,1,0.0,15,390931696526691,19,27.2,-685.0507202148438,0.08760000020265579,0,0.0,0.0,,,,,0,,1,,
Raw,28417538,28424463000000,,,-1291005707314674432,0.0,4209.579899907112,0.13242411816692598,8.334483400821838,5393,4,0.0,15,390931704744762,9,35.0,360.2763366699219,0.021000001579523087,0,0.0,0.0,,,,,0,,1,,
Raw,28417539,28424463000000,,,-1291005707314674432,0.0,4209.579899907112,0.13242411816692598,8.334483400821838,5393,7,0.0,15,390931696869172,9,35.1,-631.3683471679688,0.039000000804662704,0,0.0,0.0,,,,,0,,1,,
Raw,28417539,28424463000000,,,-1291005707314674432,0.0,4209.579899907112,0.13242411816692598,8.334483400821838,5393,8,0.0,15,390931709909247,7,37.6,-42.34709548950195,0.026100000366568565,0,0.0,0.0,,,,,0,,1,,
Raw,28417540,28424463000000,,,-1291005707314674432,0.0,4209.579899907112,0.13242411816692598,8.334483400821838,5393,9,0.0,15,390931702280244,10,34.4,-2.1993541717529297,0.05010000243782997,0,0.0,0.0,,,,,0,,1,,
Raw,28417541,28424463000000,,,-1291005707314674432,0.0,4209.579899907112,0.13242411816692598,8.334483400821838,5393,21,0.0,15,390931704200835,21,26.3,-531.6414794921875,0.10369999706745148,0,0.0,0.0,,,,,0,,1,,
Fix,gps,22.925465,120.294750,52.167969,0.000000,5.360000,1606998914000
NMEA,$GPGSV,3,1,11,01,10,185,27,04,42,230,35,07,17,320,35,08,70,270,38*70,1606998913447
NMEA,$GPGSV,3,2,11,09,32,279,34,11,00,000,33,21,31,168,26,16,35,040,*74,1606998913447
NMEA,$GPGSV,3,3,11,26,17,071,,27,59,018,,31,08,130,*45,1606998913451
NMEA,$GLGSV,2,1,07,86,50,184,23,76,11,322,33,65,10,240,35,74,31,082,*6D,1606998913452
NMEA,$GLGSV,2,2,07,84,11,026,,85,67,054,,72,01,202,*53,1606998913453
NMEA,$GAGSV,1,1,0,*74,1606998913454
NMEA,$PQGSV,1,1,03,193,14,165,,194,63,053,,195,71,084,,0,5*6D,1606998913454
NMEA,$PQGSV,1,1,0,*73,1606998913456
NMEA,$GNGSA,A,3,01,04,07,08,09,21,27,,,,,,1.4,1.1,0.8,1*39,1606998913459
NMEA,$GNGSA,A,2,65,76,86,,,,,,,,,,1.4,1.1,0.8,2*32,1606998913460
NMEA,$GNVTG,,T,,M,0.0,N,0.0,K,A*3D,1606998913461
NMEA,$GNRMC,123514.00,A,2255.527904,N,12017.685010,E,0.0,,031220,2.8,W,A*1D,1606998913462
NMEA,$GNGGA,123514.00,2255.527904,N,12017.685010,E,1,10,1.1,34.7,M,17.5,M,,*42,1606998913463
Fix,gps,22.925465,120.294750,52.173401,0.000000,5.360000,1606998915000
Raw,28418614,28425456000000,,,-1291005707313909504,0.0,4192.776046693325,0.9578297816185436,9.318171671847368,5394,2,0.0,207,56114690424850,27,24.6,59.84605407714844,0.8165000081062317,0,0.0,0.0,,,,,0,,3,,
Raw,28418616,28425456000000,,,-1291005707313909504,0.0,4192.776046693325,0.9578297816185436,9.318171671847368,5394,22,0.0,207,56114702508659,27,24.6,-563.4623413085938,0.8044999837875366,0,0.0,0.0,,,,,0,,3,,
Raw,28418619,28425456000000,,,-1291005707313909504,0.0,4192.776046693325,0.9578297816185436,9.318171671847368,5394,12,0.0,207,56114692130391,12,32.3,-503.29266357421875,0.2393999993801117,0,0.0,0.0,,,,,0,,3,,
Raw,28418621,28425456000000,,,-1291005707313909504,0.0,4192.776046693325,0.9578297816185436,9.318171671847368,5394,1,0.0,207,56114691468302,10,34.4,489.9097900390625,0.23360000550746918,0,0.0,0.0,,,,,0,,3,,
Raw,28418623,28425456000000,,,-1291005707313909504,0.0,4192.776046693325,0.9578297816185436,9.318171671847368,5394,1,0.0,15,390932688764008,24,25.8,-685.9979858398438,0.19140000641345978,0,0.0,0.0,,,,,0,,1,,
Raw,28418623,28425456000000,,,-1291005707313909504,0.0,4192.776046693325,0.9578297816185436,9.318171671847368,5394,4,0.0,15,390932696978633,9,35.9,359.8004150390625,0.039000000804662704,0,0.0,0.0,,,,,0,,1,,
Raw,28418624,28425456000000,,,-1291005707313909504,0.0,4192.776046693325,0.9578297816185436,9.318171671847368,5394,7,0.0,15,390932689106323,8,36.4,-631.8471069335938,0.027500001713633537,0,0.0,0.0,,,,,0,,1,,
Raw,28418624,28425456000000,,,-1291005707313909504,0.0,4192.776046693325,0.9578297816185436,9.318171671847368,5394,8,0.0,15,390932702144457,6,38.3,-42.82184982299805,0.044200003147125244,0,0.0,0.0,,,,,0,,1,,
Raw,28418625,28425456000000,,,-1291005707313909504,0.0,4192.776046693325,0.9578297816185436,9.318171671847368,5394,9,0.0,15,390932694515304,8,36.7,-2.6047604084014893,0.03500000014901161,0,0.0,0.0,,,,,0,,1,,
Raw,28418626,28425456000000,,,-1291005707313909504,0.0,4192.776046693325,0.9578297816185436,9.318171671847368,5394,21,0.0,15,390932696437778,24,25.0,-532.3562622070312,0.20340000092983246,0,0.0,0.0,,,,,0,,1,,
NMEA,$GPGSV,3,1,11,01,10,185,26,04,42,230,36,07,17,320,36,08,70,270,38*71,1606998914450
NMEA,$GPGSV,3,2,11,09,32,279,37,11,00,000,33,21,31,168,25,16,35,040,*74,1606998914451
NMEA,$GPGSV,3,3,11,26,17,071,,27,59,018,,31,08,130,*45,1606998914452
NMEA,$GLGSV,2,1,08,66,06,299,25,86,50,184,25,76,11,322,32,65,10,240,34*6C,1606998914453
NMEA,$GLGSV,2,2,08,74,31,082,,84,11,026,,85,67,054,,72,01,202,*67,1606998914453
NMEA,$GAGSV,1,1,0,*74,1606998914457
NMEA,$PQGSV,1,1,03,193,14,165,,194,63,053,,195,71,084,,0,5*6D,1606998914459
NMEA,$PQGSV,1,1,0,*73,1606998914462
NMEA,$GNGSA,A,3,01,04,07,08,09,21,27,,,,,,1.6,1.4,0.8,1*3E,1606998914465
NMEA,$GNGSA,A,3,65,66,76,86,,,,,,,,,1.6,1.4,0.8,2*34,1606998914465
NMEA,$GNVTG,,T,,M,0.0,N,0.0,K,A*3D,1606998914466
NMEA,$GNRMC,123515.00,A,2255.527904,N,12017.685010,E,0.0,,031220,2.8,W,A*1C,1606998914467
NMEA,$GNGGA,123515.00,2255.527904,N,12017.685010,E,1,11,1.4,34.7,M,17.5,M,,*47,1606998914468
Raw,28419521,28426468000000,,,-1291005707313800448,0.0,4189.0437714755535,-0.7020607211704639,9.40063969509929,5395,2,0.0,207,56115702315128,19,27.2,59.38275146484375,0.29660001397132874,0,0.0,0.0,,,,,0,,3,,
Raw,28419521,28426468000000,,,-1291005707313800448,0.0,4189.0437714755535,-0.7020607211704639,9.40063969509929,5395,22,0.0,207,56115714401162,24,25.8,-563.655029296875,0.4004000127315521,0,0.0,0.0,,,,,0,,3,,
Raw,28419522,28426468000000,,,-1291005707313800448,0.0,4189.0437714755535,-0.7020607211704639,9.40063969509929,5395,1,0.0,207,56115703357371,9,35.4,489.55999755859375,0.21950000524520874,0,0.0,0.0,,,,,0,,3,,
Raw,28419522,28426468000000,,,-1291005707313800448,0.0,4189.0437714755535,-0.7020607211704639,9.40063969509929,5395,1,0.0,15,390933700657056,40,21.7,-686.57958984375,0.8014999628067017,0,0.0,0.0,,,,,0,,1,,
Raw,28419523,28426468000000,,,-1291005707313800448,0.0,4189.0437714755535,-0.7020607211704639,9.40063969509929,5395,4,0.0,15,390933708868135,10,34.7,359.54217529296875,0.029100000858306885,0,0.0,0.0,,,,,0,,1,,
Raw,28419523,28426468000000,,,-1291005707313800448,0.0,4189.0437714755535,-0.7020607211704639,9.40063969509929,5395,7,0.0,15,390933700999157,7,37.1,-632.341064453125,0.04260000213980675,0,0.0,0.0,,,,,0,,1,,
Raw,28419524,28426468000000,,,-1291005707313800448,0.0,4189.0437714755535,-0.7020607211704639,9.40063969509929,5395,8,0.0,15,390933714035294,6,38.2,-43.04359436035156,0.03220000118017197,0,0.0,0.0,,,,,0,,1,,
Raw,28419525,28426468000000,,,-1291005707313800448,0.0,4189.0437714755535,-0.7020607211704639,9.40063969509929,5395,9,0.0,15,390933706406001,10,34.0,-2.898085594177246,0.026100000366568565,0,0.0,0.0,,,,,0,,1,,
Raw,28419525,28426468000000,,,-1291005707313800448,0.0,4189.0437714755535,-0.7020607211704639,9.40063969509929,5395,21,0.0,15,390933708330182,21,26.0,-532.437744140625,0.10969999432563782,0,0.0,0.0,,,,,0,,1,,
Fix,gps,22.925465,120.294750,52.174927,0.000000,4.288000,1606998916000
NMEA,$GPGSV,3,1,11,01,10,185,22,04,42,230,35,07,17,320,37,08,70,270,38*77,1606998915441
NMEA,$GPGSV,3,2,11,09,32,279,34,11,00,000,33,21,31,168,26,16,35,040,*74,1606998915441
NMEA,$GPGSV,3,3,11,26,17,071,,27,59,018,,31,08,130,*45,1606998915442
NMEA,$GLGSV,2,1,07,66,06,299,27,86,50,184,26,65,10,240,35,74,31,082,*6B,1606998915442
NMEA,$GLGSV,2,2,07,84,11,026,,85,67,054,,72,01,202,*53,1606998915443
NMEA,$GAGSV,1,1,0,*74,1606998915443
NMEA,$PQGSV,1,1,03,193,14,165,,194,63,053,,195,71,084,,0,5*6D,1606998915443
NMEA,$PQGSV,1,1,0,*73,1606998915443
NMEA,$GNGSA,A,3,01,04,07,08,09,21,,,,,,,1.6,1.4,0.8,1*3B,1606998915444
NMEA,$GNGSA,A,2,65,66,86,,,,,,,,,,1.6,1.4,0.8,2*34,1606998915444
NMEA,$GNVTG,,T,,M,0.0,N,0.0,K,A*3D,1606998915444
NMEA,$GNRMC,123516.00,A,2255.527905,N,12017.685008,E,0.0,,031220,2.8,W,A*17,1606998915444
NMEA,$GNGGA,123516.00,2255.527905,N,12017.685008,E,1,09,1.4,34.7,M,17.5,M,,*45,1606998915444
Raw,28420578,28427459000000,,,-1291005707313618688,0.0,4187.47728690505,-2.117239669910258,11.226521827852729,5396,2,0.0,207,56116693133266,21,26.3,59.88491439819336,0.3172000050544739,0,0.0,0.0,,,,,0,,3,,
Raw,28420579,28427459000000,,,-1291005707313618688,0.0,4187.47728690505,-2.117239669910258,11.226521827852729,5396,22,0.0,207,56116705221515,24,25.2,-563.9002685546875,0.38690000772476196,0,0.0,0.0,,,,,0,,3,,
Raw,28420579,28427459000000,,,-1291005707313618688,0.0,4187.47728690505,-2.117239669910258,11.226521827852729,5396,12,0.0,207,56116694842869,12,32.9,-503.3860168457031,0.24240000545978546,0,0.0,0.0,,,,,0,,3,,
Raw,28420580,28427459000000,,,-1291005707313618688,0.0,4187.47728690505,-2.117239669910258,11.226521827852729,5396,1,0.0,207,56116694174143,10,34.9,490.03192138671875,0.23810000717639923,0,0.0,0.0,,,,,0,,3,,
Raw,28420581,28427459000000,,,-1291005707313618688,0.0,4187.47728690505,-2.117239669910258,11.226521827852729,5396,1,0.0,15,390934691477739,19,27.1,-685.739013671875,0.08009999990463257,0,0.0,0.0,,,,,0,,1,,
Raw,28420582,28427459000000,,,-1291005707313618688,0.0,4187.47728690505,-2.117239669910258,11.226521827852729,5396,4,0.0,15,390934699685342,10,34.8,360.0923767089844,0.04560000076889992,0,0.0,0.0,,,,,0,,1,,
Raw,28420582,28427459000000,,,-1291005707313618688,0.0,4187.47728690505,-2.117239669910258,11.226521827852729,5396,7,0.0,15,390934691819692,11,33.9,-631.7973022460938,0.03550000116229057,0,0.0,0.0,,,,,0,,1,,
Raw,28420583,28427459000000,,,-1291005707313618688,0.0,4187.47728690505,-2.117239669910258,11.226521827852729,5396,8,0.0,15,390934704853843,7,37.4,-42.4478759765625,0.01860000006854534,0,0.0,0.0,,,,,0,,1,,
Raw,28420584,28427459000000,,,-1291005707313618688,0.0,4187.47728690505,-2.117239669910258,11.226521827852729,5396,9,0.0,15,390934697224411,10,34.1,-2.3413026332855225,0.04260000213980675,0,0.0,0.0,,,,,0,,1,,
Raw,28420584,28427459000000,,,-1291005707313618688,0.0,4187.47728690505,-2.117239669910258,11.226521827852729,5396,21,0.0,15,390934699150396,24,25.5,-531.8770141601562,0.2079000025987625,0,0.0,0.0,,,,,0,,1,,
Fix,gps,22.925465,120.294750,52.172363,0.000000,5.360000,1606998917000
NMEA,$GPGSV,3,1,11,01,10,185,27,04,42,230,35,07,17,320,34,08,70,270,37*7E,1606998916449
NMEA,$GPGSV,3,2,11,09,32,279,34,11,00,000,33,21,31,168,26,16,35,040,*74,1606998916453
NMEA,$GPGSV,3,3,11,26,17,071,,27,59,018,,31,08,130,*45,1606998916453
NMEA,$GLGSV,2,1,08,66,06,299,26,86,50,184,25,76,11,322,33,65,10,240,35*6F,1606998916454
NMEA,$GLGSV,2,2,08,74,31,082,,84,11,026,,85,67,054,,72,01,202,*67,1606998916454
NMEA,$GAGSV,1,1,0,*74,1606998916455
NMEA,$PQGSV,1,1,03,193,14,165,,194,63,053,,195,71,084,,0,5*6D,1606998916456
NMEA,$PQGSV,1,1,0,*73,1606998916456
NMEA,$GNGSA,A,3,01,04,07,08,09,21,,,,,,,1.6,1.4,0.8,1*3B,1606998916459
NMEA,$GNGSA,A,3,65,66,76,86,,,,,,,,,1.6,1.4,0.8,2*34,1606998916459
NMEA,$GNVTG,,T,,M,0.0,N,0.0,K,A*3D,1606998916460
NMEA,$GNRMC,123517.00,A,2255.527905,N,12017.685010,E,0.0,,031220,2.8,W,A*1F,1606998916461
NMEA,$GNGGA,123517.00,2255.527905,N,12017.685010,E,1,10,1.4,34.7,M,17.5,M,,*45,1606998916462
Raw,28421578,28428451000000,,,-1291005707313517312,0.0,4188.5641403496265,-0.19885518335649072,10.292991789239888,5397,2,0.0,207,56117685031804,21,26.3,61.28664016723633,0.3052000105381012,0,0.0,0.0,,,,,0,,3,,
Raw,28421579,28428451000000,,,-1291005707313517312,0.0,4188.5641403496265,-0.19885518335649072,10.292991789239888,5397,22,0.0,207,56117697121964,21,26.3,-563.2958374023438,0.3232000172138214,0,0.0,0.0,,,,,0,,3,,
Raw,28421582,28428451000000,,,-1291005707313517312,0.0,4188.5641403496265,-0.19885518335649072,10.292991789239888,5397,12,0.0,207,56117686743162,11,33.9,-503.2366638183594,0.2280000001192093,0,0.0,0.0,,,,,0,,3,,
Raw,28421584,28428451000000,,,-1291005707313517312,0.0,4188.5641403496265,-0.19885518335649072,10.292991789239888,5397,1,0.0,207,56117686071260,9,35.9,489.4296875,0.2240000069141388,0,0.0,0.0,,,,,0,,3,,
Raw,28421586,28428451000000,,,-1291005707313517312,0.0,4188.5641403496265,-0.19885518335649072,10.292991789239888,5397,1,0.0,15,390935683378760,27,24.9,-685.808837890625,0.6060000061988831,0,0.0,0.0,,,,,0,,1,,
Raw,28421589,28428451000000,,,-1291005707313517312,0.0,4188.5641403496265,-0.19885518335649072,10.292991789239888,5397,4,0.0,15,390935691582848,10,34.5,359.73272705078125,0.03359999880194664,0,0.0,0.0,,,,,0,,1,,
Raw,28421592,28428451000000,,,-1291005707313517312,0.0,4188.5641403496265,-0.19885518335649072,10.292991789239888,5397,7,0.0,15,390935683720446,9,35.3,-631.9157104492188,0.019500000402331352,0,0.0,0.0,,,,,0,,1,,
Raw,28421594,28428451000000,,,-1291005707313517312,0.0,4188.5641403496265,-0.19885518335649072,10.292991789239888,5397,8,0.0,15,390935696752673,7,37.3,-42.354095458984375,0.03660000115633011,0,0.0,0.0,,,,,0,,1,,
Raw,28421597,28428451000000,,,-1291005707313517312,0.0,4188.5641403496265,-0.19885518335649072,10.292991789239888,5397,9,0.0,15,390935689123118,11,33.1,-1.7753406763076782,0.0325000025331974,0,0.0,0.0,,,,,0,,1,,
Raw,28421599,28428451000000,,,-1291005707313517312,0.0,4188.5641403496265,-0.19885518335649072,10.292991789239888,5397,21,0.0,15,390935691050834,19,27.7,-532.34228515625,0.08009999990463257,0,0.0,0.0,,,,,0,,1,,
Fix,gps,22.925462,120.294749,51.472717,0.660000,5.360000,1606998918000
NMEA,$GPGSV,3,1,11,01,10,185,25,04,42,230,35,07,17,320,35,08,70,270,37*7D,1606998917450
NMEA,$GPGSV,3,2,11,09,32,279,33,11,00,000,33,21,31,168,28,16,35,040,*7D,1606998917450
NMEA,$GPGSV,3,3,11,26,17,071,,27,59,018,,31,08,130,*45,1606998917458
NMEA,$GLGSV,2,1,08,66,06,299,26,86,50,184,26,76,11,322,34,65,10,240,36*68,1606998917458
NMEA,$GLGSV,2,2,08,74,31,082,,84,11,026,,85,67,054,,72,01,202,*67,1606998917459
NMEA,$GAGSV,1,1,0,*74,1606998917460
NMEA,$PQGSV,1,1,03,193,14,165,,194,63,053,,195,71,084,,0,5*6D,1606998917461
NMEA,$PQGSV,1,1,0,*73,1606998917462
NMEA,$GNGSA,A,3,01,04,07,08,09,21,,,,,,,1.6,1.4,0.8,1*3B,1606998917464
NMEA,$GNGSA,A,3,65,66,76,86,,,,,,,,,1.6,1.4,0.8,2*34,1606998917465
NMEA,$GNVTG,224.4,T,224.4,M,1.3,N,2.4,K,A*39,1606998917466
NMEA,$GNRMC,123518.00,A,2255.527725,N,12017.684936,E,1.3,224.4,031220,2.8,W,A*3C,1606998917466
NMEA,$GNGGA,123518.00,2255.527725,N,12017.684936,E,1,10,1.4,34.0,M,17.5,M,,*4D,1606998917468
Raw,28422541,28429464000000,,,-1291005707313408000,0.0,4194.457549601793,-2.6120702760472145,12.132353101970539,5398,2,0.0,207,56118697922211,17,28.6,60.386661529541016,0.2662999927997589,0,0.0,0.0,,,,,0,,3,,
Raw,28422541,28429464000000,,,-1291005707313408000,0.0,4194.457549601793,-2.6120702760472145,12.132353101970539,5398,22,0.0,207,56118710014520,19,27.1,-562.676513671875,0.2786000072956085,0,0.0,0.0,,,,,0,,3,,
Raw,28422542,28429464000000,,,-1291005707313408000,0.0,4194.457549601793,-2.6120702760472145,12.132353101970539,5398,12,0.0,207,56118699635517,13,31.9,-503.2695617675781,0.2523000240325928,0,0.0,0.0,,,,,0,,3,,
Raw,28422542,28429464000000,,,-1291005707313408000,0.0,4194.457549601793,-2.6120702760472145,12.132353101970539,5398,1,0.0,207,56118698960206,8,36.0,490.2597351074219,0.2410000115633011,0,0.0,0.0,,,,,0,,3,,
Raw,28422543,28429464000000,,,-1291005707313408000,0.0,4194.457549601793,-2.6120702760472145,12.132353101970539,5398,1,0.0,15,390936696271569,27,24.6,-684.847900390625,0.6255000233650208,0,0.0,0.0,,,,,0,,1,,
Raw,28422543,28429464000000,,,-1291005707313408000,0.0,4194.457549601793,-2.6120702760472145,12.132353101970539,5398,4,0.0,15,390936704472289,9,35.0,360.4652099609375,0.021000001579523087,0,0.0,0.0,,,,,0,,1,,
Raw,28422544,28429464000000,,,-1291005707313408000,0.0,4194.457549601793,-2.6120702760472145,12.132353101970539,5398,7,0.0,15,390936696613177,10,34.6,-631.6201171875,0.041099999099969864,0,0.0,0.0,,,,,0,,1,,
Raw,28422544,28429464000000,,,-1291005707313408000,0.0,4194.457549601793,-2.6120702760472145,12.132353101970539,5398,8,0.0,15,390936709643475,6,38.2,-42.033668518066406,0.024700000882148743,0,0.0,0.0,,,,,0,,1,,
Raw,28422545,28429464000000,,,-1291005707313408000,0.0,4194.457549601793,-2.6120702760472145,12.132353101970539,5398,9,0.0,15,390936702013765,10,34.4,-1.9193456172943115,0.05010000243782997,0,0.0,0.0,,,,,0,,1,,
Raw,28422545,28429464000000,,,-1291005707313408000,0.0,4194.457549601793,-2.6120702760472145,12.132353101970539,5398,21,0.0,15,390936703943285,31,23.5,-531.3950805664062,0.6559999585151672,0,0.0,0.0,,,,,0,,1,,
Fix,gps,22.925458,120.294749,51.843567,0.000000,5.360000,1606998919000
NMEA,$GPGSV,3,1,11,01,10,185,25,04,42,230,35,07,17,320,35,08,70,270,38*72,1606998918447
NMEA,$GPGSV,3,2,11,09,32,279,34,11,00,000,33,21,31,168,24,16,35,040,*76,1606998918449
NMEA,$GPGSV,3,3,11,26,17,071,,27,59,018,,31,08,130,*45,1606998918450
NMEA,$GLGSV,2,1,08,66,06,299,29,86,50,184,27,76,11,322,32,65,10,240,36*60,1606998918450
NMEA,$GLGSV,2,2,08,74,31,082,,84,11,026,,85,67,054,,72,01,202,*67,1606998918451
NMEA,$GAGSV,1,1,0,*74,1606998918457
NMEA,$PQGSV,1,1,03,193,14,165,,194,63,053,,195,71,084,,0,5*6D,1606998918459
NMEA,$PQGSV,1,1,0,*73,1606998918460
NMEA,$GNGSA,A,3,01,04,07,08,09,21,,,,,,,1.6,1.4,0.8,1*3B,1606998918463
NMEA,$GNGSA,A,3,65,66,76,86,,,,,,,,,1.6,1.4,0.8,2*34,1606998918464
NMEA,$GNVTG,,T,,M,0.0,N,0.0,K,A*3D,1606998918464
NMEA,$GNRMC,123519.00,A,2255.527502,N,12017.684918,E,0.0,,031220,2.8,W,A*1A,1606998918465
NMEA,$GNGGA,123519.00,2255.527502,N,12017.684918,E,1,10,1.4,34.4,M,17.5,M,,*43,1606998918466
Raw,28423579,28430457000000,,,-1291005707313371136,0.0,4208.8995687663555,0.31124050065940045,8.422044389356317,5399,2,0.0,207,56119690885032,35,22.5,61.29840087890625,0.9264999628067017,0,0.0,0.0,,,,,0,,3,,
Raw,28423582,28430457000000,,,-1291005707313371136,0.0,4208.8995687663555,0.31124050065940045,8.422044389356317,5399,22,0.0,207,56119702979553,19,27.3,-562.2001342773438,0.26660001277923584,0,0.0,0.0,,,,,0,,3,,
Raw,28423584,28430457000000,,,-1291005707313371136,0.0,4208.8995687663555,0.31124050065940045,8.422044389356317,5399,12,0.0,207,56119692600365,11,33.9,-503.20001220703125,0.2370000034570694,0,0.0,0.0,,,,,0,,3,,
Raw,28423587,28430457000000,,,-1291005707313371136,0.0,4208.8995687663555,0.31124050065940045,8.422044389356317,5399,1,0.0,207,56119691921738,9,35.4,490.29071044921875,0.23150001466274261,0,0.0,0.0,,,,,0,,3,,
Raw,28423591,28430457000000,,,-1291005707313371136,0.0,4208.8995687663555,0.31124050065940045,8.422044389356317,5399,1,0.0,15,390937689237139,31,23.3,-685.818359375,0.7249999642372131,0,0.0,0.0,,,,,0,,1,,
Raw,28423593,28430457000000,,,-1291005707313371136,0.0,4208.8995687663555,0.31124050065940045,8.422044389356317,5399,4,0.0,15,390937697434215,9,35.7,360.5329284667969,0.04050000011920929,0,0.0,0.0,,,,,0,,1,,
Raw,28423595,28430457000000,,,-1291005707313371136,0.0,4208.8995687663555,0.31124050065940045,8.422044389356317,5399,7,0.0,15,390937689578406,7,37.1,-631.6203002929688,0.026100000366568565,0,0.0,0.0,,,,,0,,1,,
Raw,28423598,28430457000000,,,-1291005707313371136,0.0,4208.8995687663555,0.31124050065940045,8.422044389356317,5399,8,0.0,15,390937702606736,6,38.1,-41.89192581176758,0.0142000000923872,0,0.0,0.0,,,,,0,,1,,
Raw,28423600,28430457000000,,,-1291005707313371136,0.0,4208.8995687663555,0.31124050065940045,8.422044389356317,5399,9,0.0,15,390937694976912,13,31.8,-1.7335199117660522,0.04480000212788582,0,0.0,0.0,,,,,0,,1,,
Raw,28423601,28430457000000,,,-1291005707313371136,0.0,4208.8995687663555,0.31124050065940045,8.422044389356317,5399,21,0.0,15,390937696908119,21,26.9,-531.5715942382812,0.1216999962925911,0,0.0,0.0,,,,,0,,1,,
Fix,gps,22.925457,120.294749,51.787415,0.000000,5.360000,1606998920000
NMEA,$GPGSV,3,1,11,01,10,185,23,04,42,230,36,07,17,320,37,08,70,270,38*75,1606998919448
NMEA,$GPGSV,3,2,11,09,32,279,32,11,00,000,33,21,31,168,27,16,35,040,*73,1606998919449
NMEA,$GPGSV,3,3,11,26,17,071,,27,59,018,,31,08,130,*45,1606998919449
NMEA,$GLGSV,2,1,08,66,06,299,23,86,50,184,27,76,11,322,34,65,10,240,35*6F,1606998919450
NMEA,$GLGSV,2,2,08,74,31,082,,84,11,026,,85,67,054,,72,01,202,*67,1606998919454
NMEA,$GAGSV,1,1,0,*74,1606998919455
NMEA,$PQGSV,1,1,03,193,14,165,,194,63,053,,195,71,084,,0,5*6D,1606998919458
NMEA,$PQGSV,1,1,0,*73,1606998919459
NMEA,$GNGSA,A,3,01,04,07,08,09,21,,,,,,,1.6,1.4,0.8,1*3B,1606998919466
NMEA,$GNGSA,A,3,65,66,76,86,,,,,,,,,1.6,1.4,0.8,2*34,1606998919467
NMEA,$GNVTG,,T,,M,0.0,N,0.0,K,A*3D,1606998919467
NMEA,$GNRMC,123520.00,A,2255.527396,N,12017.684924,E,0.0,,031220,2.8,W,A*14,1606998919468
NMEA,$GNGGA,123520.00,2255.527396,N,12017.684924,E,1,10,1.4,34.3,M,17.5,M,,*4A,1606998919468
Fix,gps,22.925455,120.294749,52.472412,0.310000,5.360000,1606998921000
Raw,28425095,28431470000000,,,-1291005707312514048,0.0,4208.056256175041,-0.37888877729457743,9.397380642674568,5400,22,0.0,207,56120715124213,21,26.7,-562.6192016601562,0.32019999623298645,0,0.0,0.0,,,,,0,,3,,
Raw,28425098,28431470000000,,,-1291005707312514048,0.0,4208.056256175041,-0.37888877729457743,9.397380642674568,5400,12,0.0,207,56120704744728,10,34.6,-502.02825927734375,0.22310000658035278,0,0.0,0.0,,,,,0,,3,,
Raw,28425101,28431470000000,,,-1291005707312514048,0.0,4208.056256175041,-0.37888877729457743,9.397380642674568,5400,1,0.0,207,56120704062768,10,34.8,491.604248046875,0.22310000658035278,0,0.0,0.0,,,,,0,,3,,
Raw,28425103,28431470000000,,,-1291005707312514048,0.0,4208.056256175041,-0.37888877729457743,9.397380642674568,5400,1,0.0,15,390938701382070,31,23.9,-684.50537109375,0.6829999685287476,0,0.0,0.0,,,,,0,,1,,
Raw,28425105,28431470000000,,,-1291005707312514048,0.0,4208.056256175041,-0.37888877729457743,9.397380642674568,5400,4,0.0,15,390938709575689,9,35.7,361.5870361328125,0.02850000187754631,0,0.0,0.0,,,,,0,,1,,
Raw,28425108,28431470000000,,,-1291005707312514048,0.0,4208.056256175041,-0.37888877729457743,9.397380642674568,5400,7,0.0,15,390938701723233,9,35.2,-631.36865234375,0.04650000110268593,0,0.0,0.0,,,,,0,,1,,
Raw,28425110,28431470000000,,,-1291005707312514048,0.0,4208.056256175041,-0.37888877729457743,9.397380642674568,5400,8,0.0,15,390938714749603,8,36.7,-40.68627166748047,0.03500000014901161,0,0.0,0.0,,,,,0,,1,,
Raw,28425114,28431470000000,,,-1291005707312514048,0.0,4208.056256175041,-0.37888877729457743,9.397380642674568,5400,9,0.0,15,390938707119617,11,33.3,-0.4245702028274536,0.029500000178813934,0,0.0,0.0,,,,,0,,1,,
Raw,28425117,28431470000000,,,-1291005707312514048,0.0,4208.056256175041,-0.37888877729457743,9.397380642674568,5400,21,0.0,15,390938709052667,24,25.9,-530.0308837890625,0.19290000200271606,0,0.0,0.0,,,,,0,,1,,
NMEA,$GPGSV,3,1,11,01,10,185,24,04,42,230,36,07,17,320,35,08,70,270,37*7F,1606998920450
NMEA,$GPGSV,3,2,11,09,32,279,33,11,00,000,33,21,31,168,26,16,35,040,*73,1606998920454
NMEA,$GPGSV,3,3,11,26,17,071,,27,59,018,,31,08,130,*45,1606998920455
NMEA,$GLGSV,2,1,07,86,50,184,27,76,11,322,35,65,10,240,35,74,31,082,*6F,1606998920459
NMEA,$GLGSV,2,2,07,84,11,026,,85,67,054,,72,01,202,*53,1606998920459
NMEA,$GAGSV,1,1,0,*74,1606998920461
NMEA,$PQGSV,1,1,03,193,14,165,,194,63,053,,195,71,084,,0,5*6D,1606998920462
NMEA,$PQGSV,1,1,0,*73,1606998920463
NMEA,$GNGSA,A,3,01,04,07,08,09,21,,,,,,,1.6,1.4,0.8,1*3B,1606998920466
NMEA,$GNGSA,A,2,65,76,86,,,,,,,,,,1.6,1.4,0.8,2*35,1606998920468
NMEA,$GNVTG,122.5,T,122.5,M,0.6,N,1.1,K,A*3B,1606998920468
NMEA,$GNRMC,123521.00,A,2255.527295,N,12017.684962,E,0.6,122.5,031220,2.8,W,A*39,1606998920468
NMEA,$GNGGA,123521.00,2255.527295,N,12017.684962,E,1,09,1.4,35.0,M,17.5,M,,*41,1606998920468
Raw,28425542,28432460000000,,,-1291005707312295168,0.0,4204.6750895679,3.470255006947155,11.936774168942303,5401,2,0.0,207,56121692808959,40,21.7,60.97045135498047,0.9894999861717224,0,0.0,0.0,,,,,0,,3,,
Raw,28425543,28432460000000,,,-1291005707312295168,0.0,4204.6750895679,3.470255006947155,11.936774168942303,5401,22,0.0,207,56121704907300,19,27.4,-562.019287109375,0.2696000039577484,0,0.0,0.0,,,,,0,,3,,
Raw,28425543,28432460000000,,,-1291005707312295168,0.0,4204.6750895679,3.470255006947155,11.936774168942303,5401,12,0.0,207,56121694527732,9,35.3,-503.0220031738281,0.23600001633167267,0,0.0,0.0,,,,,0,,3,,
Raw,28425544,28432460000000,,,-1291005707312295168,0.0,4204.6750895679,3.470255006947155,11.936774168942303,5401,1,0.0,207,56121693842505,9,35.9,490.57269287109375,0.2345000058412552,0,0.0,0.0,,,,,0,,3,,
Raw,28425544,28432460000000,,,-1291005707312295168,0.0,4204.6750895679,3.470255006947155,11.936774168942303,5401,1,0.0,15,390939691165687,31,23.6,-684.87646484375,0.6679999828338623,0,0.0,0.0,,,,,0,,1,,
Raw,28425545,28432460000000,,,-1291005707312295168,0.0,4204.6750895679,3.470255006947155,11.936774168942303,5401,4,0.0,15,390939699355832,8,36.3,360.9298400878906,0.042500000447034836,0,0.0,0.0,,,,,0,,1,,
Raw,28425545,28432460000000,,,-1291005707312295168,0.0,4204.6750895679,3.470255006947155,11.936774168942303,5401,7,0.0,15,390939691506692,8,36.0,-631.3636474609375,0.030500000342726707,0,0.0,0.0,,,,,0,,1,,
Raw,28425546,28432460000000,,,-1291005707312295168,0.0,4204.6750895679,3.470255006947155,11.936774168942303,5401,8,0.0,15,390939704531105,6,38.5,-41.49812698364258,0.01720000058412552,0,0.0,0.0,,,,,0,,1,,
Raw,28425546,28432460000000,,,-1291005707312295168,0.0,4204.6750895679,3.470255006947155,11.936774168942303,5401,9,0.0,15,390939696901000,11,33.6,-1.3191205263137817,0.0430000014603138,0,0.0,0.0,,,,,0,,1,,
Raw,28425546,28432460000000,,,-1291005707312295168,0.0,4204.6750895679,3.470255006947155,11.936774168942303,5401,21,0.0,15,390939698835748,19,27.5,-531.13232421875,0.09059999883174896,0,0.0,0.0,,,,,0,,1,,
Fix,gps,22.925454,120.294745,53.522949,0.000000,5.360000,1606998922000
NMEA,$GPGSV,3,1,11,01,10,185,24,04,42,230,36,07,17,320,36,08,70,270,39*72,1606998921450
NMEA,$GPGSV,3,2,11,09,32,279,34,11,00,000,33,21,31,168,28,16,35,040,*7A,1606998921451
NMEA,$GPGSV,3,3,11,26,17,071,,27,59,018,,31,08,130,*45,1606998921454
NMEA,$GLGSV,2,1,08,66,06,299,22,86,50,184,27,76,11,322,35,65,10,240,36*6C,1606998921458
NMEA,$GLGSV,2,2,08,74,31,082,,84,11,026,,85,67,054,,72,01,202,*67,1606998921459
NMEA,$GAGSV,1,1,0,*74,1606998921461
NMEA,$PQGSV,1,1,03,193,14,165,,194,63,053,,195,71,084,,0,5*6D,1606998921462
NMEA,$PQGSV,1,1,0,*73,1606998921464
NMEA,$GNGSA,A,3,01,04,07,08,09,21,,,,,,,1.6,1.4,0.8,1*3B,1606998921467
