# 
# Header Description:
# 
# Version: v2.0.0.1 Platform: 8.0.0 Manufacturer: Sony Model: G8142
# 
# Raw,ElapsedRealtimeMillis,TimeNanos,LeapSecond,TimeUncertaintyNanos,FullBiasNanos,BiasNanos,BiasUncertaintyNanos,DriftNanosPerSecond,DriftUncertaintyNanosPerSecond,HardwareClockDiscontinuityCount,Svid,TimeOffsetNanos,State,ReceivedSvTimeNanos,ReceivedSvTimeUncertaintyNanos,Cn0DbHz,PseudorangeRateMetersPerSecond,PseudorangeRateUncertaintyMetersPerSecond,AccumulatedDeltaRangeState,AccumulatedDeltaRangeMeters,AccumulatedDeltaRangeUncertaintyMeters,CarrierFrequencyHz,CarrierCycles,CarrierPhase,CarrierPhaseUncertainty,MultipathIndicator,SnrInDb,ConstellationType,AgcDb,CarrierFrequencyHz
# 
# Fix,Provider,Latitude,Longitude,Altitude,Speed,Accuracy,(UTC)TimeInMs
# 
# Nav,Svid,Type,Status,MessageId,Sub-messageId,Data(Bytes)
# 
Fix,gps,22.925446,120.294671,49.831909,0.400000,10.720000,1606999408000
Raw,28911598,28918584000000,,,-1291005707186279680,0.0,4209.122620522976,0.4785211284052234,10.46980055259309,5691,2,0.0,207,56607690649495,11,33.5,117.1944351196289,0.23399999737739563,0,0.0,0.0,,,,,0,,3,,
Raw,28911599,28918584000000,,,-1291005707186279680,0.0,4209.122620522976,0.4785211284052234,10.46980055259309,5691,22,0.0,207,56607703752588,31,23.6,-497.867431640625,0.8559999465942383,0,0.0,0.0,,,,,0,,3,,
Raw,28911599,28918584000000,,,-1291005707186279680,0.0,4209.122620522976,0.4785211284052234,10.46980055259309,5691,12,0.0,207,56607693341157,10,34.9,-518.0654907226562,0.23659999668598175,0,0.0,0.0,,,,,0,,3,,
Raw,28911599,28918584000000,,,-1291005707186279680,0.0,4209.122620522976,0.4785211284052234,10.46980055259309,5691,1,0.0,207,56607691027706,27,24.3,495.15740966796875,0.8180000185966492,0,0.0,0.0,,,,,0,,3,,
Raw,28911599,28918584000000,,,-1291005707186279680,0.0,4209.122620522976,0.4785211284052234,10.46980055259309,5691,1,0.0,15,391425690269846,27,24.1,-694.5338745117188,0.6664999723434448,0,0.0,0.0,,,,,0,,1,,
Raw,28911600,28918584000000,,,-1291005707186279680,0.0,4209.122620522976,0.4785211284052234,10.46980055259309,5691,4,0.0,15,391425696725874,17,28.6,397.623779296875,0.06480000168085098,0,0.0,0.0,,,,,0,,1,,
Raw,28911600,28918584000000,,,-1291005707186279680,0.0,4209.122620522976,0.4785211284052234,10.46980055259309,5691,7,0.0,15,391425690514409,9,35.8,-629.1167602539062,0.030000001192092896,0,0.0,0.0,,,,,0,,1,,
Raw,28911600,28918584000000,,,-1291005707186279680,0.0,4209.122620522976,0.4785211284052234,10.46980055259309,5691,8,0.0,15,391425702543774,13,31.6,7.8705315589904785,0.026799999177455902,0,0.0,0.0,,,,,0,,1,,
Raw,28911600,28918584000000,,,-1291005707186279680,0.0,4209.122620522976,0.4785211284052234,10.46980055259309,5691,9,0.0,15,391425694845950,12,32.3,50.94914245605469,0.04240000247955322,0,0.0,0.0,,,,,0,,1,,
NMEA,$GPGSV,3,1,11,01,13,184,24,04,40,226,29,07,20,320,36,08,71,282,32*78,1606999407440
NMEA,$GPGSV,3,2,11,09,32,274,32,11,00,000,34,16,34,045,,21,35,167,*73,1606999407440
NMEA,$GPGSV,3,3,11,26,16,074,,27,54,019,,31,06,133,*40,1606999407440
NMEA,$GLGSV,2,1,07,66,06,296,34,86,55,185,24,76,14,324,35,65,08,237,24*65,1606999407440
NMEA,$GLGSV,2,2,07,74,30,088,,84,08,025,,85,64,045,*5F,1606999407440
NMEA,$GAGSV,1,1,0,*74,1606999407440
NMEA,$PQGSV,1,1,03,193,14,165,,194,63,054,,195,71,081,,0,5*6F,1606999407440
NMEA,$PQGSV,1,1,0,*73,1606999407441
NMEA,$GNGSA,A,3,01,04,07,08,09,21,27,,,,,,1.3,1.1,0.8,1*3E,1606999407441
NMEA,$GNGSA,A,3,65,66,76,86,,,,,,,,,1.3,1.1,0.8,2*34,1606999407441
NMEA,$GNVTG,162.7,T,162.7,M,0.8,N,1.4,K,A*30,1606999407442
NMEA,$GNRMC,124328.00,A,2255.526747,N,12017.680237,E,0.8,162.7,031220,2.8,W,A*3D,1606999407442
NMEA,$GNGGA,124328.00,2255.526747,N,12017.680237,E,1,11,1.1,32.4,M,17.5,M,,*42,1606999407442
Raw,28912500,28919597000000,,,-1291005707185663232,0.0,4211.286548525095,3.3770185114265794,15.015534509271285,5692,2,0.0,207,56608703032345,16,29.9,115.40896606445312,0.23420000076293945,0,0.0,0.0,,,,,0,,3,,
Raw,28912500,28919597000000,,,-1291005707185663232,0.0,4211.286548525095,3.3770185114265794,15.015534509271285,5692,22,0.0,207,56608716137603,13,31.4,-499.56304931640625,0.24780000746250153,0,0.0,0.0,,,,,0,,3,,
Raw,28912500,28919597000000,,,-1291005707185663232,0.0,4211.286548525095,3.3770185114265794,15.015534509271285,5692,12,0.0,207,56608705726186,14,30.3,-520.005126953125,0.23430000245571136,0,0.0,0.0,,,,,0,,3,,
Raw,28912501,28919597000000,,,-1291005707185663232,0.0,4211.286548525095,3.3770185114265794,15.015534509271285,5692,1,0.0,207,56608703409371,14,30.6,493.67742919921875,0.2312999963760376,0,0.0,0.0,,,,,0,,3,,
Raw,28912501,28919597000000,,,-1291005707185663232,0.0,4211.286548525095,3.3770185114265794,15.015534509271285,5692,1,0.0,15,391426702655488,27,24.5,-695.9515380859375,0.6044999957084656,0,0.0,0.0,,,,,0,,1,,
Raw,28912501,28919597000000,,,-1291005707185663232,0.0,4211.286548525095,3.3770185114265794,15.015534509271285,5692,4,0.0,15,391426709107801,12,32.1,395.7732849121094,0.03490000218153,0,0.0,0.0,,,,,0,,1,,
Raw,28912501,28919597000000,,,-1291005707185663232,0.0,4211.286548525095,3.3770185114265794,15.015534509271285,5692,7,0.0,15,391426702899741,31,23.2,-631.4039306640625,0.7144999504089355,0,0.0,0.0,,,,,0,,1,,
Raw,28912501,28919597000000,,,-1291005707185663232,0.0,4211.286548525095,3.3770185114265794,15.015534509271285,5692,8,0.0,15,391426714927040,9,35.6,5.716079235076904,0.036000002175569534,0,0.0,0.0,,,,,0,,1,,
Raw,28912501,28919597000000,,,-1291005707185663232,0.0,4211.286548525095,3.3770185114265794,15.015534509271285,5692,9,0.0,15,391426707229055,19,27.1,49.21937561035156,0.07410000264644623,0,0.0,0.0,,,,,0,,1,,
Fix,gps,22.925449,120.294670,49.137024,0.000000,10.720000,1606999409000
NMEA,$GPGSV,3,1,11,01,13,184,25,04,40,226,32,07,20,320,23,08,71,282,36*73,1606999408440
NMEA,$GPGSV,3,2,11,09,32,274,27,11,00,000,34,16,34,045,,21,35,167,*77,1606999408440
NMEA,$GPGSV,3,3,11,26,16,074,,27,54,019,,31,06,133,*40,1606999408441
NMEA,$GLGSV,2,1,07,66,06,296,30,86,55,185,31,76,14,324,30,65,08,237,31*64,1606999408441
NMEA,$GLGSV,2,2,07,74,30,088,,84,08,025,,85,64,045,*5F,1606999408441
NMEA,$GAGSV,1,1,0,*74,1606999408441
NMEA,$PQGSV,1,1,03,193,14,165,,194,63,054,,195,71,081,,0,5*6F,1606999408441
NMEA,$PQGSV,1,1,0,*73,1606999408441
NMEA,$GNGSA,A,3,01,04,07,08,09,21,27,,,,,,1.3,1.1,0.8,1*3E,1606999408442
NMEA,$GNGSA,A,3,65,66,76,86,,,,,,,,,1.3,1.1,0.8,2*34,1606999408442
NMEA,$GNVTG,,T,,M,0.0,N,0.0,K,A*3D,1606999408443
NMEA,$GNRMC,124329.00,A,2255.526968,N,12017.680226,E,0.0,,031220,2.8,W,A*1B,1606999408443
NMEA,$GNGGA,124329.00,2255.526968,N,12017.680226,E,1,11,1.1,31.7,M,17.5,M,,*40,1606999408443
Raw,28913541,28920588000000,,,-1291005707185150208,0.0,4200.052469968796,-3.6149742716821227,9.215960057698389,5693,2,0.0,207,56609693519248,14,30.8,112.57931518554688,0.24629999697208405,0,0.0,0.0,,,,,0,,3,,
Raw,28913542,28920588000000,,,-1291005707185150208,0.0,4200.052469968796,-3.6149742716821227,9.215960057698389,5693,22,0.0,207,56609706626557,13,31.2,-502.1726989746094,0.23280000686645508,0,0.0,0.0,,,,,0,,3,,
Raw,28913542,28920588000000,,,-1291005707185150208,0.0,4200.052469968796,-3.6149742716821227,9.215960057698389,5693,12,0.0,207,56609696215110,12,32.0,-522.93359375,0.24539999663829803,0,0.0,0.0,,,,,0,,3,,
Raw,28913543,28920588000000,,,-1291005707185150208,0.0,4200.052469968796,-3.6149742716821227,9.215960057698389,5693,1,0.0,207,56609693895062,13,31.5,490.88909912109375,0.24330000579357147,0,0.0,0.0,,,,,0,,3,,
Raw,28913544,28920588000000,,,-1291005707185150208,0.0,4200.052469968796,-3.6149742716821227,9.215960057698389,5693,1,0.0,15,391427693144932,19,27.2,-698.7850952148438,0.08309999853372574,0,0.0,0.0,,,,,0,,1,,
Raw,28913544,28920588000000,,,-1291005707185150208,0.0,4200.052469968796,-3.6149742716821227,9.215960057698389,5693,4,0.0,15,391427699593806,17,28.4,393.0414123535156,0.06930000334978104,0,0.0,0.0,,,,,0,,1,,
Raw,28913545,28920588000000,,,-1291005707185150208,0.0,4200.052469968796,-3.6149742716821227,9.215960057698389,5693,7,0.0,15,391427693389136,21,26.6,-633.8809814453125,0.11719999462366104,0,0.0,0.0,,,,,0,,1,,
Raw,28913545,28920588000000,,,-1291005707185150208,0.0,4200.052469968796,-3.6149742716821227,9.215960057698389,5693,8,0.0,15,391427705414269,8,36.4,3.0598270893096924,0.0215000007301569,0,0.0,0.0,,,,,0,,1,,
Raw,28913546,28920588000000,,,-1291005707185150208,0.0,4200.052469968796,-3.6149742716821227,9.215960057698389,5693,9,0.0,15,391427697716130,14,30.3,46.53232955932617,0.05230000242590904,0,0.0,0.0,,,,,0,,1,,
Fix,gps,22.925448,120.294669,47.816223,0.000000,9.648001,1606999410000
NMEA,$GPGSV,3,1,11,01,13,184,27,04,40,226,28,07,20,320,27,08,71,282,36*7E,1606999409437
NMEA,$GPGSV,3,2,11,09,32,274,30,11,00,000,34,16,34,045,,21,35,167,*71,1606999409438
NMEA,$GPGSV,3,3,11,26,16,074,,27,54,019,,31,06,133,*40,1606999409438
NMEA,$GLGSV,2,1,07,66,06,296,31,86,55,185,31,76,14,324,32,65,08,237,32*64,1606999409438
NMEA,$GLGSV,2,2,07,74,30,088,,84,08,025,,85,64,045,*5F,1606999409439
NMEA,$GAGSV,1,1,0,*74,1606999409439
NMEA,$PQGSV,1,1,03,193,14,165,,194,63,054,,195,71,081,,0,5*6F,1606999409440
NMEA,$PQGSV,1,1,0,*73,1606999409440
NMEA,$GNGSA,A,3,01,04,07,08,09,21,27,,,,,,1.4,1.1,0.8,1*39,1606999409441
NMEA,$GNGSA,A,3,65,66,76,86,,,,,,,,,1.4,1.1,0.8,2*33,1606999409442
NMEA,$GNVTG,,T,,M,0.0,N,0.0,K,A*3D,1606999409442
NMEA,$GNRMC,124330.00,A,2255.526851,N,12017.680165,E,0.0,,031220,2.8,W,A*1C,1606999409442
NMEA,$GNGGA,124330.00,2255.526851,N,12017.680165,E,1,11,1.1,30.3,M,17.5,M,,*42,1606999409442
Raw,28914514,28921579000000,,,-1291005707185005056,0.0,4198.649898171425,-13.624192699814085,10.071942462847437,5694,2,0.0,207,56610684373677,35,22.0,113.54540252685547,0.9174999594688416,0,0.0,0.0,,,,,0,,3,,
Raw,28914515,28921579000000,,,-1291005707185005056,0.0,4198.649898171425,-13.624192699814085,10.071942462847437,5694,22,0.0,207,56610697482862,12,32.2,-501.9403991699219,0.24689999222755432,0,0.0,0.0,,,,,0,,3,,
Raw,28914515,28921579000000,,,-1291005707185005056,0.0,4198.649898171425,-13.624192699814085,10.071942462847437,5694,12,0.0,207,56610687071561,19,27.7,-522.6880493164062,0.27410000562667847,0,0.0,0.0,,,,,0,,3,,
Raw,28914516,28921579000000,,,-1291005707185005056,0.0,4198.649898171425,-13.624192699814085,10.071942462847437,5694,1,0.0,207,56610684748128,12,32.7,490.9742736816406,0.227400004863739,0,0.0,0.0,,,,,0,,3,,
Raw,28914517,28921579000000,,,-1291005707185005056,0.0,4198.649898171425,-13.624192699814085,10.071942462847437,5694,1,0.0,15,391428684002055,17,28.7,-698.7107543945312,0.44749999046325684,0,0.0,0.0,,,,,0,,1,,
Raw,28914517,28921579000000,,,-1291005707185005056,0.0,4198.649898171425,-13.624192699814085,10.071942462847437,5694,4,0.0,15,391428690447155,27,24.7,392.7947082519531,0.6165000200271606,0,0.0,0.0,,,,,0,,1,,
Raw,28914518,28921579000000,,,-1291005707185005056,0.0,4198.649898171425,-13.624192699814085,10.071942462847437,5694,7,0.0,15,391428684245971,31,23.9,-633.611328125,0.6574999690055847,0,0.0,0.0,,,,,0,,1,,
Raw,28914518,28921579000000,,,-1291005707185005056,0.0,4198.649898171425,-13.624192699814085,10.071942462847437,5694,8,0.0,15,391428696269011,9,35.7,3.242039203643799,0.039000000804662704,0,0.0,0.0,,,,,0,,1,,
Raw,28914519,28921579000000,,,-1291005707185005056,0.0,4198.649898171425,-13.624192699814085,10.071942462847437,5694,9,0.0,15,391428688570723,9,35.6,46.763427734375,0.027000000700354576,0,0.0,0.0,,,,,0,,1,,
Fix,gps,22.925446,120.294669,47.436951,0.000000,9.648001,1606999411000
NMEA,$GPGSV,3,1,11,01,13,184,29,04,40,226,25,07,20,320,24,08,71,282,36*7E,1606999410438
NMEA,$GPGSV,3,2,11,09,32,274,36,11,00,000,34,16,34,045,,21,35,167,*77,1606999410438
NMEA,$GPGSV,3,3,11,26,16,074,,27,54,019,,31,06,133,*40,1606999410439
NMEA,$GLGSV,2,1,07,66,06,296,22,86,55,185,32,76,14,324,28,65,08,237,33*6F,1606999410439
NMEA,$GLGSV,2,2,07,74,30,088,,84,08,025,,85,64,045,*5F,1606999410439
NMEA,$GAGSV,1,1,0,*74,1606999410439
NMEA,$PQGSV,1,1,03,193,14,165,,194,63,054,,195,71,081,,0,5*6F,1606999410439
NMEA,$PQGSV,1,1,0,*73,1606999410439
NMEA,$GNGSA,A,3,01,04,07,08,09,27,,,,,,,1.4,1.1,0.8,1*3A,1606999410440
NMEA,$GNGSA,A,3,65,66,76,86,,,,,,,,,1.4,1.1,0.8,2*33,1606999410440
NMEA,$GNVTG,,T,,M,0.0,N,0.0,K,A*3D,1606999410440
NMEA,$GNRMC,124331.00,A,2255.526744,N,12017.680131,E,0.0,,031220,2.8,W,A*17,1606999410441
NMEA,$GNGGA,124331.00,2255.526744,N,12017.680131,E,1,10,1.1,30.0,M,17.5,M,,*4B,1606999410441
Raw,28915543,28922594000000,,,-1291005707184695808,0.0,4204.101860523224,-13.268948828010425,13.157726705327502,5695,2,0.0,207,56611699063719,19,27.9,111.35799407958984,0.2921000123023987,0,0.0,0.0,,,,,0,,3,,
Raw,28915545,28922594000000,,,-1291005707184695808,0.0,4204.101860523224,-13.268948828010425,13.157726705327502,5695,22,0.0,207,56611712175126,13,31.0,-503.43939208984375,0.24180001020431519,0,0.0,0.0,,,,,0,,3,,
Raw,28915547,28922594000000,,,-1291005707184695808,0.0,4204.101860523224,-13.268948828010425,13.157726705327502,5695,12,0.0,207,56611701763855,14,30.6,-524.3508911132812,0.2583000063896179,0,0.0,0.0,,,,,0,,3,,
Raw,28915549,28922594000000,,,-1291005707184695808,0.0,4204.101860523224,-13.268948828010425,13.157726705327502,5695,1,0.0,207,56611699436916,12,32.8,489.39691162109375,0.2498999983072281,0,0.0,0.0,,,,,0,,3,,
Raw,28915557,28922594000000,,,-1291005707184695808,0.0,4204.101860523224,-13.268948828010425,13.157726705327502,5695,1,0.0,15,391429698694877,14,30.1,-700.34375,0.05380000174045563,0,0.0,0.0,,,,,0,,1,,
Raw,28915559,28922594000000,,,-1291005707184695808,0.0,4204.101860523224,-13.268948828010425,13.157726705327502,5695,4,0.0,15,391429705136343,14,30.1,391.69879150390625,0.034299999475479126,0,0.0,0.0,,,,,0,,1,,
Raw,28915562,28922594000000,,,-1291005707184695808,0.0,4204.101860523224,-13.268948828010425,13.157726705327502,5695,7,0.0,15,391429698938560,17,28.1,-635.284423828125,0.06780000030994415,0,0.0,0.0,,,,,0,,1,,
Raw,28915568,28922594000000,,,-1291005707184695808,0.0,4204.101860523224,-13.268948828010425,13.157726705327502,5695,8,0.0,15,391429710959453,9,35.7,1.7360687255859375,0.030000001192092896,0,0.0,0.0,,,,,0,,1,,
Raw,28915571,28922594000000,,,-1291005707184695808,0.0,4204.101860523224,-13.268948828010425,13.157726705327502,5695,9,0.0,15,391429703261044,11,33.7,45.15052795410156,0.023500001057982445,0,0.0,0.0,,,,,0,,1,,
Fix,gps,22.925445,120.294669,47.124695,0.000000,9.648001,1606999412000
NMEA,$GPGSV,3,1,11,01,13,184,30,04,40,226,30,07,20,320,28,08,71,282,36*7E,1606999411440
NMEA,$GPGSV,3,2,11,09,32,274,34,11,00,000,34,16,34,045,,21,35,167,*75,1606999411442
NMEA,$GPGSV,3,3,11,26,16,074,,27,54,019,,31,06,133,*40,1606999411442
NMEA,$GLGSV,2,1,07,66,06,296,28,86,55,185,31,76,14,324,31,65,08,237,33*6E,1606999411442
NMEA,$GLGSV,2,2,07,74,30,088,,84,08,025,,85,64,045,*5F,1606999411442
NMEA,$GAGSV,1,1,0,*74,1606999411445
NMEA,$PQGSV,1,1,03,193,14,165,,194,63,054,,195,71,081,,0,5*6F,1606999411445
NMEA,$PQGSV,1,1,0,*73,1606999411446
NMEA,$GNGSA,A,3,01,04,07,08,09,27,,,,,,,1.7,1.5,0.8,1*3D,1606999411449
NMEA,$GNGSA,A,3,65,66,76,86,,,,,,,,,1.7,1.5,0.8,2*34,1606999411449
NMEA,$GNVTG,,T,,M,0.0,N,0.0,K,A*3D,1606999411449
NMEA,$GNRMC,124332.00,A,2255.526708,N,12017.680147,E,0.0,,031220,2.8,W,A*1D,1606999411449
NMEA,$GNGGA,124332.00,2255.526708,N,12017.680147,E,1,10,1.5,29.7,M,17.5,M,,*4A,1606999411450
NMEA,$GPGSV,3,1,11,01,13,184,29,04,40,226,28,07,20,320,30,08,71,282,36*76,1606999412447
Raw,28916617,28923484000000,,,-1291005707184332800,0.0,4186.667036265135,-18.371582314649185,9.452812368652005,5696,2,0.0,207,56612588700543,17,28.3,111.81320190429688,0.3093999922275543,0,0.0,0.0,,,,,0,,3,,
Raw,28916620,28923484000000,,,-1291005707184332800,0.0,4186.667036265135,-18.371582314649185,9.452812368652005,5696,22,0.0,207,56612601813726,13,31.1,-503.12286376953125,0.2565999925136566,0,0.0,0.0,,,,,0,,3,,
Raw,28916623,28923484000000,,,-1291005707184332800,0.0,4186.667036265135,-18.371582314649185,9.452812368652005,5696,12,0.0,207,56612591402485,13,31.0,-524.2197265625,0.27160000801086426,0,0.0,0.0,,,,,0,,3,,
Raw,28916626,28923484000000,,,-1291005707184332800,0.0,4186.667036265135,-18.371582314649185,9.452812368652005,5696,1,0.0,207,56612589072576,9,35.0,489.5638732910156,0.24800001084804535,0,0.0,0.0,,,,,0,,3,,
Raw,28916629,28923484000000,,,-1291005707184332800,0.0,4186.667036265135,-18.371582314649185,9.452812368652005,5696,1,0.0,15,391430588334015,17,28.9,-700.1353759765625,0.10939999669790268,0,0.0,0.0,,,,,0,,1,,
Raw,28916631,28923484000000,,,-1291005707184332800,0.0,4186.667036265135,-18.371582314649185,9.452812368652005,5696,4,0.0,15,391430594772323,19,27.5,391.7059020996094,0.18470001220703125,0,0.0,0.0,,,,,0,,1,,
Raw,28916634,28923484000000,,,-1291005707184332800,0.0,4186.667036265135,-18.371582314649185,9.452812368652005,5696,7,0.0,15,391430588577571,16,29.6,-635.2083129882812,0.08639999479055405,0,0.0,0.0,,,,,0,,1,,
Raw,28916637,28923484000000,,,-1291005707184332800,0.0,4186.667036265135,-18.371582314649185,9.452812368652005,5696,8,0.0,15,391430600596583,8,36.4,1.9219447374343872,0.060499999672174454,0,0.0,0.0,,,,,0,,1,,
Raw,28916639,28923484000000,,,-1291005707184332800,0.0,4186.667036265135,-18.371582314649185,9.452812368652005,5696,9,0.0,15,391430592898018,7,37.7,45.423519134521484,0.045500002801418304,0,0.0,0.0,,,,,0,,1,,
Fix,gps,22.925445,120.294670,47.466492,0.000000,9.648001,1606999413000
NMEA,$GPGSV,3,2,11,09,32,274,38,11,00,000,34,16,34,045,,21,35,167,*79,1606999412448
NMEA,$GPGSV,3,3,11,26,16,074,,27,54,019,,31,06,133,*40,1606999412456
NMEA,$GLGSV,2,1,07,66,06,296,28,86,55,185,31,76,14,324,31,65,08,237,35*68,1606999412456
NMEA,$GLGSV,2,2,07,74,30,088,,84,08,025,,85,64,045,*5F,1606999412462
NMEA,$GAGSV,1,1,0,*74,1606999412463
NMEA,$PQGSV,1,1,03,193,14,165,,194,63,054,,195,71,081,,0,5*6F,1606999412464
NMEA,$PQGSV,1,1,0,*73,1606999412465
NMEA,$GNGSA,A,3,01,04,07,08,09,,,,,,,,1.7,1.5,0.8,1*38,1606999412467
NMEA,$GNGSA,A,3,65,66,76,86,,,,,,,,,1.7,1.5,0.8,2*34,1606999412468
NMEA,$GNVTG,,T,,M,0.0,N,0.0,K,A*3D,1606999412468
NMEA,$GNRMC,124333.00,A,2255.526701,N,12017.680178,E,0.0,,031220,2.8,W,A*19,1606999412468
NMEA,$GNGGA,124333.00,2255.526701,N,12017.680178,E,1,09,1.5,30.0,M,17.5,M,,*49,1606999412468
Fix,gps,22.925445,120.294670,47.466370,0.000000,9.648001,1606999414000
NMEA,$GPGSA,A,1,,,,,,,,,,,,,1.7,1.5,0.8,1*27,1606999413436
NMEA,$GPVTG,,T,,M,0.0,N,0.0,K,A*23,1606999413437
NMEA,$GPRMC,124334.00,A,2255.526698,N,12017.680194,E,0.0,,031220,2.8,W,A*03,1606999413437
NMEA,$GPGGA,124334.00,2255.526698,N,12017.680194,E,1,00,1.5,30.0,M,17.5,M,,*5A,1606999413437
Fix,gps,22.925450,120.294671,47.110840,0.000000,9.648001,1606999415000
Raw,28918551,28925488000000,,,-1291005707183987456,0.0,4171.028733253479,-8.597925062377735,9.67979526999342,5697,2,0.0,207,56614592354292,19,27.7,115.42910766601562,0.3817000091075897,0,0.0,0.0,,,,,0,,3,,
Raw,28918552,28925488000000,,,-1291005707183987456,0.0,4171.028733253479,-8.597925062377735,9.67979526999342,5697,22,0.0,207,56614605471747,16,29.4,-499.5223083496094,0.28189998865127563,0,0.0,0.0,,,,,0,,3,,
Raw,28918553,28925488000000,,,-1291005707183987456,0.0,4171.028733253479,-8.597925062377735,9.67979526999342,5697,12,0.0,207,56614595060666,12,32.1,-520.9860229492188,0.2709999978542328,0,0.0,0.0,,,,,0,,3,,
Raw,28918553,28925488000000,,,-1291005707183987456,0.0,4171.028733253479,-8.597925062377735,9.67979526999342,5697,1,0.0,207,56614592723907,10,34.1,492.9163513183594,0.2565999925136566,0,0.0,0.0,,,,,0,,3,,
Raw,28918554,28925488000000,,,-1291005707183987456,0.0,4171.028733253479,-8.597925062377735,9.67979526999342,5697,1,0.0,15,391432591993326,14,30.2,-696.7523803710938,0.07999999821186066,0,0.0,0.0,,,,,0,,1,,
Raw,28918555,28925488000000,,,-1291005707183987456,0.0,4171.028733253479,-8.597925062377735,9.67979526999342,5697,4,0.0,15,391432598424215,16,29.9,395.4163513183594,0.1013999953866005,0,0.0,0.0,,,,,0,,1,,
Raw,28918555,28925488000000,,,-1291005707183987456,0.0,4171.028733253479,-8.597925062377735,9.67979526999342,5697,7,0.0,15,391432592236427,10,34.4,-631.6873779296875,0.05660000070929527,0,0.0,0.0,,,,,0,,1,,
Raw,28918556,28925488000000,,,-1291005707183987456,0.0,4171.028733253479,-8.597925062377735,9.67979526999342,5697,8,0.0,15,391432604251182,8,36.8,5.545229434967041,0.0364999994635582,0,0.0,0.0,,,,,0,,1,,
Raw,28918556,28925488000000,,,-1291005707183987456,0.0,4171.028733253479,-8.597925062377735,9.67979526999342,5697,9,0.0,15,391432596552345,7,37.7,49.074989318847656,0.051500000059604645,0,0.0,0.0,,,,,0,,1,,
NMEA,$GPGSV,3,1,11,01,13,184,30,04,40,226,30,07,20,320,34,08,71,282,37*72,1606999414440
NMEA,$GPGSV,3,2,11,09,32,274,38,11,00,000,34,16,34,045,,21,35,167,*79,1606999414440
NMEA,$GPGSV,3,3,11,26,16,074,,27,54,019,,31,06,133,*40,1606999414440
NMEA,$GLGSV,2,1,07,66,06,296,28,86,55,185,29,76,14,324,32,65,08,237,34*63,1606999414440
NMEA,$GLGSV,2,2,07,74,30,088,,84,08,025,,85,64,045,*5F,1606999414440
NMEA,$GAGSV,1,1,0,*74,1606999414440
NMEA,$PQGSV,1,1,03,193,14,165,,194,63,054,,195,71,081,,0,5*6F,1606999414441
NMEA,$PQGSV,1,1,0,*73,1606999414441
NMEA,$GNGSA,A,3,01,04,07,08,09,,,,,,,,1.7,1.5,0.8,1*38,1606999414442
NMEA,$GNGSA,A,3,65,66,76,86,,,,,,,,,1.7,1.5,0.8,2*34,1606999414442
NMEA,$GNVTG,,T,,M,0.0,N,0.0,K,A*3D,1606999414442
NMEA,$GNRMC,124335.00,A,2255.527005,N,12017.680231,E,0.0,,031220,2.8,W,A*13,1606999414442
NMEA,$GNGGA,124335.00,2255.527005,N,12017.680231,E,1,09,1.5,29.6,M,17.5,M,,*4D,1606999414442
Fix,gps,22.925453,120.294671,47.110901,0.000000,9.648001,1606999416000
NMEA,$GPGSA,A,1,,,,,,,,,,,,,1.7,1.5,0.8,1*27,1606999415439
NMEA,$GPVTG,,T,,M,0.0,N,0.0,K,A*23,1606999415439
NMEA,$GPRMC,124336.00,A,2255.527158,N,12017.680250,E,0.0,,031220,2.8,W,A*00,1606999415439
NMEA,$GPGGA,124336.00,2255.527158,N,12017.680250,E,1,00,1.5,29.6,M,17.5,M,,*57,1606999415439
Raw,28920543,28927495000000,,,-1291005707183320320,0.0,4170.190542936325,-2.3862673695899335,4.8555590599357155,5698,2,0.0,207,56616598686191,17,28.2,118.20894622802734,0.3243999779224396,0,0.0,0.0,,,,,0,,3,,
Raw,28920545,28927495000000,,,-1291005707183320320,0.0,4170.190542936325,-2.3862673695899335,4.8555590599357155,5698,22,0.0,207,56616611807761,14,30.8,-496.6295166015625,0.2800000011920929,0,0.0,0.0,,,,,0,,3,,
Raw,28920548,28927495000000,,,-1291005707183320320,0.0,4170.190542936325,-2.3862673695899335,4.8555590599357155,5698,12,0.0,207,56616601396868,10,34.7,-518.3939819335938,0.2700999975204468,0,0.0,0.0,,,,,0,,3,,
Raw,28920550,28927495000000,,,-1291005707183320320,0.0,4170.190542936325,-2.3862673695899335,4.8555590599357155,5698,1,0.0,207,56616599053410,12,32.4,495.50103759765625,0.2770000100135803,0,0.0,0.0,,,,,0,,3,,
Raw,28920553,28927495000000,,,-1291005707183320320,0.0,4170.190542936325,-2.3862673695899335,4.8555590599357155,5698,1,0.0,15,391434598330796,14,30.5,-694.2218627929688,0.09049999713897705,0,0.0,0.0,,,,,0,,1,,
Raw,28920555,28927495000000,,,-1291005707183320320,0.0,4170.190542936325,-2.3862673695899335,4.8555590599357155,5698,4,0.0,15,391434604754404,21,26.4,398.05352783203125,0.2567000091075897,0,0.0,0.0,,,,,0,,1,,
Raw,28920557,28927495000000,,,-1291005707183320320,0.0,4170.190542936325,-2.3862673695899335,4.8555590599357155,5698,7,0.0,15,391434598573419,19,27.6,-629.2410278320312,0.1907000094652176,0,0.0,0.0,,,,,0,,1,,
Raw,28920560,28927495000000,,,-1291005707183320320,0.0,4170.190542936325,-2.3862673695899335,4.8555590599357155,5698,8,0.0,15,391434610583891,8,36.3,8.381189346313477,0.045499999076128006,0,0.0,0.0,,,,,0,,1,,
Raw,28920562,28927495000000,,,-1291005707183320320,0.0,4170.190542936325,-2.3862673695899335,4.8555590599357155,5698,9,0.0,15,391434602884770,9,35.8,51.870513916015625,0.03750000149011612,0,0.0,0.0,,,,,0,,1,,
Fix,gps,22.925452,120.294665,47.563782,0.000000,9.648001,1606999417000
NMEA,$GPGSV,3,1,11,01,13,184,31,04,40,226,26,07,20,320,28,08,71,282,36*78,1606999416439
NMEA,$GPGSV,3,2,11,09,32,274,36,11,00,000,34,16,34,045,,21,35,167,*77,1606999416440
NMEA,$GPGSV,3,3,11,26,16,074,,27,54,019,,31,06,133,*40,1606999416442
NMEA,$GLGSV,2,1,07,66,05,295,28,86,55,185,31,76,14,324,35,65,08,237,32*6B,1606999416442
NMEA,$GLGSV,2,2,07,74,30,088,,84,08,025,,85,64,045,*5F,1606999416442
NMEA,$GAGSV,1,1,0,*74,1606999416443
NMEA,$PQGSV,1,1,03,193,14,165,,194,63,054,,195,71,081,,0,5*6F,1606999416443
NMEA,$PQGSV,1,1,0,*73,1606999416444
NMEA,$GNGSA,A,3,01,04,07,08,09,,,,,,,,1.7,1.5,0.8,1*38,1606999416445
NMEA,$GNGSA,A,3,65,66,76,86,,,,,,,,,1.7,1.5,0.8,2*34,1606999416445
NMEA,$GNVTG,,T,,M,0.0,N,0.0,K,A*3D,1606999416446
NMEA,$GNRMC,124337.00,A,2255.527127,N,12017.679919,E,0.0,,031220,2.8,W,A*17,1606999416446
NMEA,$GNGGA,124337.00,2255.527127,N,12017.679919,E,1,09,1.5,30.1,M,17.5,M,,*46,1606999416446
Raw,28921582,28928687000000,,,-1291005707183300864,0.0,4235.792439430952,2.472734650987492,14.055249702070721,5699,2,0.0,207,56617790666550,19,27.4,120.62969970703125,0.37870001792907715,0,0.0,0.0,,,,,0,,3,,
Raw,28921585,28928687000000,,,-1291005707183300864,0.0,4235.792439430952,2.472734650987492,14.055249702070721,5699,22,0.0,207,56617803790385,14,30.6,-494.29296875,0.2680000066757202,0,0.0,0.0,,,,,0,,3,,
Raw,28921588,28928687000000,,,-1291005707183300864,0.0,4235.792439430952,2.472734650987492,14.055249702070721,5699,12,0.0,207,56617793379499,10,34.1,-516.0297241210938,0.2581000030040741,0,0.0,0.0,,,,,0,,3,,
Raw,28921590,28928687000000,,,-1291005707183300864,0.0,4235.792439430952,2.472734650987492,14.055249702070721,5699,1,0.0,207,56617791032049,13,31.6,497.7607727050781,0.27160000801086426,0,0.0,0.0,,,,,0,,3,,
Raw,28921593,28928687000000,,,-1291005707183300864,0.0,4235.792439430952,2.472734650987492,14.055249702070721,5699,1,0.0,15,391435790314113,14,30.1,-692.0089721679688,0.07850000262260437,0,0.0,0.0,,,,,0,,1,,
Raw,28921595,28928687000000,,,-1291005707183300864,0.0,4235.792439430952,2.472734650987492,14.055249702070721,5699,4,0.0,15,391435796733427,14,30.8,400.96380615234375,0.08749999850988388,0,0.0,0.0,,,,,0,,1,,
Raw,28921597,28928687000000,,,-1291005707183300864,0.0,4235.792439430952,2.472734650987492,14.055249702070721,5699,7,0.0,15,391435790556489,13,31.0,-626.639404296875,0.07010000199079514,0,0.0,0.0,,,,,0,,1,,
Raw,28921600,28928687000000,,,-1291005707183300864,0.0,4235.792439430952,2.472734650987492,14.055249702070721,5699,8,0.0,15,391435802564456,8,36.0,10.696796417236328,0.03350000083446503,0,0.0,0.0,,,,,0,,1,,
Raw,28921602,28928687000000,,,-1291005707183300864,0.0,4235.792439430952,2.472734650987492,14.055249702070721,5699,9,0.0,15,391435794865161,10,34.3,54.1996955871582,0.05959999933838844,0,0.0,0.0,,,,,0,,1,,
Fix,gps,22.925449,120.294658,47.964722,0.000000,9.648001,1606999418000
NMEA,$GPGSV,3,1,11,01,13,184,30,04,40,226,31,07,20,320,31,08,71,282,36*77,1606999417448
NMEA,$GPGSV,3,2,11,09,32,274,34,11,00,000,34,16,34,045,,21,35,167,*75,1606999417448
NMEA,$GPGSV,3,3,11,26,16,074,,27,54,019,,31,06,133,*40,1606999417448
NMEA,$GLGSV,2,1,07,66,05,295,27,86,55,185,31,76,14,324,34,65,08,237,32*65,1606999417448
NMEA,$GLGSV,2,2,07,74,30,088,,84,08,025,,85,64,045,*5F,1606999417449
NMEA,$GAGSV,1,1,0,*74,1606999417451
NMEA,$PQGSV,1,1,03,193,14,165,,194,63,054,,195,71,081,,0,5*6F,1606999417451
NMEA,$PQGSV,1,1,0,*73,1606999417452
NMEA,$GNGSA,A,3,01,04,07,08,09,,,,,,,,1.7,1.5,0.8,1*38,1606999417454
NMEA,$GNGSA,A,3,65,66,76,86,,,,,,,,,1.7,1.5,0.8,2*34,1606999417455
NMEA,$GNVTG,,T,,M,0.0,N,0.0,K,A*3D,1606999417457
NMEA,$GNRMC,124338.00,A,2255.526945,N,12017.679493,E,0.0,,031220,2.8,W,A*1A,1606999417458
NMEA,$GNGGA,124338.00,2255.526945,N,12017.679493,E,1,09,1.5,30.5,M,17.5,M,,*4F,1606999417460
Fix,gps,22.925448,120.294655,47.964966,0.000000,9.648001,1606999419000
NMEA,$GPGSA,A,1,,,,,,,,,,,,,1.7,1.5,0.8,1*27,1606999418438
NMEA,$GPVTG,,T,,M,0.0,N,0.0,K,A*23,1606999418439
NMEA,$GPRMC,124339.00,A,2255.526854,N,12017.679280,E,0.0,,031220,2.8,W,A*00,1606999418440
NMEA,$GPGGA,124339.00,2255.526854,N,12017.679280,E,1,00,1.5,30.5,M,17.5,M,,*5C,1606999418440
Raw,28923581,28930489000000,,,-1291005707182730496,0.0,4170.045722275972,-1.4614979231556269,4.0955946378268795,5700,2,0.0,207,56619592095361,16,29.1,118.51033782958984,0.29239997267723083,0,0.0,0.0,,,,,0,,3,,
Raw,28923582,28930489000000,,,-1291005707182730496,0.0,4170.045722275972,-1.4614979231556269,4.0955946378268795,5700,22,0.0,207,56619605223044,13,31.3,-496.16363525390625,0.26260000467300415,0,0.0,0.0,,,,,0,,3,,
Raw,28923584,28930489000000,,,-1291005707182730496,0.0,4170.045722275972,-1.4614979231556269,4.0955946378268795,5700,12,0.0,207,56619594812243,11,33.3,-518.472412109375,0.26420000195503235,0,0.0,0.0,,,,,0,,3,,
Raw,28923587,28930489000000,,,-1291005707182730496,0.0,4170.045722275972,-1.4614979231556269,4.0955946378268795,5700,1,0.0,207,56619592458697,11,33.0,495.6095275878906,0.2612000107765198,0,0.0,0.0,,,,,0,,3,,
Raw,28923588,28930489000000,,,-1291005707182730496,0.0,4170.045722275972,-1.4614979231556269,4.0955946378268795,5700,1,0.0,15,391437591747859,14,30.2,-694.210693359375,0.07999999821186066,0,0.0,0.0,,,,,0,,1,,
Raw,28923590,28930489000000,,,-1291005707182730496,0.0,4170.045722275972,-1.4614979231556269,4.0955946378268795,5700,4,0.0,15,391437598160681,12,32.0,398.3623352050781,0.0754999965429306,0,0.0,0.0,,,,,0,,1,,
Raw,28923592,28930489000000,,,-1291005707182730496,0.0,4170.045722275972,-1.4614979231556269,4.0955946378268795,5700,7,0.0,15,391437591990071,21,26.7,-629.0684814453125,0.2671999931335449,0,0.0,0.0,,,,,0,,1,,
Raw,28923593,28930489000000,,,-1291005707182730496,0.0,4170.045722275972,-1.4614979231556269,4.0955946378268795,5700,8,0.0,15,391437603994075,10,34.7,8.714037895202637,0.04309999942779541,0,0.0,0.0,,,,,0,,1,,
Raw,28923595,28930489000000,,,-1291005707182730496,0.0,4170.045722275972,-1.4614979231556269,4.0955946378268795,5700,9,0.0,15,391437596294502,12,32.9,52.24435806274414,0.07249999791383743,0,0.0,0.0,,,,,0,,1,,
Fix,gps,22.925446,120.294650,48.261475,0.000000,10.720000,1606999420000
NMEA,$GPGSV,3,1,11,01,13,184,30,04,40,226,32,07,20,320,27,08,71,282,35*70,1606999419444
NMEA,$GPGSV,3,2,11,09,32,274,33,11,00,000,34,16,34,045,,21,35,167,*72,1606999419445
NMEA,$GPGSV,3,3,11,26,16,074,,27,54,019,,31,06,133,*40,1606999419452
NMEA,$GLGSV,2,1,07,66,05,295,29,86,55,185,31,76,14,324,33,65,08,237,33*6D,1606999419452
NMEA,$GLGSV,2,2,07,74,30,088,,84,08,025,,85,64,045,*5F,1606999419453
NMEA,$GAGSV,1,1,0,*74,1606999419454
NMEA,$PQGSV,1,1,03,193,14,165,,194,63,054,,195,71,081,,0,5*6F,1606999419455
NMEA,$PQGSV,1,1,0,*73,1606999419455
NMEA,$GNGSA,A,3,01,04,07,08,09,,,,,,,,1.7,1.5,0.8,1*38,1606999419464
NMEA,$GNGSA,A,3,65,66,76,86,,,,,,,,,1.7,1.5,0.8,2*34,1606999419466
NMEA,$GNVTG,,T,,M,0.0,N,0.0,K,A*3D,1606999419470
NMEA,$GNRMC,124340.00,A,2255.526752,N,12017.678981,E,0.0,,031220,2.8,W,A*12,1606999419470
NMEA,$GNGGA,124340.00,2255.526752,N,12017.678981,E,1,09,1.5,30.8,M,17.5,M,,*4A,1606999419470
Fix,gps,22.925445,120.294647,48.261658,0.000000,10.720000,1606999421000
NMEA,$GPGSA,A,1,,,,,,,,,,,,,1.7,1.5,0.8,1*27,1606999420440
NMEA,$GPVTG,,T,,M,0.0,N,0.0,K,A*23,1606999420441
NMEA,$GPRMC,124341.00,A,2255.526701,N,12017.678831,E,0.0,,031220,2.8,W,A*01,1606999420441
NMEA,$GPGGA,124341.00,2255.526701,N,12017.678831,E,1,00,1.5,30.8,M,17.5,M,,*50,1606999420442
Fix,gps,22.925445,120.294646,48.318970,0.000000,10.720000,1606999422000
Raw,28925582,28932596000000,,,-1291005707182078976,0.0,4206.989426165819,5.821724953686014,10.16485806338183,5701,22,0.0,207,56621711575287,14,30.6,-495.4594421386719,0.24330000579357147,0,0.0,0.0,,,,,0,,3,,
Raw,28925582,28932596000000,,,-1291005707182078976,0.0,4206.989426165819,5.821724953686014,10.16485806338183,5701,12,0.0,207,56621701164712,11,33.5,-518.1436157226562,0.25049999356269836,0,0.0,0.0,,,,,0,,3,,
Raw,28925583,28932596000000,,,-1291005707182078976,0.0,4206.989426165819,5.821724953686014,10.16485806338183,5701,1,0.0,207,56621698804054,13,31.0,495.9941101074219,0.2508000135421753,0,0.0,0.0,,,,,0,,3,,
Raw,28925583,28932596000000,,,-1291005707182078976,0.0,4206.989426165819,5.821724953686014,10.16485806338183,5701,21,0.0,207,56621712388488,40,21.5,269.1918640136719,0.9894999861717224,0,0.0,0.0,,,,,0,,3,,
Raw,28925584,28932596000000,,,-1291005707182078976,0.0,4206.989426165819,5.821724953686014,10.16485806338183,5701,1,0.0,15,391439698101602,16,29.5,-693.9566040039062,0.056700002402067184,0,0.0,0.0,,,,,0,,1,,
Raw,28925584,28932596000000,,,-1291005707182078976,0.0,4206.989426165819,5.821724953686014,10.16485806338183,5701,4,0.0,15,391439704506662,16,29.8,399.0442810058594,0.0357000008225441,0,0.0,0.0,,,,,0,,1,,
Raw,28925585,28932596000000,,,-1291005707182078976,0.0,4206.989426165819,5.821724953686014,10.16485806338183,5701,7,0.0,15,391439698343162,17,28.9,-628.688720703125,0.06780000030994415,0,0.0,0.0,,,,,0,,1,,
Raw,28925585,28932596000000,,,-1291005707182078976,0.0,4206.989426165819,5.821724953686014,10.16485806338183,5701,8,0.0,15,391439710342807,9,35.4,9.28050422668457,0.030000001192092896,0,0.0,0.0,,,,,0,,1,,
Raw,28925586,28932596000000,,,-1291005707182078976,0.0,4206.989426165819,5.821724953686014,10.16485806338183,5701,9,0.0,15,391439702642905,12,32.2,52.8527717590332,0.024399999529123306,0,0.0,0.0,,,,,0,,1,,
NMEA,$GPGSV,3,1,10,01,13,184,30,04,40,226,30,07,20,320,29,08,71,282,35*7D,1606999421442
NMEA,$GPGSV,3,2,10,09,32,274,32,11,00,000,34,16,34,045,,21,35,167,*72,1606999421442
NMEA,$GPGSV,3,3,10,26,16,074,,31,06,133,*7D,1606999421442
NMEA,$GLGSV,2,1,06,86,55,185,31,76,14,324,34,65,08,237,31,85,64,045,22*67,1606999421442
NMEA,$GLGSV,2,2,06,74,30,088,,84,08,025,*60,1606999421443
NMEA,$GAGSV,1,1,0,*74,1606999421443
NMEA,$PQGSV,1,1,03,193,14,165,,194,63,054,,195,71,081,,0,5*6F,1606999421443
NMEA,$PQGSV,1,1,0,*73,1606999421443
NMEA,$GNGSA,A,3,01,04,07,08,09,,,,,,,,1.4,1.1,0.8,1*3F,1606999421451
NMEA,$GNGSA,A,2,65,76,86,,,,,,,,,,1.4,1.1,0.8,2*32,1606999421451
NMEA,$GNVTG,,T,,M,0.0,N,0.0,K,A*3D,1606999421452
NMEA,$GNRMC,124342.00,A,2255.526675,N,12017.678782,E,0.0,,031220,2.8,W,A*19,1606999421452
NMEA,$GNGGA,124342.00,2255.526675,N,12017.678782,E,1,08,1.1,30.8,M,17.5,M,,*44,1606999421453
Raw,28927183,28933488000000,,,-1291005707181848576,0.0,4224.374890327454,3.607396060224052,10.84973703511788,5702,2,0.0,207,56622590212150,19,27.6,119.4674072265625,0.37870001792907715,0,0.0,0.0,,,,,0,,3,,
Raw,28927183,28933488000000,,,-1291005707181848576,0.0,4224.374890327454,3.607396060224052,10.84973703511788,5702,22,0.0,207,56622603345847,14,30.5,-495.0984191894531,0.2680000066757202,0,0.0,0.0,,,,,0,,3,,
Raw,28927184,28933488000000,,,-1291005707181848576,0.0,4224.374890327454,3.607396060224052,10.84973703511788,5702,12,0.0,207,56622592935382,12,32.7,-518.0516357421875,0.26649999618530273,0,0.0,0.0,,,,,0,,3,,
Raw,28927184,28933488000000,,,-1291005707181848576,0.0,4224.374890327454,3.607396060224052,10.84973703511788,5702,1,0.0,207,56622590571664,12,32.6,496.166259765625,0.26350000500679016,0,0.0,0.0,,,,,0,,3,,
Raw,28927185,28933488000000,,,-1291005707181848576,0.0,4224.374890327454,3.607396060224052,10.84973703511788,5702,1,0.0,15,391440589872829,16,29.4,-693.8233642578125,0.08789999783039093,0,0.0,0.0,,,,,0,,1,,
Raw,28927186,28933488000000,,,-1291005707181848576,0.0,4224.374890327454,3.607396060224052,10.84973703511788,5702,4,0.0,15,391440596274641,14,30.9,399.20196533203125,0.08749999850988388,0,0.0,0.0,,,,,0,,1,,
Raw,28927186,28933488000000,,,-1291005707181848576,0.0,4224.374890327454,3.607396060224052,10.84973703511788,5702,7,0.0,15,391440590114187,13,31.7,-628.4567260742188,0.07010000199079514,0,0.0,0.0,,,,,0,,1,,
Raw,28927187,28933488000000,,,-1291005707181848576,0.0,4224.374890327454,3.607396060224052,10.84973703511788,5702,8,0.0,15,391440602111926,10,34.8,9.549055099487305,0.041600000113248825,0,0.0,0.0,,,,,0,,1,,
Raw,28927187,28933488000000,,,-1291005707181848576,0.0,4224.374890327454,3.607396060224052,10.84973703511788,5702,9,0.0,15,391440594411901,9,35.1,53.11839294433594,0.05550000071525574,0,0.0,0.0,,,,,0,,1,,
Fix,gps,22.925444,120.294646,48.328735,0.000000,9.648001,1606999423000
NMEA,$GPGSV,3,1,11,01,13,184,29,04,40,226,31,07,20,320,32,08,71,282,35*7F,1606999422448
NMEA,$GPGSV,3,2,11,09,32,274,35,11,00,000,34,16,34,045,,21,35,167,*74,1606999422449
NMEA,$GPGSV,3,3,11,26,16,074,,27,54,019,,31,06,133,*40,1606999422450
NMEA,$GLGSV,2,1,06,66,05,295,28,86,55,185,31,76,14,324,33,65,08,237,33*6D,1606999422452
NMEA,$GLGSV,2,2,06,74,30,088,,84,08,025,*60,1606999422455
NMEA,$GAGSV,1,1,0,*74,1606999422456
NMEA,$PQGSV,1,1,03,193,14,165,,194,63,054,,195,71,081,,0,5*6F,1606999422459
NMEA,$PQGSV,1,1,0,*73,1606999422460
NMEA,$GNGSA,A,3,01,04,07,08,09,27,,,,,,,1.4,1.1,0.8,1*3A,1606999422463
NMEA,$GNGSA,A,3,65,66,76,86,,,,,,,,,1.4,1.1,0.8,2*33,1606999422464
NMEA,$GNVTG,,T,,M,0.0,N,0.0,K,A*3D,1606999422465
NMEA,$GNRMC,124343.00,A,2255.526660,N,12017.678755,E,0.0,,031220,2.8,W,A*16,1606999422466
NMEA,$GNGGA,124343.00,2255.526660,N,12017.678755,E,1,10,1.1,30.9,M,17.5,M,,*43,1606999422466
Fix,gps,22.925444,120.294646,48.328857,0.000000,9.648001,1606999424000
NMEA,$GPGSA,A,1,,,,,,,,,,,,,1.4,1.1,0.8,1*20,1606999423441
NMEA,$GPVTG,,T,,M,0.0,N,0.0,K,A*23,1606999423442
NMEA,$GPRMC,124344.00,A,2255.526653,N,12017.678742,E,0.0,,031220,2.8,W,A*09,1606999423442
NMEA,$GPGGA,124344.00,2255.526653,N,12017.678742,E,1,00,1.1,30.9,M,17.5,M,,*5D,1606999423443
Raw,28928562,28935592000000,,,-1291005707181168896,0.0,4185.354337096214,-2.1391231571742804,6.424490596504311,5703,2,0.0,207,56624693531943,24,25.7,118.1320571899414,0.39890000224113464,0,0.0,0.0,,,,,0,,3,,
Raw,28928563,28935592000000,,,-1291005707181168896,0.0,4185.354337096214,-2.1391231571742804,6.424490596504311,5703,22,0.0,207,56624706670006,14,30.5,-496.4817810058594,0.23579999804496765,0,0.0,0.0,,,,,0,,3,,
Raw,28928564,28935592000000,,,-1291005707181168896,0.0,4185.354337096214,-2.1391231571742804,6.424490596504311,5703,12,0.0,207,56624696259626,13,31.3,-519.597412109375,0.24780000746250153,0,0.0,0.0,,,,,0,,3,,
Raw,28928564,28935592000000,,,-1291005707181168896,0.0,4185.354337096214,-2.1391231571742804,6.424490596504311,5703,1,0.0,207,56624693888814,13,31.4,494.5824890136719,0.24330000579357147,0,0.0,0.0,,,,,0,,3,,
Raw,28928565,28935592000000,,,-1291005707181168896,0.0,4185.354337096214,-2.1391231571742804,6.424490596504311,5703,1,0.0,15,391442693198346,17,28.4,-695.340576171875,0.06030000001192093,0,0.0,0.0,,,,,0,,1,,
Raw,28928565,28935592000000,,,-1291005707181168896,0.0,4185.354337096214,-2.1391231571742804,6.424490596504311,5703,4,0.0,15,391442699592434,14,30.1,397.6783752441406,0.05530000105500221,0,0.0,0.0,,,,,0,,1,,
Raw,28928566,28935592000000,,,-1291005707181168896,0.0,4185.354337096214,-2.1391231571742804,6.424490596504311,5703,7,0.0,15,391442693439175,16,29.3,-630.0855102539062,0.04920000210404396,0,0.0,0.0,,,,,0,,1,,
Raw,28928566,28935592000000,,,-1291005707181168896,0.0,4185.354337096214,-2.1391231571742804,6.424490596504311,5703,8,0.0,15,391442705432466,10,34.7,8.180020332336426,0.02459999918937683,0,0.0,0.0,,,,,0,,1,,
Raw,28928567,28935592000000,,,-1291005707181168896,0.0,4185.354337096214,-2.1391231571742804,6.424490596504311,5703,9,0.0,15,391442697732131,11,33.5,51.74567794799805,0.04450000077486038,0,0.0,0.0,,,,,0,,1,,
Raw,28928568,28935592000000,,,-1291005707181168896,0.0,4185.354337096214,-2.1391231571742804,6.424490596504311,5703,21,0.0,15,391442700577396,35,22.8,-502.7654113769531,0.7414999604225159,0,0.0,0.0,,,,,0,,1,,
Fix,gps,22.925444,120.294645,48.402588,0.000000,9.648001,1606999425000
NMEA,$GPGSV,3,1,11,01,13,184,28,04,40,226,30,07,20,320,29,08,71,282,35*75,1606999424439
NMEA,$GPGSV,3,2,11,09,32,274,34,11,00,000,34,21,35,167,23,16,34,045,*74,1606999424440
NMEA,$GPGSV,3,3,11,26,16,074,,27,54,019,,31,06,133,*40,1606999424440
NMEA,$GLGSV,2,1,07,66,05,295,26,86,55,185,31,76,14,324,31,65,08,237,31*62,1606999424440
NMEA,$GLGSV,2,2,07,74,30,088,,84,08,025,,85,64,045,*5F,1606999424440
NMEA,$GAGSV,1,1,0,*74,1606999424440
NMEA,$PQGSV,1,1,03,193,14,165,,194,63,054,,195,71,081,,0,5*6F,1606999424440
NMEA,$PQGSV,1,1,0,*73,1606999424440
NMEA,$GNGSA,A,3,01,04,07,08,09,27,,,,,,,1.3,1.1,0.8,1*3D,1606999424441
NMEA,$GNGSA,A,3,65,66,76,86,,,,,,,,,1.3,1.1,0.8,2*34,1606999424441
NMEA,$GNVTG,,T,,M,0.0,N,0.0,K,A*3D,1606999424441
NMEA,$GNRMC,124345.00,A,2255.526657,N,12017.678692,E,0.0,,031220,2.8,W,A*1E,1606999424441
NMEA,$GNGGA,124345.00,2255.526657,N,12017.678692,E,1,10,1.1,30.9,M,17.5,M,,*4B,1606999424441
Fix,gps,22.925444,120.294644,48.394165,0.000000,9.648001,1606999426000
NMEA,$GPGSV,3,1,11,01,13,184,29,04,40,226,29,07,20,320,29,08,71,282,34*7D,1606999425449
NMEA,$GPGSV,3,2,11,09,32,274,35,11,00,000,34,21,35,167,22,27,54,019,21*7A,1606999425450
Raw,28929681,28936583000000,,,-1291005707180886016,0.0,4193.492233753204,-0.8389796431441933,7.3034410503483755,5704,2,0.0,207,56625684248767,31,23.8,119.72022247314453,0.8574999570846558,0,0.0,0.0,,,,,0,,3,,
Raw,28929684,28936583000000,,,-1291005707180886016,0.0,4193.492233753204,-0.8389796431441933,7.3034410503483755,5704,22,0.0,207,56625697388810,16,29.4,-494.9232177734375,0.25519999861717224,0,0.0,0.0,,,,,0,,3,,
Raw,28929686,28936583000000,,,-1291005707180886016,0.0,4193.492233753204,-0.8389796431441933,7.3034410503483755,5704,12,0.0,207,56625686978569,14,30.9,-518.3572998046875,0.23579999804496765,0,0.0,0.0,,,,,0,,3,,
Raw,28929689,28936583000000,,,-1291005707180886016,0.0,4193.492233753204,-0.8389796431441933,7.3034410503483755,5704,1,0.0,207,56625684604352,10,34.0,496.3684387207031,0.22310000658035278,0,0.0,0.0,,,,,0,,3,,
Raw,28929692,28936583000000,,,-1291005707180886016,0.0,4193.492233753204,-0.8389796431441933,7.3034410503483755,5704,1,0.0,15,391443683917805,17,28.8,-693.7791137695312,0.04529999941587448,0,0.0,0.0,,,,,0,,1,,
Raw,28929694,28936583000000,,,-1291005707180886016,0.0,4193.492233753204,-0.8389796431441933,7.3034410503483755,5704,4,0.0,15,391443690308267,16,29.0,399.0465087890625,0.04470000043511391,0,0.0,0.0,,,,,0,,1,,
Raw,28929697,28936583000000,,,-1291005707180886016,0.0,4193.492233753204,-0.8389796431441933,7.3034410503483755,5704,7,0.0,15,391443684158423,17,28.6,-628.7556762695312,0.046799998730421066,0,0.0,0.0,,,,,0,,1,,
Raw,28929699,28936583000000,,,-1291005707180886016,0.0,4193.492233753204,-0.8389796431441933,7.3034410503483755,5704,8,0.0,15,391443696149629,10,34.2,9.425332069396973,0.041099999099969864,0,0.0,0.0,,,,,0,,1,,
Raw,28929700,28936583000000,,,-1291005707180886016,0.0,4193.492233753204,-0.8389796431441933,7.3034410503483755,5704,9,0.0,15,391443688449143,10,34.6,53.056217193603516,0.029100000858306885,0,0.0,0.0,,,,,0,,1,,
Raw,28929701,28936583000000,,,-1291005707180886016,0.0,4193.492233753204,-0.8389796431441933,7.3034410503483755,5704,21,0.0,15,391443691296289,40,21.6,-501.2810974121094,0.7879999876022339,0,0.0,0.0,,,,,0,,1,,
Raw,28929701,28936583000000,,,-1291005707180886016,0.0,4193.492233753204,-0.8389796431441933,7.3034410503483755,5704,27,0.0,15,391443694001390,46,20.8,422.3568115234375,0.8524999618530273,0,0.0,0.0,,,,,0,,1,,
NMEA,$GPGSV,3,3,11,16,34,045,,26,16,074,,31,06,133,*4D,1606999425451
NMEA,$GLGSV,2,1,07,66,05,295,24,86,55,185,29,76,14,324,31,65,08,237,34*6C,1606999425452
NMEA,$GLGSV,2,2,07,74,30,088,,84,08,025,,85,64,045,*5F,1606999425458
NMEA,$GAGSV,1,1,0,*74,1606999425459
NMEA,$PQGSV,1,1,03,193,14,165,,194,63,054,,195,71,081,,0,5*6F,1606999425460
NMEA,$PQGSV,1,1,0,*73,1606999425462
NMEA,$GNGSA,A,3,01,04,07,08,09,21,27,,,,,,1.3,1.1,0.8,1*3E,1606999425465
NMEA,$GNGSA,A,3,65,66,76,86,,,,,,,,,1.3,1.1,0.8,2*34,1606999425466
NMEA,$GNVTG,,T,,M,0.0,N,0.0,K,A*3D,1606999425466
NMEA,$GNRMC,124346.00,A,2255.526653,N,12017.678663,E,0.0,,031220,2.8,W,A*17,1606999425468
NMEA,$GNGGA,124346.00,2255.526653,N,12017.678663,E,1,11,1.1,30.9,M,17.5,M,,*43,1606999425469
Raw,28930539,28937597000000,,,-1291005707180777984,0.0,4190.297797322273,4.674209652410003,8.2772734315009,5705,2,0.0,207,56626698140195,27,24.7,118.95187377929688,0.8285000324249268,0,0.0,0.0,,,,,0,,3,,
Raw,28930540,28937597000000,,,-1291005707180777984,0.0,4190.297797322273,4.674209652410003,8.2772734315009,5705,22,0.0,207,56626711282349,14,30.3,-495.8548889160156,0.24330000579357147,0,0.0,0.0,,,,,0,,3,,
Raw,28930541,28937597000000,,,-1291005707180777984,0.0,4190.297797322273,4.674209652410003,8.2772734315009,5705,12,0.0,207,56626700872261,14,30.4,-519.3018798828125,0.25679999589920044,0,0.0,0.0,,,,,0,,3,,
Raw,28930541,28937597000000,,,-1291005707180777984,0.0,4190.297797322273,4.674209652410003,8.2772734315009,5705,1,0.0,207,56626698494617,11,33.3,494.93682861328125,0.2460000067949295,0,0.0,0.0,,,,,0,,3,,
Raw,28930542,28937597000000,,,-1291005707180777984,0.0,4190.297797322273,4.674209652410003,8.2772734315009,5705,1,0.0,15,391444697812019,17,28.5,-695.0125732421875,0.06629999727010727,0,0.0,0.0,,,,,0,,1,,
Raw,28930542,28937597000000,,,-1291005707180777984,0.0,4190.297797322273,4.674209652410003,8.2772734315009,5705,4,0.0,15,391444704198850,17,28.8,398.30755615234375,0.046799998730421066,0,0.0,0.0,,,,,0,,1,,
Raw,28930542,28937597000000,,,-1291005707180777984,0.0,4190.297797322273,4.674209652410003,8.2772734315009,5705,7,0.0,15,391444698052486,14,30.2,-629.7049560546875,0.05380000174045563,0,0.0,0.0,,,,,0,,1,,
Raw,28930543,28937597000000,,,-1291005707180777984,0.0,4190.297797322273,4.674209652410003,8.2772734315009,5705,8,0.0,15,391444710041527,11,33.8,8.740683555603027,0.03400000184774399,0,0.0,0.0,,,,,0,,1,,
Raw,28930543,28937597000000,,,-1291005707180777984,0.0,4190.297797322273,4.674209652410003,8.2772734315009,5705,9,0.0,15,391444702340885,9,35.0,52.295021057128906,0.04800000041723251,0,0.0,0.0,,,,,0,,1,,
Fix,gps,22.925444,120.294644,48.399231,0.000000,9.648001,1606999427000
NMEA,$GPGSV,3,1,09,01,13,184,29,04,40,226,29,07,20,320,30,08,71,282,34*7C,1606999426445
NMEA,$GPGSV,3,2,09,09,32,274,35,11,00,000,34,16,34,045,,26,16,074,*78,1606999426447
NMEA,$GPGSV,3,3,09,31,06,133,*45,1606999426450
NMEA,$GLGSV,2,1,07,66,05,295,25,86,55,185,30,76,14,324,30,65,08,237,33*63,1606999426451
NMEA,$GLGSV,2,2,07,74,30,088,,84,08,025,,85,64,045,*5F,1606999426454
NMEA,$GAGSV,1,1,0,*74,1606999426456
NMEA,$PQGSV,1,1,03,193,14,165,,194,63,054,,195,71,081,,0,5*6F,1606999426458
NMEA,$PQGSV,1,1,0,*73,1606999426459
NMEA,$GNGSA,A,3,01,04,07,08,09,,,,,,,,1.3,1.1,0.8,1*38,1606999426462
NMEA,$GNGSA,A,3,65,66,76,86,,,,,,,,,1.3,1.1,0.8,2*34,1606999426463
NMEA,$GNVTG,,T,,M,0.0,N,0.0,K,A*3D,1606999426463
NMEA,$GNRMC,124347.00,A,2255.526651,N,12017.678647,E,0.0,,031220,2.8,W,A*12,1606999426464
NMEA,$GNGGA,124347.00,2255.526651,N,12017.678647,E,1,09,1.1,30.9,M,17.5,M,,*4F,1606999426465
Raw,28931582,28938490000000,,,-1291005707180427264,0.0,4198.618233203888,0.27002433310097984,5.085676154933995,5706,2,0.0,207,56627590788807,21,26.7,116.5589828491211,0.4657000005245209,0,0.0,0.0,,,,,0,,3,,
Raw,28931585,28938490000000,,,-1291005707180427264,0.0,4198.618233203888,0.27002433310097984,5.085676154933995,5706,22,0.0,207,56627603932748,14,30.1,-498.020751953125,0.2680000066757202,0,0.0,0.0,,,,,0,,3,,
Raw,28931588,28938490000000,,,-1291005707180427264,0.0,4198.618233203888,0.27002433310097984,5.085676154933995,5706,12,0.0,207,56627593522710,13,31.4,-521.5752563476562,0.27459999918937683,0,0.0,0.0,,,,,0,,3,,
Raw,28931590,28938490000000,,,-1291005707180427264,0.0,4198.618233203888,0.27002433310097984,5.085676154933995,5706,1,0.0,207,56627591142046,10,34.7,492.6922607421875,0.2551000118255615,0,0.0,0.0,,,,,0,,3,,
Raw,28931593,28938490000000,,,-1291005707180427264,0.0,4198.618233203888,0.27002433310097984,5.085676154933995,5706,1,0.0,15,391445590463146,17,28.0,-697.1226196289062,0.11240000277757645,0,0.0,0.0,,,,,0,,1,,
Raw,28931595,28938490000000,,,-1291005707180427264,0.0,4198.618233203888,0.27002433310097984,5.085676154933995,5706,4,0.0,15,391445596846650,17,28.5,396.09112548828125,0.12139999866485596,0,0.0,0.0,,,,,0,,1,,
Raw,28931597,28938490000000,,,-1291005707180427264,0.0,4198.618233203888,0.27002433310097984,5.085676154933995,5706,7,0.0,15,391445590703326,14,30.6,-631.8148193359375,0.07850000262260437,0,0.0,0.0,,,,,0,,1,,
Raw,28931600,28938490000000,,,-1291005707180427264,0.0,4198.618233203888,0.27002433310097984,5.085676154933995,5706,8,0.0,15,391445602690458,11,33.9,6.4773736000061035,0.04620000347495079,0,0.0,0.0,,,,,0,,1,,
Raw,28931601,28938490000000,,,-1291005707180427264,0.0,4198.618233203888,0.27002433310097984,5.085676154933995,5706,9,0.0,15,391445594989700,9,35.0,50.160518646240234,0.05550000071525574,0,0.0,0.0,,,,,0,,1,,
Fix,gps,22.925444,120.294644,48.404114,0.000000,9.648001,1606999428000
NMEA,$GPGSV,3,1,11,01,13,184,28,04,40,226,29,07,20,320,31,08,71,282,34*75,1606999427446
NMEA,$GPGSV,3,2,11,09,32,274,35,11,00,000,34,16,34,045,,21,35,167,*74,1606999427447
NMEA,$GPGSV,3,3,11,26,16,074,,27,54,019,,31,06,133,*40,1606999427448
NMEA,$GLGSV,2,1,07,66,05,295,27,86,55,185,30,76,14,324,31,65,08,237,35*66,1606999427448
NMEA,$GLGSV,2,2,07,74,30,088,,84,08,025,,85,64,045,*5F,1606999427449
NMEA,$GAGSV,1,1,0,*74,1606999427450
NMEA,$PQGSV,1,1,03,193,14,165,,194,63,054,,195,71,081,,0,5*6F,1606999427452
NMEA,$PQGSV,1,1,0,*73,1606999427453
NMEA,$GNGSA,A,3,01,04,07,08,09,21,27,,,,,,1.3,1.1,0.8,1*3E,1606999427457
NMEA,$GNGSA,A,3,65,66,76,86,,,,,,,,,1.3,1.1,0.8,2*34,1606999427457
NMEA,$GNVTG,,T,,M,0.0,N,0.0,K,A*3D,1606999427458
NMEA,$GNRMC,124348.00,A,2255.526650,N,12017.678639,E,0.0,,031220,2.8,W,A*15,1606999427462
NMEA,$GNGGA,124348.00,2255.526650,N,12017.678639,E,1,11,1.1,30.9,M,17.5,M,,*41,1606999427463
Raw,28932581,28939703000000,,,-1291005707179884288,0.0,4269.684199243784,-6.34631469280735,10.342722956949778,5707,2,0.0,207,56628803245604,17,28.1,119.70118713378906,0.3018999993801117,0,0.0,0.0,,,,,0,,3,,
Raw,28932585,28939703000000,,,-1291005707179884288,0.0,4269.684199243784,-6.34631469280735,10.342722956949778,5707,22,0.0,207,56628816392067,13,31.2,-494.9533386230469,0.2791000008583069,0,0.0,0.0,,,,,0,,3,,
Raw,28932588,28939703000000,,,-1291005707179884288,0.0,4269.684199243784,-6.34631469280735,10.342722956949778,5707,12,0.0,207,56628805982181,12,32.1,-518.658935546875,0.25600001215934753,0,0.0,0.0,,,,,0,,3,,
Raw,28932591,28939703000000,,,-1291005707179884288,0.0,4269.684199243784,-6.34631469280735,10.342722956949778,5707,1,0.0,207,56628803597387,10,34.0,495.6510925292969,0.24310000240802765,0,0.0,0.0,,,,,0,,3,,
Raw,28932593,28939703000000,,,-1291005707179884288,0.0,4269.684199243784,-6.34631469280735,10.342722956949778,5707,1,0.0,15,391446802923192,17,28.1,-694.381591796875,0.10040000081062317,0,0.0,0.0,,,,,0,,1,,
Raw,28932595,28939703000000,,,-1291005707179884288,0.0,4269.684199243784,-6.34631469280735,10.342722956949778,5707,4,0.0,15,391446809302390,17,28.7,398.9894714355469,0.11089999973773956,0,0.0,0.0,,,,,0,,1,,
Raw,28932598,28939703000000,,,-1291005707179884288,0.0,4269.684199243784,-6.34631469280735,10.342722956949778,5707,7,0.0,15,391446803163177,14,30.9,-628.96923828125,0.06799999624490738,0,0.0,0.0,,,,,0,,1,,
Raw,28932600,28939703000000,,,-1291005707179884288,0.0,4269.684199243784,-6.34631469280735,10.342722956949778,5707,8,0.0,15,391446815147720,10,34.2,9.647417068481445,0.06109999865293503,0,0.0,0.0,,,,,0,,1,,
Raw,28932602,28939703000000,,,-1291005707179884288,0.0,4269.684199243784,-6.34631469280735,10.342722956949778,5707,9,0.0,15,391446807446798,10,34.6,53.2038688659668,0.04910000041127205,0,0.0,0.0,,,,,0,,1,,
Fix,gps,22.925444,120.294644,48.409851,0.000000,9.648001,1606999429000
NMEA,$GPGSV,3,1,11,01,13,184,28,04,40,226,29,07,20,320,31,08,71,282,34*75,1606999428446
NMEA,$GPGSV,3,2,11,09,32,274,35,11,00,000,34,16,34,045,,21,35,167,*74,1606999428447
NMEA,$GPGSV,3,3,11,26,16,074,,27,54,019,,31,06,133,*40,1606999428453
NMEA,$GLGSV,2,1,07,66,05,295,28,86,55,185,31,76,14,324,32,65,08,237,34*6A,1606999428453
NMEA,$GLGSV,2,2,07,74,30,088,,84,08,025,,85,64,045,*5F,1606999428455
NMEA,$GAGSV,1,1,0,*74,1606999428456
NMEA,$PQGSV,1,1,03,193,14,165,,194,63,054,,195,71,081,,0,5*6F,1606999428457
NMEA,$PQGSV,1,1,0,*73,1606999428460
NMEA,$GNGSA,A,3,01,04,07,08,09,21,27,,,,,,1.3,1.1,0.8,1*3E,1606999428465
NMEA,$GNGSA,A,3,65,66,76,86,,,,,,,,,1.3,1.1,0.8,2*34,1606999428465
NMEA,$GNVTG,,T,,M,0.0,N,0.0,K,A*3D,1606999428466
NMEA,$GNRMC,124349.00,A,2255.526649,N,12017.678634,E,0.0,,031220,2.8,W,A*11,1606999428466
NMEA,$GNGGA,124349.00,2255.526649,N,12017.678634,E,1,11,1.1,30.9,M,17.5,M,,*45,1606999428467
Raw,28933535,28940693000000,,,-1291005707179186432,0.0,4238.268360495567,2.709199263537727,7.274123098265075,5708,2,0.0,207,56629792547292,19,27.8,118.96311950683594,0.3817000091075897,0,0.0,0.0,,,,,0,,3,,
Raw,28933536,28940693000000,,,-1291005707179186432,0.0,4238.268360495567,2.709199263537727,7.274123098265075,5708,22,0.0,207,56629805695868,13,31.0,-495.5483703613281,0.26260000467300415,0,0.0,0.0,,,,,0,,3,,
Raw,28933536,28940693000000,,,-1291005707179186432,0.0,4238.268360495567,2.709199263537727,7.274123098265075,5708,12,0.0,207,56629795285950,13,31.5,-519.5299072265625,0.2775999903678894,0,0.0,0.0,,,,,0,,3,,
Raw,28933537,28940693000000,,,-1291005707179186432,0.0,4238.268360495567,2.709199263537727,7.274123098265075,5708,1,0.0,207,56629792897863,11,33.7,494.833984375,0.2612000107765198,0,0.0,0.0,,,,,0,,3,,
Raw,28933537,28940693000000,,,-1291005707179186432,0.0,4238.268360495567,2.709199263537727,7.274123098265075,5708,1,0.0,15,391447792227652,16,29.4,-695.220947265625,0.09239999949932098,0,0.0,0.0,,,,,0,,1,,
Raw,28933537,28940693000000,,,-1291005707179186432,0.0,4238.268360495567,2.709199263537727,7.274123098265075,5708,4,0.0,15,391447798603130,17,28.9,398.407958984375,0.12439999729394913,0,0.0,0.0,,,,,0,,1,,
Raw,28933538,28940693000000,,,-1291005707179186432,0.0,4238.268360495567,2.709199263537727,7.274123098265075,5708,7,0.0,15,391447792467365,16,29.7,-629.70263671875,0.09239999949932098,0,0.0,0.0,,,,,0,,1,,
Raw,28933539,28940693000000,,,-1291005707179186432,0.0,4238.268360495567,2.709199263537727,7.274123098265075,5708,8,0.0,15,391447804449791,10,34.5,8.928327560424805,0.044599998742341995,0,0.0,0.0,,,,,0,,1,,
Raw,28933540,28940693000000,,,-1291005707179186432,0.0,4238.268360495567,2.709199263537727,7.274123098265075,5708,9,0.0,15,391447796748710,9,35.1,52.53316116333008,0.05849999934434891,0,0.0,0.0,,,,,0,,1,,
Fix,gps,22.925444,120.294644,48.410400,0.000000,9.648001,1606999430000
NMEA,$GPGSV,3,1,11,01,13,184,29,04,40,226,29,07,20,320,30,08,71,282,35*74,1606999429444
NMEA,$GPGSV,3,2,11,09,32,274,35,11,00,000,34,16,34,045,,21,35,167,*74,1606999429447
NMEA,$GPGSV,3,3,11,26,16,074,,27,54,019,,31,06,133,*40,1606999429448
NMEA,$GLGSV,2,1,07,66,05,295,28,86,55,185,31,76,14,324,32,65,08,237,34*6A,1606999429448
NMEA,$GLGSV,2,2,07,74,30,088,,84,08,025,,85,64,045,*5F,1606999429448
NMEA,$GAGSV,1,1,0,*74,1606999429449
NMEA,$PQGSV,1,1,03,193,14,165,,194,63,054,,195,71,081,,0,5*6F,1606999429449
NMEA,$PQGSV,1,1,0,*73,1606999429449
NMEA,$GNGSA,A,3,01,04,07,08,09,21,27,,,,,,1.3,1.1,0.8,1*3E,1606999429449
NMEA,$GNGSA,A,3,65,66,76,86,,,,,,,,,1.3,1.1,0.8,2*34,1606999429450
NMEA,$GNVTG,,T,,M,0.0,N,0.0,K,A*3D,1606999429450
NMEA,$GNRMC,124350.00,A,2255.526648,N,12017.678632,E,0.0,,031220,2.8,W,A*1E,1606999429450
NMEA,$GNGGA,124350.00,2255.526648,N,12017.678632,E,1,11,1.1,30.9,M,17.5,M,,*4A,1606999429450
Fix,gps,22.925444,120.294644,48.410828,0.000000,10.720000,1606999431000
NMEA,$GPGSV,3,1,11,01,13,184,28,04,40,226,29,07,20,320,31,08,71,282,34*75,1606999430449
NMEA,$GPGSV,3,2,11,09,32,274,36,11,00,000,34,16,34,045,,21,35,167,*77,1606999430449
NMEA,$GPGSV,3,3,11,26,16,074,,27,54,019,,31,06,133,*40,1606999430450
NMEA,$GLGSV,2,1,07,66,05,295,29,86,55,185,30,76,14,324,31,65,08,237,34*69,1606999430458
NMEA,$GLGSV,2,2,07,74,30,088,,84,08,025,,85,64,045,*5F,1606999430459
NMEA,$GAGSV,1,1,0,*74,1606999430460
NMEA,$PQGSV,1,1,03,193,14,165,,194,63,054,,195,71,081,,0,5*6F,1606999430460
Raw,28934836,28941684000000,,,-1291005707178691072,0.0,4248.712211847305,-0.11348588371927429,10.057789681746815,5709,2,0.0,207,56630783051653,17,28.7,117.15709686279297,0.3018999993801117,0,0.0,0.0,,,,,0,,3,,
Raw,28934839,28941684000000,,,-1291005707178691072,0.0,4248.712211847305,-0.11348588371927429,10.057789681746815,5709,22,0.0,207,56630796202253,16,29.9,-497.248046875,0.29839998483657837,0,0.0,0.0,,,,,0,,3,,
Raw,28934842,28941684000000,,,-1291005707178691072,0.0,4248.712211847305,-0.11348588371927429,10.057789681746815,5709,12,0.0,207,56630785792377,13,31.0,-521.3956909179688,0.26260000467300415,0,0.0,0.0,,,,,0,,3,,
Raw,28934844,28941684000000,,,-1291005707178691072,0.0,4248.712211847305,-0.11348588371927429,10.057789681746815,5709,1,0.0,207,56630783400875,11,33.7,492.9681396484375,0.24770000576972961,0,0.0,0.0,,,,,0,,3,,
Raw,28934846,28941684000000,,,-1291005707178691072,0.0,4248.712211847305,-0.11348588371927429,10.057789681746815,5709,1,0.0,15,391448782734582,17,28.2,-696.9790649414062,0.10040000081062317,0,0.0,0.0,,,,,0,,1,,
Raw,28934849,28941684000000,,,-1291005707178691072,0.0,4248.712211847305,-0.11348588371927429,10.057789681746815,5709,4,0.0,15,391448789106482,16,29.3,396.6555480957031,0.08789999783039093,0,0.0,0.0,,,,,0,,1,,
Raw,28934852,28941684000000,,,-1291005707178691072,0.0,4248.712211847305,-0.11348588371927429,10.057789681746815,5709,7,0.0,15,391448782974096,14,30.5,-631.6829833984375,0.06650000065565109,0,0.0,0.0,,,,,0,,1,,
Raw,28934854,28941684000000,,,-1291005707178691072,0.0,4248.712211847305,-0.11348588371927429,10.057789681746815,5709,8,0.0,15,391448794954421,10,34.4,7.1729254722595215,0.05959999933838844,0,0.0,0.0,,,,,0,,1,,
Raw,28934857,28941684000000,,,-1291005707178691072,0.0,4248.712211847305,-0.11348588371927429,10.057789681746815,5709,9,0.0,15,391448787253207,9,35.5,50.75149917602539,0.04500000178813934,0,0.0,0.0,,,,,0,,1,,
NMEA,$PQGSV,1,1,0,*73,1606999430461
NMEA,$GNGSA,A,3,01,04,07,08,09,21,27,,,,,,1.3,1.1,0.8,1*3E,1606999430465
NMEA,$GNGSA,A,3,65,66,76,86,,,,,,,,,1.3,1.1,0.8,2*34,1606999430466
NMEA,$GNVTG,,T,,M,0.0,N,0.0,K,A*3D,1606999430467
NMEA,$GNRMC,124351.00,A,2255.526648,N,12017.678631,E,0.0,,031220,2.8,W,A*1C,1606999430468
NMEA,$GNGGA,124351.00,2255.526648,N,12017.678631,E,1,11,1.1,30.9,M,17.5,M,,*48,1606999430468
Raw,28935582,28942700000000,,,-1291005707178078464,0.0,4262.200091034174,-6.324401581408915,13.642843577672693,5710,2,0.0,207,56631798438346,16,29.3,119.50670623779297,0.30139997601509094,0,0.0,0.0,,,,,0,,3,,
Raw,28935584,28942700000000,,,-1291005707178078464,0.0,4262.200091034174,-6.324401581408915,13.642843577672693,5710,22,0.0,207,56631811590985,14,30.4,-494.81805419921875,0.2800000011920929,0,0.0,0.0,,,,,0,,3,,
Raw,28935586,28942700000000,,,-1291005707178078464,0.0,4262.200091034174,-6.324401581408915,13.642843577672693,5710,12,0.0,207,56631801181315,16,29.5,-519.1859741210938,0.305899977684021,0,0.0,0.0,,,,,0,,3,,
Raw,28935589,28942700000000,,,-1291005707178078464,0.0,4262.200091034174,-6.324401581408915,13.642843577672693,5710,1,0.0,207,56631798786399,10,34.0,495.20721435546875,0.2655999958515167,0,0.0,0.0,,,,,0,,3,,
Raw,28935591,28942700000000,,,-1291005707178078464,0.0,4262.200091034174,-6.324401581408915,13.642843577672693,5710,1,0.0,15,391449798124182,17,28.7,-694.8997192382812,0.12439999729394913,0,0.0,0.0,,,,,0,,1,,
Raw,28935594,28942700000000,,,-1291005707178078464,0.0,4262.200091034174,-6.324401581408915,13.642843577672693,5710,4,0.0,15,391449804492282,17,28.8,398.9606628417969,0.10339999943971634,0,0.0,0.0,,,,,0,,1,,
Raw,28935596,28942700000000,,,-1291005707178078464,0.0,4262.200091034174,-6.324401581408915,13.642843577672693,5710,7,0.0,15,391449798363405,16,29.6,-629.3433837890625,0.1013999953866005,0,0.0,0.0,,,,,0,,1,,
Raw,28935598,28942700000000,,,-1291005707178078464,0.0,4262.200091034174,-6.324401581408915,13.642843577672693,5710,8,0.0,15,391449810341582,10,34.1,9.54843807220459,0.053599998354911804,0,0.0,0.0,,,,,0,,1,,
Raw,28935600,28942700000000,,,-1291005707178078464,0.0,4262.200091034174,-6.324401581408915,13.642843577672693,5710,9,0.0,15,391449802640258,9,35.5,53.180641174316406,0.03750000149011612,0,0.0,0.0,,,,,0,,1,,
Fix,gps,22.925444,120.294644,48.417236,0.000000,10.720000,1606999432000
NMEA,$GPGSV,3,1,11,01,13,184,29,04,40,226,29,07,20,320,30,08,71,282,34*75,1606999431445
NMEA,$GPGSV,3,2,11,09,32,274,36,11,00,000,34,16,34,045,,21,35,167,*77,1606999431446
NMEA,$GPGSV,3,3,11,26,16,074,,27,54,019,,31,06,133,*40,1606999431447
NMEA,$GLGSV,2,1,07,66,05,295,29,86,55,185,30,76,14,324,30,65,08,237,34*68,1606999431448
NMEA,$GLGSV,2,2,07,74,30,088,,84,08,025,,85,64,045,*5F,1606999431448
NMEA,$GAGSV,1,1,0,*74,1606999431451
NMEA,$PQGSV,1,1,03,193,14,165,,194,63,054,,195,71,081,,0,5*6F,1606999431452
