# 
# Header Description:
# 
# Version: v2.0.0.1 Platform: 8.0.0 Manufacturer: Sony Model: G8142
# 
# Raw,ElapsedRealtimeMillis,TimeNanos,LeapSecond,TimeUncertaintyNanos,FullBiasNanos,BiasNanos,BiasUncertaintyNanos,DriftNanosPerSecond,DriftUncertaintyNanosPerSecond,HardwareClockDiscontinuityCount,Svid,TimeOffsetNanos,State,ReceivedSvTimeNanos,ReceivedSvTimeUncertaintyNanos,Cn0DbHz,PseudorangeRateMetersPerSecond,PseudorangeRateUncertaintyMetersPerSecond,AccumulatedDeltaRangeState,AccumulatedDeltaRangeMeters,AccumulatedDeltaRangeUncertaintyMeters,CarrierFrequencyHz,CarrierCycles,CarrierPhase,CarrierPhaseUncertainty,MultipathIndicator,SnrInDb,ConstellationType,AgcDb,CarrierFrequencyHz
# 
# Fix,Provider,Latitude,Longitude,Altitude,Speed,Accuracy,(UTC)TimeInMs
# 
# Nav,Svid,Type,Status,MessageId,Sub-messageId,Data(Bytes)
# 
Fix,gps,22.925441,120.294640,49.062500,0.000000,6.432000,1606999805000
NMEA,$GPGSV,3,1,09,01,16,184,23,07,23,320,34,08,71,293,35,09,32,271,37*70,1606999804440
NMEA,$GPGSV,3,2,09,21,38,165,32,16,33,047,,26,14,077,,27,52,021,*7E,1606999804440
NMEA,$GPGSV,3,3,09,31,03,135,*46,1606999804440
NMEA,$GLGSV,2,1,07,66,05,292,26,86,59,187,21,76,16,326,35,65,06,234,26*65,1606999804441
NMEA,$GLGSV,2,2,07,74,29,092,,84,05,025,,85,61,039,*5F,1606999804441
NMEA,$GAGSV,1,1,0,*74,1606999804441
NMEA,$PQGSV,1,1,03,193,14,164,,194,63,056,,195,71,078,,0,5*6A,1606999804441
NMEA,$PQGSV,1,1,0,*73,1606999804442
NMEA,$GNGSA,A,3,01,07,08,09,21,,,,,,,,1.5,1.3,0.8,1*3B,1606999804442
NMEA,$GNGSA,A,3,65,66,76,86,,,,,,,,,1.5,1.3,0.8,2*30,1606999804443
NMEA,$GNVTG,,T,,M,0.0,N,0.0,K,A*3D,1606999804443
NMEA,$GNRMC,125005.00,A,2255.526438,N,12017.678429,E,0.0,,031220,2.8,W,A*11,1606999804443
NMEA,$GNGGA,125005.00,2255.526438,N,12017.678429,E,1,09,1.3,31.6,M,17.5,M,,*40,1606999804443
Raw,29309550,29316748000000,,,-1291005707027236096,0.0,4258.646164089441,1.2154837024710565,10.863982068556536,6019,2,0.0,207,57005695422344,27,24.0,159.8049774169922,0.8240000009536743,0,0.0,0.0,,,,,0,,3,,
Raw,29309550,29316748000000,,,-1291005707027236096,0.0,4258.646164089441,1.2154837024710565,10.863982068556536,6019,22,0.0,207,57005709333702,24,25.6,-442.2114562988281,0.3929000198841095,0,0.0,0.0,,,,,0,,3,,
Raw,29309551,29316748000000,,,-1291005707027236096,0.0,4258.646164089441,1.2154837024710565,10.863982068556536,6019,12,0.0,207,57005698993667,10,34.5,-529.8027954101562,0.24410000443458557,0,0.0,0.0,,,,,0,,3,,
Raw,29309551,29316748000000,,,-1291005707027236096,0.0,4258.646164089441,1.2154837024710565,10.863982068556536,6019,1,0.0,207,57005695327349,24,25.3,494.02197265625,0.4018999934196472,0,0.0,0.0,,,,,0,,3,,
Raw,29309551,29316748000000,,,-1291005707027236096,0.0,4258.646164089441,1.2154837024710565,10.863982068556536,6019,1,0.0,15,391823696151704,46,20.5,-698.0067138671875,0.8554999828338623,0,0.0,0.0,,,,,0,,1,,
Raw,29309551,29316748000000,,,-1291005707027236096,0.0,4258.646164089441,1.2154837024710565,10.863982068556536,6019,4,0.0,15,391823701137481,17,28.0,423.1626281738281,0.0723000019788742,0,0.0,0.0,,,,,0,,1,,
Raw,29309551,29316748000000,,,-1291005707027236096,0.0,4258.646164089441,1.2154837024710565,10.863982068556536,6019,7,0.0,15,391823696304330,11,33.5,-625.4345703125,0.0430000014603138,0,0.0,0.0,,,,,0,,1,,
Raw,29309552,29316748000000,,,-1291005707027236096,0.0,4258.646164089441,1.2154837024710565,10.863982068556536,6019,8,0.0,15,391823707465494,8,36.6,45.112911224365234,0.024500001221895218,0,0.0,0.0,,,,,0,,1,,
Raw,29309552,29316748000000,,,-1291005707027236096,0.0,4258.646164089441,1.2154837024710565,10.863982068556536,6019,9,0.0,15,391823699708108,6,39.1,91.38996887207031,0.03880000114440918,0,0.0,0.0,,,,,0,,1,,
Raw,29309552,29316748000000,,,-1291005707027236096,0.0,4258.646164089441,1.2154837024710565,10.863982068556536,6019,21,0.0,15,391823703266711,13,31.8,-476.22808837890625,0.028300000354647636,0,0.0,0.0,,,,,0,,1,,
Fix,gps,22.925441,120.294640,49.067261,0.000000,6.432000,1606999806000
NMEA,$GPGSV,3,1,10,01,16,184,21,04,37,223,28,07,23,320,34,08,71,293,37*79,1606999805439
NMEA,$GPGSV,3,2,10,09,32,271,39,21,38,165,32,16,33,047,,26,14,077,*71,1606999805440
NMEA,$GPGSV,3,3,10,27,52,021,,31,03,135,*7F,1606999805441
NMEA,$GLGSV,2,1,07,66,05,292,24,86,59,187,26,76,16,326,35,65,06,234,25*63,1606999805441
NMEA,$GLGSV,2,2,07,74,29,092,,84,05,025,,85,61,039,*5F,1606999805441
NMEA,$GAGSV,1,1,0,*74,1606999805441
NMEA,$PQGSV,1,1,03,193,14,164,,194,63,056,,195,71,078,,0,5*6A,1606999805442
NMEA,$PQGSV,1,1,0,*73,1606999805442
NMEA,$GNGSA,A,3,01,04,07,08,09,21,,,,,,,1.5,1.3,0.8,1*3F,1606999805443
NMEA,$GNGSA,A,3,65,66,76,86,,,,,,,,,1.5,1.3,0.8,2*30,1606999805444
NMEA,$GNVTG,,T,,M,0.0,N,0.0,K,A*3D,1606999805444
NMEA,$GNRMC,125006.00,A,2255.526438,N,12017.678427,E,0.0,,031220,2.8,W,A*1C,1606999805444
NMEA,$GNGGA,125006.00,2255.526438,N,12017.678427,E,1,10,1.3,31.6,M,17.5,M,,*45,1606999805444
Raw,29311177,29317738000000,,,-1291005707026449920,0.0,4259.711131453514,1.1367416596953122,9.75220540256319,6020,2,0.0,207,57006684635605,16,29.1,159.62457275390625,0.23570001125335693,0,0.0,0.0,,,,,0,,3,,
Raw,29311177,29317738000000,,,-1291005707026449920,0.0,4259.711131453514,1.1367416596953122,9.75220540256319,6020,22,0.0,207,57006698549070,27,24.7,-441.8265380859375,0.8285000324249268,0,0.0,0.0,,,,,0,,3,,
Raw,29311177,29317738000000,,,-1291005707026449920,0.0,4259.711131453514,1.1367416596953122,9.75220540256319,6020,12,0.0,207,57006688209285,11,33.7,-530.1256103515625,0.23100000619888306,0,0.0,0.0,,,,,0,,3,,
Raw,29311177,29317738000000,,,-1291005707026449920,0.0,4259.711131453514,1.1367416596953122,9.75220540256319,6020,1,0.0,207,57006684539499,35,22.4,493.604736328125,0.9174999594688416,0,0.0,0.0,,,,,0,,3,,
Raw,29311177,29317738000000,,,-1291005707026449920,0.0,4259.711131453514,1.1367416596953122,9.75220540256319,6020,1,0.0,15,391824685367798,35,22.6,-698.0733032226562,0.718999981880188,0,0.0,0.0,,,,,0,,1,,
Raw,29311178,29317738000000,,,-1291005707026449920,0.0,4259.711131453514,1.1367416596953122,9.75220540256319,6020,7,0.0,15,391824685520314,13,31.1,-625.6243286132812,0.031300000846385956,0,0.0,0.0,,,,,0,,1,,
Raw,29311178,29317738000000,,,-1291005707026449920,0.0,4259.711131453514,1.1367416596953122,9.75220540256319,6020,8,0.0,15,391824696679224,8,36.2,44.93638610839844,0.03800000250339508,0,0.0,0.0,,,,,0,,1,,
Raw,29311178,29317738000000,,,-1291005707026449920,0.0,4259.711131453514,1.1367416596953122,9.75220540256319,6020,9,0.0,15,391824688921662,6,38.3,91.2487564086914,0.023200001567602158,0,0.0,0.0,,,,,0,,1,,
Raw,29311178,29317738000000,,,-1291005707026449920,0.0,4259.711131453514,1.1367416596953122,9.75220540256319,6020,21,0.0,15,391824692482159,10,34.1,-476.38818359375,0.035100001841783524,0,0.0,0.0,,,,,0,,1,,
Fix,gps,22.925441,120.294640,49.070068,0.000000,6.432000,1606999807000
NMEA,$GPGSV,3,1,09,01,16,184,23,07,23,320,31,08,71,293,36,09,32,271,38*79,1606999806440
NMEA,$GPGSV,3,2,09,21,38,165,34,16,33,047,,26,14,077,,27,52,021,*78,1606999806440
NMEA,$GPGSV,3,3,09,31,03,135,*46,1606999806440
NMEA,$GLGSV,2,1,07,66,05,292,29,86,59,187,25,76,16,326,34,65,06,234,22*6B,1606999806440
NMEA,$GLGSV,2,2,07,74,29,092,,84,05,025,,85,61,039,*5F,1606999806441
NMEA,$GAGSV,1,1,0,*74,1606999806442
NMEA,$PQGSV,1,1,03,193,14,164,,194,63,056,,195,71,078,,0,5*6A,1606999806443
NMEA,$PQGSV,1,1,0,*73,1606999806443
NMEA,$GNGSA,A,3,01,07,08,09,21,,,,,,,,1.5,1.3,0.8,1*3B,1606999806444
Raw,29311526,29318753000000,,,-1291005707025754880,0.0,4257.661756128073,0.46574562103014766,9.784438051361134,6021,2,0.0,207,57007698940004,19,27.7,159.4458465576172,0.2906000018119812,0,0.0,0.0,,,,,0,,3,,
Raw,29311527,29318753000000,,,-1291005707025754880,0.0,4257.661756128073,0.46574562103014766,9.784438051361134,6021,22,0.0,207,57007712855528,31,23.4,-442.7070007324219,0.8694999814033508,0,0.0,0.0,,,,,0,,3,,
Raw,29311527,29318753000000,,,-1291005707025754880,0.0,4257.661756128073,0.46574562103014766,9.784438051361134,6021,12,0.0,207,57007702516241,13,31.2,-530.3930053710938,0.22680000960826874,0,0.0,0.0,,,,,0,,3,,
Raw,29311527,29318753000000,,,-1291005707025754880,0.0,4257.661756128073,0.46574562103014766,9.784438051361134,6021,1,0.0,207,57007698842902,16,29.3,493.3966369628906,0.2567000091075897,0,0.0,0.0,,,,,0,,3,,
Raw,29311527,29318753000000,,,-1291005707025754880,0.0,4257.661756128073,0.46574562103014766,9.784438051361134,6021,4,0.0,15,391825704653519,16,29.6,422.8320617675781,0.0357000008225441,0,0.0,0.0,,,,,0,,1,,
Raw,29311527,29318753000000,,,-1291005707025754880,0.0,4257.661756128073,0.46574562103014766,9.784438051361134,6021,7,0.0,15,391825699827346,10,34.3,-625.9535522460938,0.04560000076889992,0,0.0,0.0,,,,,0,,1,,
Raw,29311527,29318753000000,,,-1291005707025754880,0.0,4257.661756128073,0.46574562103014766,9.784438051361134,6021,8,0.0,15,391825710984046,7,37.8,44.8087043762207,0.02759999968111515,0,0.0,0.0,,,,,0,,1,,
Raw,29311528,29318753000000,,,-1291005707025754880,0.0,4257.661756128073,0.46574562103014766,9.784438051361134,6021,9,0.0,15,391825703226354,7,37.9,91.08277893066406,0.017100000753998756,0,0.0,0.0,,,,,0,,1,,
Raw,29311528,29318753000000,,,-1291005707025754880,0.0,4257.661756128073,0.46574562103014766,9.784438051361134,6021,21,0.0,15,391825706788701,16,29.0,-476.5584411621094,0.03869999945163727,0,0.0,0.0,,,,,0,,1,,
NMEA,$GNGSA,A,3,65,66,76,86,,,,,,,,,1.5,1.3,0.8,2*30,1606999806445
NMEA,$GNVTG,,T,,M,0.0,N,0.0,K,A*3D,1606999806445
NMEA,$GNRMC,125007.00,A,2255.526438,N,12017.678426,E,0.0,,031220,2.8,W,A*1C,1606999806446
NMEA,$GNGGA,125007.00,2255.526438,N,12017.678426,E,1,09,1.3,31.6,M,17.5,M,,*4D,1606999806448
Fix,gps,22.925441,120.294640,49.063843,0.000000,6.432000,1606999808000
NMEA,$GPGSV,3,1,09,04,37,223,30,07,23,320,34,08,71,293,38,09,32,271,38*78,1606999807449
NMEA,$GPGSV,3,2,09,21,38,165,29,16,33,047,,26,14,077,,27,52,021,*74,1606999807450
NMEA,$GPGSV,3,3,09,31,03,135,*46,1606999807450
NMEA,$GLGSV,2,1,07,66,05,292,28,86,59,187,23,76,16,326,31,65,06,234,29*62,1606999807451
NMEA,$GLGSV,2,2,07,74,29,092,,84,05,025,,85,61,039,*5F,1606999807452
NMEA,$GAGSV,1,1,0,*74,1606999807452
NMEA,$PQGSV,1,1,03,193,14,164,,194,63,056,,195,71,078,,0,5*6A,1606999807454
NMEA,$PQGSV,1,1,0,*73,1606999807455
NMEA,$GNGSA,A,3,04,07,08,09,21,,,,,,,,1.5,1.3,0.8,1*3E,1606999807458
NMEA,$GNGSA,A,3,65,66,76,86,,,,,,,,,1.5,1.3,0.8,2*30,1606999807459
NMEA,$GNVTG,,T,,M,0.0,N,0.0,K,A*3D,1606999807460
NMEA,$GNRMC,125008.00,A,2255.526438,N,12017.678426,E,0.0,,031220,2.8,W,A*13,1606999807460
NMEA,$GNGGA,125008.00,2255.526438,N,12017.678426,E,1,09,1.3,31.6,M,17.5,M,,*42,1606999807461
Raw,29312538,29319746000000,,,-1291005707025079808,0.0,4282.067529857159,-0.638627347491573,11.250220340103652,6022,2,0.0,207,57008691264072,16,29.8,160.3267059326172,0.24620001018047333,0,0.0,0.0,,,,,0,,3,,
Raw,29312538,29319746000000,,,-1291005707025079808,0.0,4282.067529857159,-0.638627347491573,11.250220340103652,6022,22,0.0,207,57008705181769,35,22.1,-441.5923767089844,0.918999969959259,0,0.0,0.0,,,,,0,,3,,
Raw,29312538,29319746000000,,,-1291005707025079808,0.0,4282.067529857159,-0.638627347491573,11.250220340103652,6022,12,0.0,207,57008694842486,14,30.3,-529.5830688476562,0.24780000746250153,0,0.0,0.0,,,,,0,,3,,
Raw,29312538,29319746000000,,,-1291005707025079808,0.0,4282.067529857159,-0.638627347491573,11.250220340103652,6022,1,0.0,207,57008691165875,17,28.3,494.18988037109375,0.2572999894618988,0,0.0,0.0,,,,,0,,3,,
Raw,29312538,29319746000000,,,-1291005707025079808,0.0,4282.067529857159,-0.638627347491573,11.250220340103652,6022,4,0.0,15,391826696976776,17,28.1,423.6502380371094,0.06480000168085098,0,0.0,0.0,,,,,0,,1,,
Raw,29312539,29319746000000,,,-1291005707025079808,0.0,4282.067529857159,-0.638627347491573,11.250220340103652,6022,7,0.0,15,391826692154071,12,32.1,-625.0635375976562,0.039400000125169754,0,0.0,0.0,,,,,0,,1,,
Raw,29312539,29319746000000,,,-1291005707025079808,0.0,4282.067529857159,-0.638627347491573,11.250220340103652,6022,8,0.0,15,391826703308514,7,37.7,45.732276916503906,0.017100000753998756,0,0.0,0.0,,,,,0,,1,,
Raw,29312539,29319746000000,,,-1291005707025079808,0.0,4282.067529857159,-0.638627347491573,11.250220340103652,6022,9,0.0,15,391826695550658,7,37.3,92.05231475830078,0.035100001841783524,0,0.0,0.0,,,,,0,,1,,
Raw,29312539,29319746000000,,,-1291005707025079808,0.0,4282.067529857159,-0.638627347491573,11.250220340103652,6022,21,0.0,15,391826699114947,14,30.0,-475.60650634765625,0.05530000105500221,0,0.0,0.0,,,,,0,,1,,
Fix,gps,22.925441,120.294640,49.062866,0.000000,5.360000,1606999809000
NMEA,$GPGSV,3,1,10,04,37,223,28,07,23,320,32,08,71,293,38,09,32,271,37*70,1606999808438
NMEA,$GPGSV,3,2,10,21,38,165,30,01,16,184,,16,33,047,,26,14,077,*7E,1606999808439
NMEA,$GPGSV,3,3,10,27,52,021,,31,03,135,*7F,1606999808439
NMEA,$GLGSV,2,1,07,66,05,292,30,86,59,187,22,76,16,326,30,65,06,234,28*6A,1606999808439
NMEA,$GLGSV,2,2,07,74,29,092,,84,05,025,,85,61,039,*5F,1606999808439
NMEA,$GAGSV,1,1,0,*74,1606999808440
NMEA,$PQGSV,1,1,03,193,14,164,,194,63,056,,195,71,078,,0,5*6A,1606999808440
NMEA,$PQGSV,1,1,0,*73,1606999808440
NMEA,$GNGSA,A,3,01,04,07,08,09,21,,,,,,,1.5,1.3,0.8,1*3F,1606999808441
NMEA,$GNGSA,A,3,65,66,76,86,,,,,,,,,1.5,1.3,0.8,2*30,1606999808442
NMEA,$GNVTG,,T,,M,0.0,N,0.0,K,A*3D,1606999808442
NMEA,$GNRMC,125009.00,A,2255.526438,N,12017.678427,E,0.0,,031220,2.8,W,A*13,1606999808442
NMEA,$GNGGA,125009.00,2255.526438,N,12017.678427,E,1,10,1.3,31.6,M,17.5,M,,*4A,1606999808442
Raw,29314081,29320758000000,,,-1291005707024455680,0.0,4265.272989869118,2.318591730394364,9.945270459379968,6023,2,0.0,207,57009702639490,21,26.9,158.62600708007812,0.30070000886917114,0,0.0,0.0,,,,,0,,3,,
Raw,29314082,29320758000000,,,-1291005707024455680,0.0,4265.272989869118,2.318591730394364,9.945270459379968,6023,22,0.0,207,57009716559194,31,23.2,-442.9880065917969,0.875499963760376,0,0.0,0.0,,,,,0,,3,,
Raw,29314082,29320758000000,,,-1291005707024455680,0.0,4265.272989869118,2.318591730394364,9.945270459379968,6023,12,0.0,207,57009706220197,10,34.1,-531.3924560546875,0.22609999775886536,0,0.0,0.0,,,,,0,,3,,
Raw,29314083,29320758000000,,,-1291005707024455680,0.0,4265.272989869118,2.318591730394364,9.945270459379968,6023,1,0.0,207,57009702540343,27,24.0,492.9967346191406,0.8044999837875366,0,0.0,0.0,,,,,0,,3,,
Raw,29314084,29320758000000,,,-1291005707024455680,0.0,4265.272989869118,2.318591730394364,9.945270459379968,6023,4,0.0,15,391827708351346,19,27.2,421.95233154296875,0.07559999823570251,0,0.0,0.0,,,,,0,,1,,
Raw,29314084,29320758000000,,,-1291005707024455680,0.0,4265.272989869118,2.318591730394364,9.945270459379968,6023,7,0.0,15,391827703532253,14,30.0,-626.8452758789062,0.031300000846385956,0,0.0,0.0,,,,,0,,1,,
Raw,29314085,29320758000000,,,-1291005707024455680,0.0,4265.272989869118,2.318591730394364,9.945270459379968,6023,8,0.0,15,391827714684377,7,37.7,43.97197723388672,0.03360000252723694,0,0.0,0.0,,,,,0,,1,,
Raw,29314085,29320758000000,,,-1291005707024455680,0.0,4265.272989869118,2.318591730394364,9.945270459379968,6023,9,0.0,15,391827706926353,6,38.9,90.32000732421875,0.020200001075863838,0,0.0,0.0,,,,,0,,1,,
Fix,gps,22.925441,120.294640,49.069275,0.000000,6.432000,1606999810000
NMEA,$GPGSV,3,1,09,04,37,223,27,07,23,320,30,08,71,293,38,09,32,271,39*7B,1606999809437
NMEA,$GPGSV,3,2,09,01,16,184,,16,33,047,,26,14,077,,27,52,021,*7E,1606999809439
NMEA,$GPGSV,3,3,09,31,03,135,*46,1606999809440
NMEA,$GLGSV,2,1,07,66,05,292,27,86,59,187,23,76,16,327,34,65,06,234,24*64,1606999809440
NMEA,$GLGSV,2,2,07,74,29,092,,84,05,025,,85,61,039,*5F,1606999809440
NMEA,$GAGSV,1,1,0,*74,1606999809441
NMEA,$PQGSV,1,1,03,193,14,164,,194,63,056,,195,71,078,,0,5*6A,1606999809441
NMEA,$PQGSV,1,1,0,*73,1606999809441
NMEA,$GNGSA,A,3,01,04,07,08,09,,,,,,,,1.5,1.3,0.8,1*3C,1606999809442
NMEA,$GNGSA,A,3,65,66,76,86,,,,,,,,,1.5,1.3,0.8,2*30,1606999809442
NMEA,$GNVTG,,T,,M,0.0,N,0.0,K,A*3D,1606999809442
NMEA,$GNRMC,125010.00,A,2255.526438,N,12017.678425,E,0.0,,031220,2.8,W,A*19,1606999809443
NMEA,$GNGGA,125010.00,2255.526438,N,12017.678425,E,1,09,1.3,31.6,M,17.5,M,,*48,1606999809443
Raw,29314542,29321751000000,,,-1291005707024232704,0.0,4282.735288143158,-3.7267503060326437,12.68215635941139,6024,2,0.0,207,57010695416251,24,25.5,157.071044921875,0.4018999934196472,0,0.0,0.0,,,,,0,,3,,
Raw,29314543,29321751000000,,,-1291005707024232704,0.0,4282.735288143158,-3.7267503060326437,12.68215635941139,6024,22,0.0,207,57010709337951,40,21.8,-444.50543212890625,0.98499995470047,0,0.0,0.0,,,,,0,,3,,
Raw,29314544,29321751000000,,,-1291005707024232704,0.0,4282.735288143158,-3.7267503060326437,12.68215635941139,6024,12,0.0,207,57010698999317,9,35.8,-533.6185913085938,0.242000013589859,0,0.0,0.0,,,,,0,,3,,
Raw,29314545,29321751000000,,,-1291005707024232704,0.0,4282.735288143158,-3.7267503060326437,12.68215635941139,6024,1,0.0,207,57010695315904,24,25.5,490.1749267578125,0.4018999934196472,0,0.0,0.0,,,,,0,,3,,
Raw,29314546,29321751000000,,,-1291005707024232704,0.0,4282.735288143158,-3.7267503060326437,12.68215635941139,6024,4,0.0,15,391828701127284,31,23.7,420.7297668457031,0.6829999685287476,0,0.0,0.0,,,,,0,,1,,
Raw,29314546,29321751000000,,,-1291005707024232704,0.0,4282.735288143158,-3.7267503060326437,12.68215635941139,6024,7,0.0,15,391828696311639,13,31.8,-629.0767822265625,0.04780000075697899,0,0.0,0.0,,,,,0,,1,,
Raw,29314547,29321751000000,,,-1291005707024232704,0.0,4282.735288143158,-3.7267503060326437,12.68215635941139,6024,8,0.0,15,391828707461561,9,35.0,41.895938873291016,0.02550000138580799,0,0.0,0.0,,,,,0,,1,,
Raw,29314547,29321751000000,,,-1291005707024232704,0.0,4282.735288143158,-3.7267503060326437,12.68215635941139,6024,9,0.0,15,391828699703395,7,37.4,88.20600891113281,0.04110000282526016,0,0.0,0.0,,,,,0,,1,,
Raw,29314548,29321751000000,,,-1291005707024232704,0.0,4282.735288143158,-3.7267503060326437,12.68215635941139,6024,21,0.0,15,391828703271481,19,27.2,-479.5531005859375,0.06809999793767929,0,0.0,0.0,,,,,0,,1,,
Fix,gps,22.925441,120.294640,49.073364,0.000000,6.432000,1606999811000
NMEA,$GPGSV,3,1,10,04,37,222,24,07,23,320,32,08,71,296,35,09,32,270,37*74,1606999810437
NMEA,$GPGSV,3,2,10,21,39,164,27,01,16,182,,16,33,049,,26,14,078,*7F,1606999810438
NMEA,$GPGSV,3,3,10,27,51,021,,31,03,135,*7C,1606999810441
NMEA,$GLGSV,2,1,07,66,05,292,26,86,59,187,22,76,16,327,36,65,06,234,26*64,1606999810441
NMEA,$GLGSV,2,2,07,74,29,092,,84,04,025,,85,61,037,*50,1606999810442
NMEA,$GAGSV,1,1,0,*74,1606999810442
NMEA,$PQGSV,1,1,03,193,14,164,,194,64,057,,195,71,077,,0,5*63,1606999810442
NMEA,$PQGSV,1,1,0,*73,1606999810442
NMEA,$GNGSA,A,3,01,04,07,08,09,21,,,,,,,1.5,1.3,0.8,1*3F,1606999810443
NMEA,$GNGSA,A,3,65,66,76,86,,,,,,,,,1.5,1.3,0.8,2*30,1606999810443
NMEA,$GNVTG,,T,,M,0.0,N,0.0,K,A*3D,1606999810443
NMEA,$GNRMC,125011.00,A,2255.526438,N,12017.678423,E,0.0,,031220,2.8,W,A*1E,1606999810444
NMEA,$GNGGA,125011.00,2255.526438,N,12017.678423,E,1,10,1.3,31.6,M,17.5,M,,*47,1606999810444
Raw,29315542,29322740000000,,,-1291005707024039936,0.0,4300.549626350403,-11.253453943607537,12.065146478433212,6025,2,0.0,207,57011684222980,16,29.1,156.0711669921875,0.23570001125335693,0,0.0,0.0,,,,,0,,3,,
Raw,29315543,29322740000000,,,-1291005707024039936,0.0,4300.549626350403,-11.253453943607537,12.065146478433212,6025,12,0.0,207,57011687808317,11,33.5,-534.3009033203125,0.22949999570846558,0,0.0,0.0,,,,,0,,3,,
Raw,29315543,29322740000000,,,-1291005707024039936,0.0,4300.549626350403,-11.253453943607537,12.065146478433212,6025,1,0.0,207,57011684121521,16,29.7,489.67364501953125,0.23570001125335693,0,0.0,0.0,,,,,0,,3,,
Raw,29315544,29322740000000,,,-1291005707024039936,0.0,4300.549626350403,-11.253453943607537,12.065146478433212,6025,4,0.0,15,391829689933078,14,30.1,419.29254150390625,0.040300000458955765,0,0.0,0.0,,,,,0,,1,,
Raw,29315545,29322740000000,,,-1291005707024039936,0.0,4300.549626350403,-11.253453943607537,12.065146478433212,6025,7,0.0,15,391829685120828,10,34.8,-629.6270751953125,0.02459999918937683,0,0.0,0.0,,,,,0,,1,,
Raw,29315545,29322740000000,,,-1291005707024039936,0.0,4300.549626350403,-11.253453943607537,12.065146478433212,6025,8,0.0,15,391829696268592,8,36.7,41.439029693603516,0.03800000250339508,0,0.0,0.0,,,,,0,,1,,
Raw,29315546,29322740000000,,,-1291005707024039936,0.0,4300.549626350403,-11.253453943607537,12.065146478433212,6025,9,0.0,15,391829688510286,9,35.4,87.74842071533203,0.027000000700354576,0,0.0,0.0,,,,,0,,1,,
Raw,29315547,29322740000000,,,-1291005707024039936,0.0,4300.549626350403,-11.253453943607537,12.065146478433212,6025,21,0.0,15,391829692080203,31,23.4,-479.99676513671875,0.7294999957084656,0,0.0,0.0,,,,,0,,1,,
Fix,gps,22.925441,120.294640,49.072754,0.000000,5.360000,1606999812000
NMEA,$GPGSV,3,1,10,04,37,222,30,07,23,320,35,08,71,296,37,09,32,270,35*76,1606999811438
NMEA,$GPGSV,3,2,10,21,39,164,23,01,16,182,,16,33,049,,26,14,078,*7B,1606999811438
NMEA,$GPGSV,3,3,10,27,51,021,,31,03,135,*7C,1606999811439
NMEA,$GLGSV,2,1,06,66,05,292,29,76,16,327,34,65,06,234,30,74,29,092,*60,1606999811439
NMEA,$GLGSV,2,2,06,84,04,025,,85,61,037,*62,1606999811439
NMEA,$GAGSV,1,1,0,*74,1606999811440
NMEA,$PQGSV,1,1,03,193,14,164,,194,64,057,,195,71,077,,0,5*63,1606999811440
NMEA,$PQGSV,1,1,0,*73,1606999811440
NMEA,$GNGSA,A,3,01,04,07,08,09,21,,,,,,,1.5,1.3,0.8,1*3F,1606999811442
NMEA,$GNGSA,A,2,65,66,76,,,,,,,,,,1.5,1.3,0.8,2*3F,1606999811442
NMEA,$GNVTG,,T,,M,0.0,N,0.0,K,A*3D,1606999811442
NMEA,$GNRMC,125012.00,A,2255.526437,N,12017.678422,E,0.0,,031220,2.8,W,A*13,1606999811442
NMEA,$GNGGA,125012.00,2255.526437,N,12017.678422,E,1,09,1.3,31.6,M,17.5,M,,*42,1606999811443
Raw,29317046,29323755000000,,,-1291005707023694592,0.0,4272.268153727055,-13.023610097236359,13.4029843176664,6026,2,0.0,207,57012698876975,24,25.3,157.57681274414062,0.40639999508857727,0,0.0,0.0,,,,,0,,3,,
Raw,29317046,29323755000000,,,-1291005707023694592,0.0,4272.268153727055,-13.023610097236359,13.4029843176664,6026,22,0.0,207,57012712802721,24,25.3,-443.5298156738281,0.39739999175071716,0,0.0,0.0,,,,,0,,3,,
Raw,29317047,29323755000000,,,-1291005707023694592,0.0,4272.268153727055,-13.023610097236359,13.4029843176664,6026,12,0.0,207,57012702464670,9,35.8,-533.1400756835938,0.24800001084804535,0,0.0,0.0,,,,,0,,3,,
Raw,29317048,29323755000000,,,-1291005707023694592,0.0,4272.268153727055,-13.023610097236359,13.4029843176664,6026,1,0.0,207,57012698774394,21,26.9,490.5437316894531,0.3246999979019165,0,0.0,0.0,,,,,0,,3,,
Raw,29317048,29323755000000,,,-1291005707023694592,0.0,4272.268153727055,-13.023610097236359,13.4029843176664,6026,1,0.0,15,391830699626543,35,22.2,-701.8696899414062,0.800000011920929,0,0.0,0.0,,,,,0,,1,,
Raw,29317049,29323755000000,,,-1291005707023694592,0.0,4272.268153727055,-13.023610097236359,13.4029843176664,6026,4,0.0,15,391830704586219,16,29.8,421.125732421875,0.0357000008225441,0,0.0,0.0,,,,,0,,1,,
Raw,29317049,29323755000000,,,-1291005707023694592,0.0,4272.268153727055,-13.023610097236359,13.4029843176664,6026,7,0.0,15,391830699777536,11,33.6,-628.4559326171875,0.04750000312924385,0,0.0,0.0,,,,,0,,1,,
Raw,29317050,29323755000000,,,-1291005707023694592,0.0,4272.268153727055,-13.023610097236359,13.4029843176664,6026,8,0.0,15,391830710923025,9,35.8,42.786739349365234,0.030000001192092896,0,0.0,0.0,,,,,0,,1,,
Raw,29317051,29323755000000,,,-1291005707023694592,0.0,4272.268153727055,-13.023610097236359,13.4029843176664,6026,9,0.0,15,391830703164544,10,34.9,89.13816833496094,0.02160000056028366,0,0.0,0.0,,,,,0,,1,,
Raw,29317051,29323755000000,,,-1291005707023694592,0.0,4272.268153727055,-13.023610097236359,13.4029843176664,6026,21,0.0,15,391830706736345,19,27.0,-478.42950439453125,0.07259999960660934,0,0.0,0.0,,,,,0,,1,,
Fix,gps,22.925441,120.294640,49.073608,0.000000,5.360000,1606999813000
NMEA,$GPGSV,3,1,10,01,16,182,22,04,37,222,30,07,23,320,34,08,71,296,36*70,1606999812440
NMEA,$GPGSV,3,2,10,09,32,270,35,21,39,164,27,16,33,049,,26,14,078,*79,1606999812440
NMEA,$GPGSV,3,3,10,27,51,021,,31,03,135,*7C,1606999812440
NMEA,$GLGSV,2,1,07,66,05,292,25,86,59,187,25,76,16,327,36,65,06,234,27*61,1606999812440
NMEA,$GLGSV,2,2,07,74,29,092,,84,04,025,,85,61,037,*50,1606999812441
NMEA,$GAGSV,1,1,0,*74,1606999812442
NMEA,$PQGSV,1,1,03,193,14,164,,194,64,057,,195,71,077,,0,5*63,1606999812442
NMEA,$PQGSV,1,1,0,*73,1606999812443
NMEA,$GNGSA,A,3,01,04,07,08,09,21,,,,,,,1.5,1.3,0.8,1*3F,1606999812443
NMEA,$GNGSA,A,3,65,66,76,86,,,,,,,,,1.5,1.3,0.8,2*30,1606999812444
NMEA,$GNVTG,,T,,M,0.0,N,0.0,K,A*3D,1606999812444
NMEA,$GNRMC,125013.00,A,2255.526437,N,12017.678420,E,0.0,,031220,2.8,W,A*10,1606999812444
NMEA,$GNGGA,125013.00,2255.526437,N,12017.678420,E,1,10,1.3,31.6,M,17.5,M,,*49,1606999812444
Raw,29317517,29324746000000,,,-1291005707023008768,0.0,4251.176957041025,-7.352225041035854,12.725180941201884,6027,2,0.0,207,57013689190586,40,21.8,156.3006134033203,0.98499995470047,0,0.0,0.0,,,,,0,,3,,
Raw,29317518,29324746000000,,,-1291005707023008768,0.0,4251.176957041025,-7.352225041035854,12.725180941201884,6027,22,0.0,207,57013703118385,24,25.5,-444.26202392578125,0.3839000165462494,0,0.0,0.0,,,,,0,,3,,
Raw,29317518,29324746000000,,,-1291005707023008768,0.0,4251.176957041025,-7.352225041035854,12.725180941201884,6027,12,0.0,207,57013692780724,9,35.4,-533.4046020507812,0.2330000102519989,0,0.0,0.0,,,,,0,,3,,
Raw,29317519,29324746000000,,,-1291005707023008768,0.0,4251.176957041025,-7.352225041035854,12.725180941201884,6027,1,0.0,207,57013689087060,14,30.5,490.5749206542969,0.2402999997138977,0,0.0,0.0,,,,,0,,3,,
Raw,29317520,29324746000000,,,-1291005707023008768,0.0,4251.176957041025,-7.352225041035854,12.725180941201884,6027,1,0.0,15,391831689943112,31,23.5,-702.1265258789062,0.6649999618530273,0,0.0,0.0,,,,,0,,1,,
Raw,29317520,29324746000000,,,-1291005707023008768,0.0,4251.176957041025,-7.352225041035854,12.725180941201884,6027,4,0.0,15,391831694899165,14,30.3,420.3299560546875,0.04780000075697899,0,0.0,0.0,,,,,0,,1,,
Raw,29317521,29324746000000,,,-1291005707023008768,0.0,4251.176957041025,-7.352225041035854,12.725180941201884,6027,7,0.0,15,391831690093949,12,32.9,-628.6319580078125,0.036400001496076584,0,0.0,0.0,,,,,0,,1,,
Raw,29317521,29324746000000,,,-1291005707023008768,0.0,4251.176957041025,-7.352225041035854,12.725180941201884,6027,8,0.0,15,391831701237202,9,35.5,42.526065826416016,0.04650000110268593,0,0.0,0.0,,,,,0,,1,,
Raw,29317522,29324746000000,,,-1291005707023008768,0.0,4251.176957041025,-7.352225041035854,12.725180941201884,6027,9,0.0,15,391831693478568,9,35.3,88.82112121582031,0.03450000286102295,0,0.0,0.0,,,,,0,,1,,
Raw,29317522,29324746000000,,,-1291005707023008768,0.0,4251.176957041025,-7.352225041035854,12.725180941201884,6027,21,0.0,15,391831697052279,21,26.7,-478.9538269042969,0.12319999933242798,0,0.0,0.0,,,,,0,,1,,
Fix,gps,22.925441,120.294640,49.076599,0.000000,5.360000,1606999814000
NMEA,$GPGSV,3,1,10,01,16,182,24,04,37,222,30,07,23,320,33,08,71,296,36*71,1606999813439
NMEA,$GPGSV,3,2,10,09,32,270,35,21,39,164,27,16,33,049,,26,14,078,*79,1606999813439
NMEA,$GPGSV,3,3,10,27,51,021,,31,03,135,*7C,1606999813439
NMEA,$GLGSV,2,1,07,66,05,292,22,86,59,187,26,76,16,327,35,65,06,234,31*61,1606999813439
NMEA,$GLGSV,2,2,07,74,29,092,,84,04,025,,85,61,037,*50,1606999813439
NMEA,$GAGSV,1,1,0,*74,1606999813439
NMEA,$PQGSV,1,1,03,193,14,164,,194,64,057,,195,71,077,,0,5*63,1606999813440
NMEA,$PQGSV,1,1,0,*73,1606999813440
NMEA,$GNGSA,A,3,01,04,07,08,09,21,,,,,,,1.5,1.3,0.8,1*3F,1606999813441
NMEA,$GNGSA,A,3,65,66,76,86,,,,,,,,,1.5,1.3,0.8,2*30,1606999813441
NMEA,$GNVTG,,T,,M,0.0,N,0.0,K,A*3D,1606999813442
NMEA,$GNRMC,125014.00,A,2255.526436,N,12017.678419,E,0.0,,031220,2.8,W,A*1C,1606999813442
NMEA,$GNGGA,125014.00,2255.526436,N,12017.678419,E,1,10,1.3,31.6,M,17.5,M,,*45,1606999813442
Raw,29318584,29325759000000,,,-1291005707022874368,0.0,4254.622384905815,-9.099609182187983,12.760076183342427,6028,2,0.0,207,57014702055552,35,22.1,157.18138122558594,0.9444999694824219,0,0.0,0.0,,,,,0,,3,,
Raw,29318586,29325759000000,,,-1291005707022874368,0.0,4254.622384905815,-9.099609182187983,12.760076183342427,6028,22,0.0,207,57014715985489,27,24.2,-443.297119140625,0.8240000009536743,0,0.0,0.0,,,,,0,,3,,
Raw,29318588,29325759000000,,,-1291005707022874368,0.0,4254.622384905815,-9.099609182187983,12.760076183342427,6028,12,0.0,207,57014705647901,10,34.9,-532.7357788085938,0.22460000216960907,0,0.0,0.0,,,,,0,,3,,
Raw,29318590,29325759000000,,,-1291005707022874368,0.0,4254.622384905815,-9.099609182187983,12.760076183342427,6028,1,0.0,207,57014701950816,21,26.8,491.16851806640625,0.32919999957084656,0,0.0,0.0,,,,,0,,3,,
Raw,29318592,29325759000000,,,-1291005707022874368,0.0,4254.622384905815,-9.099609182187983,12.760076183342427,6028,1,0.0,15,391832702810900,35,22.5,-700.7944946289062,0.7144999504089355,0,0.0,0.0,,,,,0,,1,,
Raw,29318593,29325759000000,,,-1291005707022874368,0.0,4254.622384905815,-9.099609182187983,12.760076183342427,6028,4,0.0,15,391832707763089,14,30.2,421.04638671875,0.037300001829862595,0,0.0,0.0,,,,,0,,1,,
Raw,29318595,29325759000000,,,-1291005707022874368,0.0,4254.622384905815,-9.099609182187983,12.760076183342427,6028,7,0.0,15,391832702961437,11,33.3,-627.9318237304688,0.02199999988079071,0,0.0,0.0,,,,,0,,1,,
Raw,29318596,29325759000000,,,-1291005707022874368,0.0,4254.622384905815,-9.099609182187983,12.760076183342427,6028,8,0.0,15,391832714102427,8,36.0,43.3037223815918,0.03500000014901161,0,0.0,0.0,,,,,0,,1,,
Raw,29318598,29325759000000,,,-1291005707022874368,0.0,4254.622384905815,-9.099609182187983,12.760076183342427,6028,9,0.0,15,391832706343648,9,35.4,89.64472961425781,0.024000000208616257,0,0.0,0.0,,,,,0,,1,,
Raw,29318599,29325759000000,,,-1291005707022874368,0.0,4254.622384905815,-9.099609182187983,12.760076183342427,6028,21,0.0,15,391832709919183,21,26.4,-478.20660400390625,0.1111999973654747,0,0.0,0.0,,,,,0,,1,,
Fix,gps,22.925441,120.294640,49.079590,0.000000,6.432000,1606999815000
NMEA,$GPGSV,3,1,10,01,16,182,23,04,37,222,30,07,23,320,33,08,71,296,36*76,1606999814448
NMEA,$GPGSV,3,2,10,09,32,270,35,21,39,164,26,16,33,049,,26,14,078,*78,1606999814449
NMEA,$GPGSV,3,3,10,27,51,021,,31,03,135,*7C,1606999814450
NMEA,$GLGSV,2,1,07,66,05,292,22,86,59,187,24,76,16,327,35,65,06,234,27*64,1606999814450
NMEA,$GLGSV,2,2,07,74,29,092,,84,04,025,,85,61,037,*50,1606999814451
NMEA,$GAGSV,1,1,0,*74,1606999814451
NMEA,$PQGSV,1,1,03,193,14,164,,194,64,057,,195,71,077,,0,5*63,1606999814452
NMEA,$PQGSV,1,1,0,*73,1606999814454
NMEA,$GNGSA,A,3,01,04,07,08,09,21,,,,,,,1.5,1.3,0.8,1*3F,1606999814457
NMEA,$GNGSA,A,3,65,66,76,86,,,,,,,,,1.5,1.3,0.8,2*30,1606999814458
NMEA,$GNVTG,,T,,M,0.0,N,0.0,K,A*3D,1606999814458
NMEA,$GNRMC,125015.00,A,2255.526435,N,12017.678417,E,0.0,,031220,2.8,W,A*10,1606999814459
NMEA,$GNGGA,125015.00,2255.526435,N,12017.678417,E,1,10,1.3,31.6,M,17.5,M,,*49,1606999814460
Fix,gps,22.925441,120.294640,49.084045,0.000000,6.432000,1606999816000
Raw,29320233,29326751000000,,,-1291005707022599168,0.0,4266.024567186832,-7.08734153905877,12.821669729277584,6029,2,0.0,207,57015693780115,21,26.5,159.156005859375,0.3172000050544739,0,0.0,0.0,,,,,0,,3,,
Raw,29320234,29326751000000,,,-1291005707022599168,0.0,4266.024567186832,-7.08734153905877,12.821669729277584,6029,22,0.0,207,57015707711870,27,24.0,-442.0981750488281,0.812000036239624,0,0.0,0.0,,,,,0,,3,,
Raw,29320234,29326751000000,,,-1291005707022599168,0.0,4266.024567186832,-7.08734153905877,12.821669729277584,6029,12,0.0,207,57015697374594,10,34.6,-531.72119140625,0.2425999939441681,0,0.0,0.0,,,,,0,,3,,
Raw,29320235,29326751000000,,,-1291005707022599168,0.0,4266.024567186832,-7.08734153905877,12.821669729277584,6029,1,0.0,207,57015693674189,31,23.9,492.3232727050781,0.8709999918937683,0,0.0,0.0,,,,,0,,3,,
Raw,29320235,29326751000000,,,-1291005707022599168,0.0,4266.024567186832,-7.08734153905877,12.821669729277584,6029,1,0.0,15,391833694538118,40,21.8,-698.9486694335938,0.7924999594688416,0,0.0,0.0,,,,,0,,1,,
Raw,29320235,29326751000000,,,-1291005707022599168,0.0,4266.024567186832,-7.08734153905877,12.821669729277584,6029,4,0.0,15,391833699486587,16,29.1,422.1695861816406,0.05820000171661377,0,0.0,0.0,,,,,0,,1,,
Raw,29320236,29326751000000,,,-1291005707022599168,0.0,4266.024567186832,-7.08734153905877,12.821669729277584,6029,7,0.0,15,391833694688438,11,33.5,-626.9144897460938,0.04000000283122063,0,0.0,0.0,,,,,0,,1,,
Raw,29320236,29326751000000,,,-1291005707022599168,0.0,4266.024567186832,-7.08734153905877,12.821669729277584,6029,8,0.0,15,391833705827223,8,36.0,44.58648681640625,0.0215000007301569,0,0.0,0.0,,,,,0,,1,,
Raw,29320237,29326751000000,,,-1291005707022599168,0.0,4266.024567186832,-7.08734153905877,12.821669729277584,6029,9,0.0,15,391833698068293,9,35.7,90.77889251708984,0.04200000315904617,0,0.0,0.0,,,,,0,,1,,
Raw,29320237,29326751000000,,,-1291005707022599168,0.0,4266.024567186832,-7.08734153905877,12.821669729277584,6029,21,0.0,15,391833701645834,17,28.0,-476.8477478027344,0.0723000019788742,0,0.0,0.0,,,,,0,,1,,
NMEA,$GPGSV,3,1,10,01,16,182,22,04,37,222,29,07,23,320,34,08,71,296,36*78,1606999815446
NMEA,$GPGSV,3,2,10,09,32,270,36,21,39,164,28,16,33,049,,26,14,078,*75,1606999815446
NMEA,$GPGSV,3,3,10,27,51,021,,31,03,135,*7C,1606999815447
NMEA,$GLGSV,2,1,07,66,05,292,27,86,59,187,24,76,16,327,35,65,06,234,24*62,1606999815448
NMEA,$GLGSV,2,2,07,74,29,092,,84,04,025,,85,61,037,*50,1606999815448
NMEA,$GAGSV,1,1,0,*74,1606999815449
NMEA,$PQGSV,1,1,03,193,14,164,,194,64,057,,195,71,077,,0,5*63,1606999815450
NMEA,$PQGSV,1,1,0,*73,1606999815450
NMEA,$GNGSA,A,3,01,04,07,08,09,21,,,,,,,1.5,1.3,0.8,1*3F,1606999815453
NMEA,$GNGSA,A,3,65,66,76,86,,,,,,,,,1.5,1.3,0.8,2*30,1606999815453
Raw,29320561,29327742000000,,,-1291005707022409216,0.0,4286.015406250954,-3.7175875016130653,11.907042671895397,6030,2,0.0,207,57016684589735,24,25.2,159.98143005371094,0.3853999972343445,0,0.0,0.0,,,,,0,,3,,
Raw,29320562,29327742000000,,,-1291005707022409216,0.0,4286.015406250954,-3.7175875016130653,11.907042671895397,6030,22,0.0,207,57016698523536,24,25.5,-441.4290466308594,0.40639999508857727,0,0.0,0.0,,,,,0,,3,,
Raw,29320562,29327742000000,,,-1291005707022409216,0.0,4286.015406250954,-3.7175875016130653,11.907042671895397,6030,12,0.0,207,57016688186598,10,34.7,-531.0195922851562,0.22910000383853912,0,0.0,0.0,,,,,0,,3,,
Raw,29320563,29327742000000,,,-1291005707022409216,0.0,4286.015406250954,-3.7175875016130653,11.907042671895397,6030,1,0.0,207,57016684482853,27,24.8,493.36151123046875,0.8075000047683716,0,0.0,0.0,,,,,0,,3,,
Raw,29320563,29327742000000,,,-1291005707022409216,0.0,4286.015406250954,-3.7175875016130653,11.907042671895397,6030,4,0.0,15,391834690295472,16,29.3,422.8926086425781,0.04470000043511391,0,0.0,0.0,,,,,0,,1,,
Raw,29320564,29327742000000,,,-1291005707022409216,0.0,4286.015406250954,-3.7175875016130653,11.907042671895397,6030,7,0.0,15,391834685500743,10,34.0,-626.1713256835938,0.02459999918937683,0,0.0,0.0,,,,,0,,1,,
Raw,29320564,29327742000000,,,-1291005707022409216,0.0,4286.015406250954,-3.7175875016130653,11.907042671895397,6030,8,0.0,15,391834696637311,8,36.2,45.24675369262695,0.03800000250339508,0,0.0,0.0,,,,,0,,1,,
Raw,29320564,29327742000000,,,-1291005707022409216,0.0,4286.015406250954,-3.7175875016130653,11.907042671895397,6030,9,0.0,15,391834688878216,8,36.2,91.59202575683594,0.026000000536441803,0,0.0,0.0,,,,,0,,1,,
Raw,29320565,29327742000000,,,-1291005707022409216,0.0,4286.015406250954,-3.7175875016130653,11.907042671895397,6030,21,0.0,15,391834692457589,17,28.2,-476.3401794433594,0.058800000697374344,0,0.0,0.0,,,,,0,,1,,
NMEA,$GNVTG,,T,,M,0.0,N,0.0,K,A*3D,1606999815454
NMEA,$GNRMC,125016.00,A,2255.526435,N,12017.678415,E,0.0,,031220,2.8,W,A*11,1606999815455
NMEA,$GNGGA,125016.00,2255.526435,N,12017.678415,E,1,10,1.3,31.6,M,17.5,M,,*48,1606999815457
Fix,gps,22.925441,120.294640,49.086670,0.000000,6.432000,1606999817000
NMEA,$GPGSV,3,1,09,04,37,222,29,07,23,320,34,08,71,296,36,09,32,270,36*75,1606999816447
NMEA,$GPGSV,3,2,09,21,39,164,28,16,33,049,,26,14,078,,27,51,021,*77,1606999816448
NMEA,$GPGSV,3,3,09,31,03,135,*46,1606999816452
NMEA,$GLGSV,2,1,07,66,05,292,25,86,59,187,26,76,16,327,35,65,06,234,25*63,1606999816455
NMEA,$GLGSV,2,2,07,74,29,092,,84,04,025,,85,61,037,*50,1606999816456
NMEA,$GAGSV,1,1,0,*74,1606999816457
NMEA,$PQGSV,1,1,03,193,14,164,,194,64,057,,195,71,077,,0,5*63,1606999816458
NMEA,$PQGSV,1,1,0,*73,1606999816459
NMEA,$GNGSA,A,3,04,07,08,09,21,,,,,,,,1.5,1.3,0.8,1*3E,1606999816461
NMEA,$GNGSA,A,3,65,66,76,86,,,,,,,,,1.5,1.3,0.8,2*30,1606999816462
NMEA,$GNVTG,,T,,M,0.0,N,0.0,K,A*3D,1606999816463
NMEA,$GNRMC,125017.00,A,2255.526434,N,12017.678413,E,0.0,,031220,2.8,W,A*17,1606999816465
NMEA,$GNGGA,125017.00,2255.526434,N,12017.678413,E,1,09,1.3,31.6,M,17.5,M,,*46,1606999816466
Fix,gps,22.925441,120.294640,49.091980,0.000000,6.432000,1606999818000
Raw,29321602,29328656000000,,,-1291005707022269952,0.0,4277.3643508553505,-1.6116581870475704,10.498238131071178,6031,2,0.0,207,57017598449766,19,27.0,160.16400146484375,0.39070001244544983,0,0.0,0.0,,,,,0,,3,,
Raw,29321604,29328656000000,,,-1291005707022269952,0.0,4277.3643508553505,-1.6116581870475704,10.498238131071178,6031,22,0.0,207,57017612385136,21,26.1,-441.8135986328125,0.46869999170303345,0,0.0,0.0,,,,,0,,3,,
Raw,29321607,29328656000000,,,-1291005707022269952,0.0,4277.3643508553505,-1.6116581870475704,10.498238131071178,6031,12,0.0,207,57017602048442,9,35.1,-530.9130249023438,0.26750001311302185,0,0.0,0.0,,,,,0,,3,,
Raw,29321609,29328656000000,,,-1291005707022269952,0.0,4277.3643508553505,-1.6116581870475704,10.498238131071178,6031,1,0.0,207,57017598341463,21,26.8,492.9613037109375,0.47769999504089355,0,0.0,0.0,,,,,0,,3,,
Raw,29321611,29328656000000,,,-1291005707022269952,0.0,4277.3643508553505,-1.6116581870475704,10.498238131071178,6031,4,0.0,15,391835604154502,16,29.5,423.098876953125,0.0803999975323677,0,0.0,0.0,,,,,0,,1,,
Raw,29321614,29328656000000,,,-1291005707022269952,0.0,4277.3643508553505,-1.6116581870475704,10.498238131071178,6031,7,0.0,15,391835599362938,10,34.2,-626.036376953125,0.06710000336170197,0,0.0,0.0,,,,,0,,1,,
Raw,29321616,29328656000000,,,-1291005707022269952,0.0,4277.3643508553505,-1.6116581870475704,10.498238131071178,6031,8,0.0,15,391835610497430,8,36.5,45.54256820678711,0.045499999076128006,0,0.0,0.0,,,,,0,,1,,
Raw,29321618,29328656000000,,,-1291005707022269952,0.0,4277.3643508553505,-1.6116581870475704,10.498238131071178,6031,9,0.0,15,391835602738197,8,36.4,91.86531066894531,0.03350000083446503,0,0.0,0.0,,,,,0,,1,,
Raw,29321620,29328656000000,,,-1291005707022269952,0.0,4277.3643508553505,-1.6116581870475704,10.498238131071178,6031,21,0.0,15,391835606319250,19,27.8,-476.189453125,0.17270000278949738,0,0.0,0.0,,,,,0,,1,,
NMEA,$GPGSV,3,1,10,04,37,222,30,07,23,320,34,08,71,296,37,09,32,270,36*74,1606999817444
NMEA,$GPGSV,3,2,10,21,39,164,28,01,16,182,,16,33,049,,26,14,078,*70,1606999817446
NMEA,$GPGSV,3,3,10,27,51,021,,31,03,135,*7C,1606999817447
NMEA,$GLGSV,2,1,07,66,05,292,27,86,59,187,26,76,16,327,35,65,06,234,27*63,1606999817449
NMEA,$GLGSV,2,2,07,74,29,092,,84,04,025,,85,61,037,*50,1606999817449
NMEA,$GAGSV,1,1,0,*74,1606999817449
NMEA,$PQGSV,1,1,03,193,14,164,,194,64,057,,195,71,077,,0,5*63,1606999817450
NMEA,$PQGSV,1,1,0,*73,1606999817450
NMEA,$GNGSA,A,3,01,04,07,08,09,21,,,,,,,1.5,1.3,0.8,1*3F,1606999817451
NMEA,$GNGSA,A,3,65,66,76,86,,,,,,,,,1.5,1.3,0.8,2*30,1606999817452
NMEA,$GNVTG,,T,,M,0.0,N,0.0,K,A*3D,1606999817452
NMEA,$GNRMC,125018.00,A,2255.526432,N,12017.678410,E,0.0,,031220,2.8,W,A*1D,1606999817452
NMEA,$GNGGA,125018.00,2255.526432,N,12017.678410,E,1,10,1.3,31.6,M,17.5,M,,*44,1606999817452
Fix,gps,22.925441,120.294640,49.092041,0.000000,6.432000,1606999819000
NMEA,$GPGSA,A,1,,,,,,,,,,,,,1.5,1.3,0.8,1*23,1606999818436
NMEA,$GPVTG,,T,,M,0.0,N,0.0,K,A*23,1606999818437
NMEA,$GPRMC,125019.00,A,2255.526432,N,12017.678408,E,0.0,,031220,2.8,W,A*0B,1606999818438
NMEA,$GPGGA,125019.00,2255.526432,N,12017.678408,E,1,00,1.3,31.6,M,17.5,M,,*53,1606999818439
NMEA,$GPGSV,3,1,10,01,16,182,24,04,37,222,30,07,23,320,34,08,71,296,37*77,1606999819440
Raw,29323558,29330760000000,,,-1291005707022125056,0.0,4307.667724788189,4.3408928093833605,11.083911642432149,6032,2,0.0,207,57019702303732,17,28.0,162.5443115234375,0.27379998564720154,0,0.0,0.0,,,,,0,,3,,
Raw,29323559,29330760000000,,,-1291005707022125056,0.0,4307.667724788189,4.3408928093833605,11.083911642432149,6032,22,0.0,207,57019716243410,31,23.6,-438.7168273925781,0.875499963760376,0,0.0,0.0,,,,,0,,3,,
Raw,29323560,29330760000000,,,-1291005707022125056,0.0,4307.667724788189,4.3408928093833605,11.083911642432149,6032,12,0.0,207,57019705907487,8,36.4,-528.743896484375,0.22150000929832458,0,0.0,0.0,,,,,0,,3,,
Raw,29323561,29330760000000,,,-1291005707022125056,0.0,4307.667724788189,4.3408928093833605,11.083911642432149,6032,1,0.0,207,57019702193176,27,24.6,495.50347900390625,0.8345000147819519,0,0.0,0.0,,,,,0,,3,,
Raw,29323563,29330760000000,,,-1291005707022125056,0.0,4307.667724788189,4.3408928093833605,11.083911642432149,6032,1,0.0,15,391837703073245,31,23.5,-697.5404663085938,0.6559999585151672,0,0.0,0.0,,,,,0,,1,,
Raw,29323564,29330760000000,,,-1291005707022125056,0.0,4307.667724788189,4.3408928093833605,11.083911642432149,6032,4,0.0,15,391837708006720,16,29.9,425.4178466796875,0.04170000180602074,0,0.0,0.0,,,,,0,,1,,
Raw,29323567,29330760000000,,,-1291005707022125056,0.0,4307.667724788189,4.3408928093833605,11.083911642432149,6032,7,0.0,15,391837703222584,11,33.7,-623.797119140625,0.023500001057982445,0,0.0,0.0,,,,,0,,1,,
Raw,29323568,29330760000000,,,-1291005707022125056,0.0,4307.667724788189,4.3408928093833605,11.083911642432149,6032,8,0.0,15,391837714352409,8,36.6,47.833866119384766,0.03500000014901161,0,0.0,0.0,,,,,0,,1,,
Raw,29323570,29330760000000,,,-1291005707022125056,0.0,4307.667724788189,4.3408928093833605,11.083911642432149,6032,9,0.0,15,391837706592860,7,37.9,94.24259948730469,0.02160000056028366,0,0.0,0.0,,,,,0,,1,,
Raw,29323572,29330760000000,,,-1291005707022125056,0.0,4307.667724788189,4.3408928093833605,11.083911642432149,6032,21,0.0,15,391837710177972,21,26.4,-473.8302307128906,0.11270000040531158,0,0.0,0.0,,,,,0,,1,,
Fix,gps,22.925440,120.294640,49.108459,0.000000,8.576000,1606999820000
NMEA,$GPGSV,3,2,10,09,32,270,38,21,39,164,26,16,33,049,,26,14,078,*75,1606999819440
NMEA,$GPGSV,3,3,10,27,51,021,,31,03,135,*7C,1606999819444
NMEA,$GLGSV,2,1,07,66,05,292,28,86,59,187,24,76,16,327,36,65,06,234,25*6F,1606999819444
NMEA,$GLGSV,2,2,07,74,29,092,,84,04,025,,85,61,037,*50,1606999819445
Raw,29324567,29331752000000,,,-1291005707021254912,0.0,4350.2566404640675,6.489481573371244,14.748083847404743,6033,22,0.0,207,57020707374937,35,22.4,-438.66998291015625,0.921999990940094,0,0.0,0.0,,,,,0,,3,,
Raw,29324570,29331752000000,,,-1291005707021254912,0.0,4350.2566404640675,6.489481573371244,14.748083847404743,6033,12,0.0,207,57020697039086,9,35.3,-528.9336547851562,0.24050000309944153,0,0.0,0.0,,,,,0,,3,,
Raw,29324573,29331752000000,,,-1291005707021254912,0.0,4350.2566404640675,6.489481573371244,14.748083847404743,6033,1,0.0,207,57020693321514,31,23.8,495.1199645996094,0.8709999918937683,0,0.0,0.0,,,,,0,,3,,
Raw,29324575,29331752000000,,,-1291005707021254912,0.0,4350.2566404640675,6.489481573371244,14.748083847404743,6033,1,0.0,15,391838694205516,31,23.6,-697.140869140625,0.67249995470047,0,0.0,0.0,,,,,0,,1,,
Raw,29324577,29331752000000,,,-1291005707021254912,0.0,4350.2566404640675,6.489481573371244,14.748083847404743,6033,4,0.0,15,391838699135279,14,30.6,425.38226318359375,0.05530000105500221,0,0.0,0.0,,,,,0,,1,,
Raw,29324580,29331752000000,,,-1291005707021254912,0.0,4350.2566404640675,6.489481573371244,14.748083847404743,6033,7,0.0,15,391838694354538,10,34.2,-623.953125,0.038100000470876694,0,0.0,0.0,,,,,0,,1,,
Raw,29324583,29331752000000,,,-1291005707021254912,0.0,4350.2566404640675,6.489481573371244,14.748083847404743,6033,8,0.0,15,391838705482119,8,36.2,47.8155632019043,0.0215000007301569,0,0.0,0.0,,,,,0,,1,,
Raw,29324585,29331752000000,,,-1291005707021254912,0.0,4350.2566404640675,6.489481573371244,14.748083847404743,6033,9,0.0,15,391838697722428,8,36.8,94.1885986328125,0.039500001817941666,0,0.0,0.0,,,,,0,,1,,
Raw,29324587,29331752000000,,,-1291005707021254912,0.0,4350.2566404640675,6.489481573371244,14.748083847404743,6033,21,0.0,15,391838701309430,21,26.5,-473.81591796875,0.12919999659061432,0,0.0,0.0,,,,,0,,1,,
NMEA,$GAGSV,1,1,0,*74,1606999819445
NMEA,$PQGSV,1,1,03,193,14,164,,194,64,057,,195,71,077,,0,5*63,1606999819445
NMEA,$PQGSV,1,1,0,*73,1606999819446
NMEA,$GNGSA,A,3,01,04,07,08,09,21,,,,,,,1.5,1.3,0.8,1*3F,1606999819447
NMEA,$GNGSA,A,3,65,66,76,86,,,,,,,,,1.5,1.3,0.8,2*30,1606999819449
NMEA,$GNVTG,,T,,M,0.0,N,0.0,K,A*3D,1606999819452
NMEA,$GNRMC,125020.00,A,2255.526429,N,12017.678402,E,0.0,,031220,2.8,W,A*1F,1606999819454
NMEA,$GNGGA,125020.00,2255.526429,N,12017.678402,E,1,10,1.3,31.6,M,17.5,M,,*46,1606999819456
Fix,gps,22.925440,120.294640,49.115112,0.000000,8.576000,1606999821000
NMEA,$GPGSV,3,1,10,01,16,182,24,04,37,222,31,07,23,320,34,08,71,296,36*77,1606999820447
NMEA,$GPGSV,3,2,10,09,32,270,37,21,39,164,27,16,33,049,,26,14,078,*7B,1606999820448
NMEA,$GPGSV,3,3,10,27,51,021,,31,03,135,*7C,1606999820452
NMEA,$GLGSV,2,1,06,86,59,187,22,76,16,327,35,65,06,234,24,74,29,092,*6F,1606999820456
NMEA,$GLGSV,2,2,06,84,04,025,,85,61,037,*62,1606999820458
NMEA,$GAGSV,1,1,0,*74,1606999820458
NMEA,$PQGSV,1,1,03,193,14,164,,194,64,057,,195,71,077,,0,5*63,1606999820459
NMEA,$PQGSV,1,1,0,*73,1606999820460
NMEA,$GNGSA,A,3,01,04,07,08,09,21,,,,,,,1.5,1.3,0.8,1*3F,1606999820462
NMEA,$GNGSA,A,2,65,76,86,,,,,,,,,,1.5,1.3,0.8,2*31,1606999820463
NMEA,$GNVTG,,T,,M,0.0,N,0.0,K,A*3D,1606999820465
NMEA,$GNRMC,125021.00,A,2255.526427,N,12017.678397,E,0.0,,031220,2.8,W,A*1B,1606999820466
NMEA,$GNGGA,125021.00,2255.526427,N,12017.678397,E,1,09,1.3,31.6,M,17.5,M,,*4A,1606999820467
Raw,29325583,29332743000000,,,-1291005707021056256,0.0,4354.3800711631775,5.843352560003806,12.876695863079178,6034,2,0.0,207,57021684233848,40,21.4,159.92678833007812,0.9774999618530273,0,0.0,0.0,,,,,0,,3,,
Raw,29325585,29332743000000,,,-1291005707021056256,0.0,4354.3800711631775,5.843352560003806,12.876695863079178,6034,22,0.0,207,57021698177773,31,23.3,-440.739990234375,0.8784999847412109,0,0.0,0.0,,,,,0,,3,,
Raw,29325589,29332743000000,,,-1291005707021056256,0.0,4354.3800711631775,5.843352560003806,12.876695863079178,6034,12,0.0,207,57021687842309,8,36.3,-531.4277954101562,0.22450000047683716,0,0.0,0.0,,,,,0,,3,,
Raw,29325591,29332743000000,,,-1291005707021056256,0.0,4354.3800711631775,5.843352560003806,12.876695863079178,6034,1,0.0,207,57021684121311,21,26.7,492.5874938964844,0.3037000000476837,0,0.0,0.0,,,,,0,,3,,
Raw,29325593,29332743000000,,,-1291005707021056256,0.0,4354.3800711631775,5.843352560003806,12.876695863079178,6034,1,0.0,15,391839685009215,27,24.2,-700.185546875,0.6589999794960022,0,0.0,0.0,,,,,0,,1,,
Raw,29325596,29332743000000,,,-1291005707021056256,0.0,4354.3800711631775,5.843352560003806,12.876695863079178,6034,4,0.0,15,391839689935343,16,29.4,422.9990539550781,0.04320000112056732,0,0.0,0.0,,,,,0,,1,,
Raw,29325599,29332743000000,,,-1291005707021056256,0.0,4354.3800711631775,5.843352560003806,12.876695863079178,6034,7,0.0,15,391839685158031,10,34.2,-626.3652954101562,0.02459999918937683,0,0.0,0.0,,,,,0,,1,,
Raw,29325601,29332743000000,,,-1291005707021056256,0.0,4354.3800711631775,5.843352560003806,12.876695863079178,6034,8,0.0,15,391839696283405,8,36.7,45.51819610595703,0.03800000250339508,0,0.0,0.0,,,,,0,,1,,
Raw,29325603,29332743000000,,,-1291005707021056256,0.0,4354.3800711631775,5.843352560003806,12.876695863079178,6034,9,0.0,15,391839688523565,8,36.8,91.8554916381836,0.026000000536441803,0,0.0,0.0,,,,,0,,1,,
Raw,29325605,29332743000000,,,-1291005707021056256,0.0,4354.3800711631775,5.843352560003806,12.876695863079178,6034,21,0.0,15,391839692112519,21,26.4,-476.2102355957031,0.11569999903440475,0,0.0,0.0,,,,,0,,1,,
Fix,gps,22.925440,120.294640,49.119690,0.000000,8.576000,1606999822000
NMEA,$GPGSV,3,1,10,01,16,182,24,04,37,222,29,07,23,320,34,08,71,296,37*7F,1606999821443
NMEA,$GPGSV,3,2,10,09,32,270,37,21,39,164,26,16,33,049,,26,14,078,*7A,1606999821444
NMEA,$GPGSV,3,3,10,27,51,021,,31,03,135,*7C,1606999821445
NMEA,$GLGSV,2,1,07,66,05,292,21,86,59,187,23,76,16,327,36,65,06,234,27*63,1606999821445
NMEA,$GLGSV,2,2,07,74,29,092,,84,04,025,,85,61,037,*50,1606999821446
NMEA,$GAGSV,1,1,0,*74,1606999821446
NMEA,$PQGSV,1,1,03,193,14,164,,194,64,057,,195,71,077,,0,5*63,1606999821447
NMEA,$PQGSV,1,1,0,*73,1606999821448
NMEA,$GNGSA,A,3,01,04,07,08,09,21,,,,,,,1.5,1.3,0.8,1*3F,1606999821452
NMEA,$GNGSA,A,3,65,66,76,86,,,,,,,,,1.5,1.3,0.8,2*30,1606999821452
NMEA,$GNVTG,,T,,M,0.0,N,0.0,K,A*3D,1606999821453
NMEA,$GNRMC,125022.00,A,2255.526425,N,12017.678392,E,0.0,,031220,2.8,W,A*1F,1606999821454
NMEA,$GNGGA,125022.00,2255.526425,N,12017.678392,E,1,10,1.3,31.7,M,17.5,M,,*47,1606999821454
Raw,29327075,29333757000000,,,-1291005707020995328,0.0,4358.378238976002,-2.3802974106369614,13.832043579637311,6035,2,0.0,207,57022698172732,35,22.8,161.87574768066406,0.9384999871253967,0,0.0,0.0,,,,,0,,3,,
Raw,29327077,29333757000000,,,-1291005707020995328,0.0,4358.378238976002,-2.3802974106369614,13.832043579637311,6035,22,0.0,207,57022712118343,31,23.4,-440.13116455078125,0.8694999814033508,0,0.0,0.0,,,,,0,,3,,
Raw,29327080,29333757000000,,,-1291005707020995328,0.0,4358.378238976002,-2.3802974106369614,13.832043579637311,6035,12,0.0,207,57022701783123,8,36.1,-531.2765502929688,0.24550001323223114,0,0.0,0.0,,,,,0,,3,,
Raw,29327083,29333757000000,,,-1291005707020995328,0.0,4358.378238976002,-2.3802974106369614,13.832043579637311,6035,1,0.0,207,57022698058751,19,27.1,492.796142578125,0.2906000018119812,0,0.0,0.0,,,,,0,,3,,
Raw,29327086,29333757000000,,,-1291005707020995328,0.0,4358.378238976002,-2.3802974106369614,13.832043579637311,6035,1,0.0,15,391840698950573,35,22.1,-699.6051635742188,0.7985000014305115,0,0.0,0.0,,,,,0,,1,,
Raw,29327088,29333757000000,,,-1291005707020995328,0.0,4358.378238976002,-2.3802974106369614,13.832043579637311,6035,4,0.0,15,391840703872928,16,29.0,423.32281494140625,0.03420000150799751,0,0.0,0.0,,,,,0,,1,,
Raw,29327091,29333757000000,,,-1291005707020995328,0.0,4358.378238976002,-2.3802974106369614,13.832043579637311,6035,7,0.0,15,391840699099204,10,34.5,-626.198974609375,0.04560000076889992,0,0.0,0.0,,,,,0,,1,,
Raw,29327093,29333757000000,,,-1291005707020995328,0.0,4358.378238976002,-2.3802974106369614,13.832043579637311,6035,8,0.0,15,391840710222312,8,36.0,45.807796478271484,0.029000001028180122,0,0.0,0.0,,,,,0,,1,,
Raw,29327095,29333757000000,,,-1291005707020995328,0.0,4358.378238976002,-2.3802974106369614,13.832043579637311,6035,9,0.0,15,391840702462299,8,36.7,92.08692932128906,0.04700000211596489,0,0.0,0.0,,,,,0,,1,,
Raw,29327098,29333757000000,,,-1291005707020995328,0.0,4358.378238976002,-2.3802974106369614,13.832043579637311,6035,21,0.0,15,391840706053077,24,25.3,-475.51666259765625,0.188400000333786,0,0.0,0.0,,,,,0,,1,,
Raw,29327100,29333757000000,,,-1291005707020995328,0.0,4358.378238976002,-2.3802974106369614,13.832043579637311,6035,27,0.0,15,391840707536576,40,21.3,445.7533874511719,0.8420000076293945,0,0.0,0.0,,,,,0,,1,,
Fix,gps,22.925440,120.294640,49.127563,0.000000,9.648001,1606999823000
NMEA,$GPGSV,3,1,10,01,16,182,22,04,37,222,29,07,23,320,35,08,71,296,36*79,1606999822447
NMEA,$GPGSV,3,2,10,09,32,270,37,21,39,164,25,27,51,021,21,16,33,049,*76,1606999822448
NMEA,$GPGSV,3,3,10,26,14,078,,31,03,135,*70,1606999822449
NMEA,$GLGSV,2,1,07,66,05,292,23,86,59,187,23,76,16,327,36,65,06,234,27*61,1606999822450
NMEA,$GLGSV,2,2,07,74,29,092,,84,04,025,,85,61,037,*50,1606999822451
NMEA,$GAGSV,1,1,0,*74,1606999822452
NMEA,$PQGSV,1,1,03,193,14,164,,194,64,057,,195,71,077,,0,5*63,1606999822453
NMEA,$PQGSV,1,1,0,*73,1606999822454
NMEA,$GNGSA,A,3,01,04,07,08,09,21,,,,,,,1.3,1.0,0.8,1*3A,1606999822460
Raw,29327567,29334748000000,,,-1291005707020797696,0.0,4371.363203972578,-1.4746815576576455,11.860906164253771,6036,2,0.0,207,57023688974426,35,22.6,161.66024780273438,0.9234999418258667,0,0.0,0.0,,,,,0,,3,,
Raw,29327569,29334748000000,,,-1291005707020797696,0.0,4371.363203972578,-1.4746815576576455,11.860906164253771,6036,22,0.0,207,57023702922066,27,24.1,-439.09149169921875,0.8044999837875366,0,0.0,0.0,,,,,0,,3,,
Raw,29327572,29334748000000,,,-1291005707020797696,0.0,4371.363203972578,-1.4746815576576455,11.860906164253771,6036,12,0.0,207,57023692587279,8,36.0,-529.8690185546875,0.23200000822544098,0,0.0,0.0,,,,,0,,3,,
Raw,29327574,29334748000000,,,-1291005707020797696,0.0,4371.363203972578,-1.4746815576576455,11.860906164253771,6036,1,0.0,207,57023688859396,21,26.0,494.2822570800781,0.30970001220703125,0,0.0,0.0,,,,,0,,3,,
Raw,29327577,29334748000000,,,-1291005707020797696,0.0,4371.363203972578,-1.4746815576576455,11.860906164253771,6036,1,0.0,15,391841689755359,31,23.6,-699.1104125976562,0.6649999618530273,0,0.0,0.0,,,,,0,,1,,
Raw,29327579,29334748000000,,,-1291005707020797696,0.0,4371.363203972578,-1.4746815576576455,11.860906164253771,6036,4,0.0,15,391841694673962,19,27.9,424.7104187011719,0.08460000157356262,0,0.0,0.0,,,,,0,,1,,
Raw,29327581,29334748000000,,,-1291005707020797696,0.0,4371.363203972578,-1.4746815576576455,11.860906164253771,6036,7,0.0,15,391841689903672,9,35.2,-624.7182006835938,0.02850000187754631,0,0.0,0.0,,,,,0,,1,,
Raw,29327584,29334748000000,,,-1291005707020797696,0.0,4371.363203972578,-1.4746815576576455,11.860906164253771,6036,8,0.0,15,391841701024572,8,36.3,47.252742767333984,0.045500002801418304,0,0.0,0.0,,,,,0,,1,,
Raw,29327586,29334748000000,,,-1291005707020797696,0.0,4371.363203972578,-1.4746815576576455,11.860906164253771,6036,9,0.0,15,391841693264399,8,36.8,93.65400695800781,0.03350000083446503,0,0.0,0.0,,,,,0,,1,,
Raw,29327588,29334748000000,,,-1291005707020797696,0.0,4371.363203972578,-1.4746815576576455,11.860906164253771,6036,21,0.0,15,391841696857105,21,26.2,-474.4429931640625,0.1216999962925911,0,0.0,0.0,,,,,0,,1,,
NMEA,$GNGSA,A,3,65,66,76,86,,,,,,,,,1.3,1.0,0.8,2*35,1606999822461
NMEA,$GNVTG,,T,,M,0.0,N,0.0,K,A*3D,1606999822462
NMEA,$GNRMC,125023.00,A,2255.526422,N,12017.678387,E,0.0,,031220,2.8,W,A*1D,1606999822463
NMEA,$GNGGA,125023.00,2255.526422,N,12017.678387,E,1,10,1.0,31.7,M,17.5,M,,*46,1606999822463
Fix,gps,22.925440,120.294640,49.136475,0.000000,9.648001,1606999824000
NMEA,$GPGSV,3,1,09,01,16,182,24,04,37,222,28,07,23,320,35,08,71,296,36*76,1606999823446
NMEA,$GPGSV,3,2,09,09,32,270,37,21,39,164,26,16,33,049,,26,14,078,*72,1606999823447
NMEA,$GPGSV,3,3,09,31,03,135,*46,1606999823448
NMEA,$GLGSV,2,1,07,66,05,292,23,86,59,187,24,76,16,327,36,65,06,234,26*67,1606999823449
NMEA,$GLGSV,2,2,07,74,29,092,,84,04,025,,85,61,037,*50,1606999823449
NMEA,$GAGSV,1,1,0,*74,1606999823454
NMEA,$PQGSV,1,1,03,193,14,164,,194,64,057,,195,71,077,,0,5*63,1606999823455
NMEA,$PQGSV,1,1,0,*73,1606999823456
NMEA,$GNGSA,A,3,01,04,07,08,09,21,,,,,,,1.3,1.0,0.8,1*3A,1606999823459
NMEA,$GNGSA,A,3,65,66,76,86,,,,,,,,,1.3,1.0,0.8,2*35,1606999823461
NMEA,$GNVTG,,T,,M,0.0,N,0.0,K,A*3D,1606999823462
NMEA,$GNRMC,125024.00,A,2255.526419,N,12017.678381,E,0.0,,031220,2.8,W,A*14,1606999823463
NMEA,$GNGGA,125024.00,2255.526419,N,12017.678381,E,1,10,1.0,31.7,M,17.5,M,,*4F,1606999823466
Raw,29328583,29335761000000,,,-1291005707020636160,0.0,4399.36388283968,3.069435895498147,12.388857546761953,6037,22,0.0,207,57024715761803,35,22.8,-440.2529602050781,0.9339999556541443,0,0.0,0.0,,,,,0,,3,,
Raw,29328585,29335761000000,,,-1291005707020636160,0.0,4399.36388283968,3.069435895498147,12.388857546761953,6037,12,0.0,207,57024705427276,9,35.3,-530.5759887695312,0.2225000113248825,0,0.0,0.0,,,,,0,,3,,
Raw,29328588,29335761000000,,,-1291005707020636160,0.0,4399.36388283968,3.069435895498147,12.388857546761953,6037,1,0.0,207,57024701695949,16,29.1,493.5826721191406,0.2612000107765198,0,0.0,0.0,,,,,0,,3,,
Raw,29328591,29335761000000,,,-1291005707020636160,0.0,4399.36388283968,3.069435895498147,12.388857546761953,6037,1,0.0,15,391842702595911,35,22.9,-698.83447265625,0.7144999504089355,0,0.0,0.0,,,,,0,,1,,
Raw,29328593,29335761000000,,,-1291005707020636160,0.0,4399.36388283968,3.069435895498147,12.388857546761953,6037,4,0.0,15,391842707510709,19,27.1,424.06201171875,0.07410000264644623,0,0.0,0.0,,,,,0,,1,,
Raw,29328596,29335761000000,,,-1291005707020636160,0.0,4399.36388283968,3.069435895498147,12.388857546761953,6037,7,0.0,15,391842702743945,10,34.0,-625.453369140625,0.020099999383091927,0,0.0,0.0,,,,,0,,1,,
Raw,29328598,29335761000000,,,-1291005707020636160,0.0,4399.36388283968,3.069435895498147,12.388857546761953,6037,8,0.0,15,391842713862600,8,36.2,46.69911193847656,0.03350000083446503,0,0.0,0.0,,,,,0,,1,,
Raw,29328601,29335761000000,,,-1291005707020636160,0.0,4399.36388283968,3.069435895498147,12.388857546761953,6037,9,0.0,15,391842706102256,8,36.2,93.07732391357422,0.023000000044703484,0,0.0,0.0,,,,,0,,1,,
Raw,29328603,29335761000000,,,-1291005707020636160,0.0,4399.36388283968,3.069435895498147,12.388857546761953,6037,21,0.0,15,391842709696911,24,25.8,-475.0625305175781,0.19290000200271606,0,0.0,0.0,,,,,0,,1,,
Fix,gps,22.925440,120.294640,49.145142,0.000000,9.648001,1606999825000
NMEA,$GPGSV,3,1,10,01,16,182,23,04,37,222,27,07,23,320,34,08,71,296,36*77,1606999824446
NMEA,$GPGSV,3,2,10,09,32,270,36,21,39,164,26,16,33,049,,26,14,078,*7B,1606999824447
NMEA,$GPGSV,3,3,10,27,51,021,,31,03,135,*7C,1606999824448
NMEA,$GLGSV,2,1,06,86,59,187,23,76,16,327,35,65,06,234,29,74,29,092,*63,1606999824454
NMEA,$GLGSV,2,2,06,84,04,025,,85,61,037,*62,1606999824456
NMEA,$GAGSV,1,1,0,*74,1606999824457
NMEA,$PQGSV,1,1,03,193,14,164,,194,64,057,,195,71,077,,0,5*63,1606999824458
NMEA,$PQGSV,1,1,0,*73,1606999824458
NMEA,$GNGSA,A,3,01,04,07,08,09,21,27,,,,,,1.3,1.0,0.8,1*3F,1606999824461
NMEA,$GNGSA,A,2,65,76,86,,,,,,,,,,1.3,1.0,0.8,2*34,1606999824462
NMEA,$GNVTG,,T,,M,0.0,N,0.0,K,A*3D,1606999824463
NMEA,$GNRMC,125025.00,A,2255.526417,N,12017.678377,E,0.0,,031220,2.8,W,A*12,1606999824464
NMEA,$GNGGA,125025.00,2255.526417,N,12017.678377,E,1,10,1.0,31.7,M,17.5,M,,*49,1606999824464
Raw,29329535,29336753000000,,,-1291005707020461056,0.0,4413.9293022453785,0.8342515120002018,15.167245069727514,6038,22,0.0,207,57025707588299,35,22.8,-440.62762451171875,0.921999990940094,0,0.0,0.0,,,,,0,,3,,
Raw,29329535,29336753000000,,,-1291005707020461056,0.0,4413.9293022453785,0.8342515120002018,15.167245069727514,6038,12,0.0,207,57025697254207,9,35.3,-531.5969848632812,0.24050000309944153,0,0.0,0.0,,,,,0,,3,,
Raw,29329536,29336753000000,,,-1291005707020461056,0.0,4413.9293022453785,0.8342515120002018,15.167245069727514,6038,1,0.0,207,57025693519544,21,26.8,492.55743408203125,0.3172000050544739,0,0.0,0.0,,,,,0,,3,,
Raw,29329537,29336753000000,,,-1291005707020461056,0.0,4413.9293022453785,0.8342515120002018,15.167245069727514,6038,1,0.0,15,391843694423445,31,23.6,-699.6907958984375,0.67249995470047,0,0.0,0.0,,,,,0,,1,,
Raw,29329537,29336753000000,,,-1291005707020461056,0.0,4413.9293022453785,0.8342515120002018,15.167245069727514,6038,4,0.0,15,391843699334467,17,28.2,423.0986328125,0.06930000334978104,0,0.0,0.0,,,,,0,,1,,
Raw,29329538,29336753000000,,,-1291005707020461056,0.0,4413.9293022453785,0.8342515120002018,15.167245069727514,6038,7,0.0,15,391843694571205,10,34.4,-626.362060546875,0.038100000470876694,0,0.0,0.0,,,,,0,,1,,
Raw,29329538,29336753000000,,,-1291005707020461056,0.0,4413.9293022453785,0.8342515120002018,15.167245069727514,6038,8,0.0,15,391843705687633,8,36.3,45.834266662597656,0.0215000007301569,0,0.0,0.0,,,,,0,,1,,
Raw,29329539,29336753000000,,,-1291005707020461056,0.0,4413.9293022453785,0.8342515120002018,15.167245069727514,6038,9,0.0,15,391843697927146,9,35.7,92.17364501953125,0.04050000011920929,0,0.0,0.0,,,,,0,,1,,
Raw,29329539,29336753000000,,,-1291005707020461056,0.0,4413.9293022453785,0.8342515120002018,15.167245069727514,6038,21,0.0,15,391843701523618,21,26.3,-475.9977722167969,0.12919999659061432,0,0.0,0.0,,,,,0,,1,,
Fix,gps,22.925440,120.294640,49.153870,0.000000,9.648001,1606999826000
Raw,29330705,29337744000000,,,-1291005707020380416,0.0,4413.047339767218,-2.8119323817441764,14.326985325983237,6039,22,0.0,207,57026698509095,27,24.6,-439.5879211425781,0.8285000324249268,0,0.0,0.0,,,,,0,,3,,
